{"businesses": [{"id": "x0k5kFArHLijdY8-NEQ7Xg", "alias": "bengal-tiger-indian-food-new-york", "name": "Bengal Tiger Indian Food", "image_url": "https://s3-media2.fl.yelpcdn.com/bphoto/65Q6vtiAqLDVFLrvu0ZdZA/o.jpg", "is_closed": false, "url": "https://www.yelp.com/biz/bengal-tiger-indian-food-new-york?adjust_creative=9gNmiWYX8uTbFBeTTvJMdA&utm_campaign=yelp_api_v3&utm_medium=api_v3_business_search&utm_source=9gNmiWYX8uTbFBeTTvJMdA", "review_count": 2267, "categories": [{"alias": "indpak", "title": "Indian"}], "rating": 4.5, "coordinates": {"latitude": 40.763167, "longitude": -73.977131}, "transactions": ["pickup", "delivery"], "price": "$$", "location": {"address1": "58 W 56th St", "address2": "Fl 2", "address3": "", "city": "New York", "zip_code": "10019", "country": "US", "state": "NY", "display_address": ["58 W 56th St", "Fl 2", "New York, NY 10019"]}, "phone": "+12122652703", "display_phone": "(212) 265-2703", "distance": 775.9956212854569}, {"id": "m5Whyz8O8jM4DrE808h71g", "alias": "darbar-grill-new-york", "name": "Darbar Grill", "image_url": "https://s3-media2.fl.yelpcdn.com/bphoto/9rN41wJJx8ic1fxNMnaslA/o.jpg", "is_closed": false, "url": "https://www.yelp.com/biz/darbar-grill-new-york?adjust_creative=9gNmiWYX8uTbFBeTTvJMdA&utm_campaign=yelp_api_v3&utm_medium=api_v3_business_search&utm_source=9gNmiWYX8uTbFBeTTvJMdA", "review_count": 578, "categories": [{"alias": "indpak", "title": "Indian"}, {"alias": "wine_bars", "title": "Wine Bars"}, {"alias": "catering", "title": "Caterers"}], "rating": 4.0, "coordinates": {"latitude": 40.759357, "longitude": -73.968826}, "transactions": ["pickup", "delivery", "restaurant_reservation"], "price": "$$", "location": {"address1": "157 E 55th St", "address2": "", "address3": "", "city": "New York", "zip_code": "10022", "country": "US", "state": "NY", "display_address": ["157 E 55th St", "New York, NY 10022"]}, "phone": "+12127514600", "display_phone": "(212) 751-4600", "distance": 66.17928511151273}, {"id": "1_pK5aQ47atF50oAKHADhA", "alias": "indian-accent-new-york", "name": "Indian Accent", "image_url": "https://s3-media1.fl.yelpcdn.com/bphoto/DOzVJrJQ9dZ1z_jQflKDYA/o.jpg", "is_closed": false, "url": "https://www.yelp.com/biz/indian-accent-new-york?adjust_creative=9gNmiWYX8uTbFBeTTvJMdA&utm_campaign=yelp_api_v3&utm_medium=api_v3_business_search&utm_source=9gNmiWYX8uTbFBeTTvJMdA", "review_count": 698, "categories": [{"alias": "indpak", "title": "Indian"}], "rating": 4.5, "coordinates": {"latitude": 40.7643344624229, "longitude": -73.9787312885132}, "transactions": ["pickup", "delivery"], "price": "$$$$", "location": {"address1": "123 W 56th St", "address2": "", "address3": "", "city": "New York", "zip_code": "10019", "country": "US", "state": "NY", "display_address": ["123 W 56th St", "New York, NY 10019"]}, "phone": "+12128428070", "display_phone": "(212) 842-8070", "distance": 961.2509351079973}, {"id": "QqrEF8_ZQCGi63cL10J5oA", "alias": "chola-new-york-3", "name": "Chola", "image_url": "https://s3-media2.fl.yelpcdn.com/bphoto/sES9shU8nbErVX_saLRRgA/o.jpg", "is_closed": false, "url": "https://www.yelp.com/biz/chola-new-york-3?adjust_creative=9gNmiWYX8uTbFBeTTvJMdA&utm_campaign=yelp_api_v3&utm_medium=api_v3_business_search&utm_source=9gNmiWYX8uTbFBeTTvJMdA", "review_count": 666, "categories": [{"alias": "indpak", "title": "Indian"}, {"alias": "soup", "title": "Soup"}, {"alias": "seafood", "title": "Seafood"}], "rating": 4.0, "coordinates": {"latitude": 40.76016, "longitude": -73.96582}, "transactions": ["pickup", "delivery"], "price": "$$", "location": {"address1": "232 E 58th St", "address2": "", "address3": "", "city": "New York", "zip_code": "10022", "country": "US", "state": "NY", "display_address": ["232 E 58th St", "New York, NY 10022"]}, "phone": "+12126884619", "display_phone": "(212) 688-4619", "distance": 333.7956234086525}, {"id": "z2VXX7wGl8XZ6_oo9W3koA", "alias": "patiala-indian-grill-new-york", "name": "Patiala Indian Grill", "image_url": "https://s3-media2.fl.yelpcdn.com/bphoto/cFmz8IrIG6JtI6FN87ULZQ/o.jpg", "is_closed": false, "url": "https://www.yelp.com/biz/patiala-indian-grill-new-york?adjust_creative=9gNmiWYX8uTbFBeTTvJMdA&utm_campaign=yelp_api_v3&utm_medium=api_v3_business_search&utm_source=9gNmiWYX8uTbFBeTTvJMdA", "review_count": 544, "categories": [{"alias": "indpak", "title": "Indian"}], "rating": 4.5, "coordinates": {"latitude": 40.7534700430117, "longitude": -73.99595067259492}, "transactions": ["pickup", "delivery"], "price": "$$", "location": {"address1": "371 W 34th St", "address2": "", "address3": "", "city": "New York", "zip_code": "10001", "country": "US", "state": "NY", "display_address": ["371 W 34th St", "New York, NY 10001"]}, "phone": "+12125648255", "display_phone": "(212) 564-8255", "distance": 2310.471979806944}, {"id": "HEs6llkn3wIP1ATXeIZQew", "alias": "pippali-new-york", "name": "Pippali", "image_url": "https://s3-media1.fl.yelpcdn.com/bphoto/B9NtMkxa0e6CT_vk16k32w/o.jpg", "is_closed": false, "url": "https://www.yelp.com/biz/pippali-new-york?adjust_creative=9gNmiWYX8uTbFBeTTvJMdA&utm_campaign=yelp_api_v3&utm_medium=api_v3_business_search&utm_source=9gNmiWYX8uTbFBeTTvJMdA", "review_count": 862, "categories": [{"alias": "indpak", "title": "Indian"}], "rating": 4.0, "coordinates": {"latitude": 40.74233, "longitude": -73.98331}, "transactions": ["pickup", "delivery", "restaurant_reservation"], "price": "$$", "location": {"address1": "129 E 27th St", "address2": "", "address3": "", "city": "New York", "zip_code": "10016", "country": "US", "state": "NY", "display_address": ["129 E 27th St", "New York, NY 10016"]}, "phone": "+12126891999", "display_phone": "(212) 689-1999", "distance": 2199.834387299421}, {"id": "u_CnSp9FieAuWqhvCn-A2A", "alias": "spice-mantra-new-york", "name": "Spice Mantra", "image_url": "https://s3-media2.fl.yelpcdn.com/bphoto/2DfwvwTkDnlAdq-bKKiokg/o.jpg", "is_closed": false, "url": "https://www.yelp.com/biz/spice-mantra-new-york?adjust_creative=9gNmiWYX8uTbFBeTTvJMdA&utm_campaign=yelp_api_v3&utm_medium=api_v3_business_search&utm_source=9gNmiWYX8uTbFBeTTvJMdA", "review_count": 64, "categories": [{"alias": "indpak", "title": "Indian"}], "rating": 4.5, "coordinates": {"latitude": 40.75825, "longitude": -73.96633}, "transactions": ["pickup", "delivery"], "location": {"address1": "1047 2nd Ave", "address2": null, "address3": "", "city": "New York", "zip_code": "10022", "country": "US", "state": "NY", "display_address": ["1047 2nd Ave", "New York, NY 10022"]}, "phone": "+12125729900", "display_phone": "(212) 572-9900", "distance": 285.91269847118963}, {"id": "ut-560tVcs2g-ZU0Y_qqHQ", "alias": "saar-indian-bistro-new-york", "name": "Saar Indian Bistro", "image_url": "https://s3-media3.fl.yelpcdn.com/bphoto/7KPpLaUdT2AUZ6cMym_wcQ/o.jpg", "is_closed": false, "url": "https://www.yelp.com/biz/saar-indian-bistro-new-york?adjust_creative=9gNmiWYX8uTbFBeTTvJMdA&utm_campaign=yelp_api_v3&utm_medium=api_v3_business_search&utm_source=9gNmiWYX8uTbFBeTTvJMdA", "review_count": 353, "categories": [{"alias": "indpak", "title": "Indian"}], "rating": 4.5, "coordinates": {"latitude": 40.7626659, "longitude": -73.9847093}, "transactions": ["pickup", "delivery"], "price": "$$", "location": {"address1": "241 W 51st St", "address2": "", "address3": null, "city": "New York", "zip_code": "10019", "country": "US", "state": "NY", "display_address": ["241 W 51st St", "New York, NY 10019"]}, "phone": "+16466092142", "display_phone": "(646) 609-2142", "distance": 1341.7042619572412}, {"id": "jf3JRaxUYU93x8LFU-8gkA", "alias": "gupshup-new-york", "name": "GupShup", "image_url": "https://s3-media2.fl.yelpcdn.com/bphoto/zaK7en1p1L6ipl5eyxIXpw/o.jpg", "is_closed": false, "url": "https://www.yelp.com/biz/gupshup-new-york?adjust_creative=9gNmiWYX8uTbFBeTTvJMdA&utm_campaign=yelp_api_v3&utm_medium=api_v3_business_search&utm_source=9gNmiWYX8uTbFBeTTvJMdA", "review_count": 608, "categories": [{"alias": "indpak", "title": "Indian"}, {"alias": "cocktailbars", "title": "Cocktail Bars"}, {"alias": "breakfast_brunch", "title": "Breakfast & Brunch"}], "rating": 4.0, "coordinates": {"latitude": 40.7368323318866, "longitude": -73.9877132715179}, "transactions": ["pickup", "delivery"], "price": "$$$", "location": {"address1": "115 E18th St", "address2": null, "address3": "", "city": "New York", "zip_code": "10003", "country": "US", "state": "NY", "display_address": ["115 E18th St", "New York, NY 10003"]}, "phone": "+12125187313", "display_phone": "(212) 518-7313", "distance": 2908.62854553811}, {"id": "A-ert0jDRBfku9ogyW_mEg", "alias": "spice-symphony-new-york-3", "name": "Spice Symphony", "image_url": "https://s3-media1.fl.yelpcdn.com/bphoto/ooBprHe-wyNb1dwvd1qhOA/o.jpg", "is_closed": false, "url": "https://www.yelp.com/biz/spice-symphony-new-york-3?adjust_creative=9gNmiWYX8uTbFBeTTvJMdA&utm_campaign=yelp_api_v3&utm_medium=api_v3_business_search&utm_source=9gNmiWYX8uTbFBeTTvJMdA", "review_count": 630, "categories": [{"alias": "chinese", "title": "Chinese"}, {"alias": "indpak", "title": "Indian"}, {"alias": "cocktailbars", "title": "Cocktail Bars"}], "rating": 4.5, "coordinates": {"latitude": 40.7558937072754, "longitude": -73.9715347290039}, "transactions": ["pickup", "delivery"], "price": "$$", "location": {"address1": "150 E 50th St", "address2": "", "address3": null, "city": "New York", "zip_code": "10022", "country": "US", "state": "NY", "display_address": ["150 E 50th St", "New York, NY 10022"]}, "phone": "+12123004869", "display_phone": "(212) 300-4869", "distance": 400.5399905340594}, {"id": "objNX6cuj1JyUijFjw21Qw", "alias": "bombay-bistro-new-york-2", "name": "Bombay Bistro", "image_url": "https://s3-media3.fl.yelpcdn.com/bphoto/FBDqyxGA51BZKMAoVr_Raw/o.jpg", "is_closed": false, "url": "https://www.yelp.com/biz/bombay-bistro-new-york-2?adjust_creative=9gNmiWYX8uTbFBeTTvJMdA&utm_campaign=yelp_api_v3&utm_medium=api_v3_business_search&utm_source=9gNmiWYX8uTbFBeTTvJMdA", "review_count": 255, "categories": [{"alias": "indpak", "title": "Indian"}, {"alias": "cocktailbars", "title": "Cocktail Bars"}], "rating": 4.5, "coordinates": {"latitude": 40.73136, "longitude": -74.00253}, "transactions": ["pickup", "delivery"], "price": "$$", "location": {"address1": "31 Cornelia St", "address2": "", "address3": null, "city": "New York", "zip_code": "10014", "country": "US", "state": "NY", "display_address": ["31 Cornelia St", "New York, NY 10014"]}, "phone": "+16468503719", "display_phone": "(646) 850-3719", "distance": 4156.164028472134}, {"id": "9pMhRYYgV7E9L7pzECtJKA", "alias": "the-drunken-munkey-ues-new-york", "name": "The Drunken Munkey - UES", "image_url": "https://s3-media2.fl.yelpcdn.com/bphoto/GgyYVXAY1-AFFZHYeBa6dQ/o.jpg", "is_closed": false, "url": "https://www.yelp.com/biz/the-drunken-munkey-ues-new-york?adjust_creative=9gNmiWYX8uTbFBeTTvJMdA&utm_campaign=yelp_api_v3&utm_medium=api_v3_business_search&utm_source=9gNmiWYX8uTbFBeTTvJMdA", "review_count": 1291, "categories": [{"alias": "indpak", "title": "Indian"}, {"alias": "cocktailbars", "title": "Cocktail Bars"}], "rating": 4.5, "coordinates": {"latitude": 40.78098, "longitude": -73.94751}, "transactions": ["pickup", "delivery", "restaurant_reservation"], "price": "$$", "location": {"address1": "338 E 92nd St", "address2": null, "address3": "", "city": "New York", "zip_code": "10128", "country": "US", "state": "NY", "display_address": ["338 E 92nd St", "New York, NY 10128"]}, "phone": "+16468468986", "display_phone": "(646) 846-8986", "distance": 3036.404205301173}, {"id": "izRJeBfDQYJmd6ibIQ6Mfg", "alias": "mughlai-indian-cuisine-new-york-4", "name": "Mughlai Indian Cuisine", "image_url": "https://s3-media4.fl.yelpcdn.com/bphoto/pY33lEN22h9TnvJxaKJSVg/o.jpg", "is_closed": false, "url": "https://www.yelp.com/biz/mughlai-indian-cuisine-new-york-4?adjust_creative=9gNmiWYX8uTbFBeTTvJMdA&utm_campaign=yelp_api_v3&utm_medium=api_v3_business_search&utm_source=9gNmiWYX8uTbFBeTTvJMdA", "review_count": 604, "categories": [{"alias": "indpak", "title": "Indian"}], "rating": 4.5, "coordinates": {"latitude": 40.78002, "longitude": -73.94978}, "transactions": ["pickup", "delivery"], "price": "$$", "location": {"address1": "1724 2nd Ave", "address2": "", "address3": "", "city": "New York", "zip_code": "10128", "country": "US", "state": "NY", "display_address": ["1724 2nd Ave", "New York, NY 10128"]}, "phone": "+12127226262", "display_phone": "(212) 722-6262", "distance": 2854.2293089409472}, {"id": "50eKjWOB-H9iuo1ocACOaQ", "alias": "imli-urban-indian-food-new-york-3", "name": "Imli Urban Indian Food", "image_url": "https://s3-media2.fl.yelpcdn.com/bphoto/YMgX2pEb-kRAZQmlyXW8nQ/o.jpg", "is_closed": false, "url": "https://www.yelp.com/biz/imli-urban-indian-food-new-york-3?adjust_creative=9gNmiWYX8uTbFBeTTvJMdA&utm_campaign=yelp_api_v3&utm_medium=api_v3_business_search&utm_source=9gNmiWYX8uTbFBeTTvJMdA", "review_count": 241, "categories": [{"alias": "indpak", "title": "Indian"}, {"alias": "cocktailbars", "title": "Cocktail Bars"}], "rating": 4.5, "coordinates": {"latitude": 40.7616660604253, "longitude": -73.9601389691234}, "transactions": ["pickup", "delivery"], "price": "$$", "location": {"address1": "1136 1st Ave", "address2": "", "address3": "", "city": "New York", "zip_code": "10065", "country": "US", "state": "NY", "display_address": ["1136 1st Ave", "New York, NY 10065"]}, "phone": "+12122560073", "display_phone": "(212) 256-0073", "distance": 841.557683462871}, {"id": "Xqk91WuhMeYS4pedccUYgA", "alias": "gazab-new-york", "name": "Gazab", "image_url": "https://s3-media3.fl.yelpcdn.com/bphoto/AuOMEQT6_UKD95-jNcYDLA/o.jpg", "is_closed": false, "url": "https://www.yelp.com/biz/gazab-new-york?adjust_creative=9gNmiWYX8uTbFBeTTvJMdA&utm_campaign=yelp_api_v3&utm_medium=api_v3_business_search&utm_source=9gNmiWYX8uTbFBeTTvJMdA", "review_count": 205, "categories": [{"alias": "indpak", "title": "Indian"}], "rating": 4.5, "coordinates": {"latitude": 40.72191, "longitude": -73.98666}, "transactions": ["pickup", "delivery"], "location": {"address1": "179 Essex St", "address2": "", "address3": null, "city": "New York", "zip_code": "10002", "country": "US", "state": "NY", "display_address": ["179 Essex St", "New York, NY 10002"]}, "phone": "+19173882664", "display_phone": "(917) 388-2664", "distance": 4385.447220647618}, {"id": "ZikqL-flwV2XYlKtL2UfmA", "alias": "rangoli-exquisite-indian-cuisine-new-york", "name": "Rangoli Exquisite Indian Cuisine", "image_url": "https://s3-media3.fl.yelpcdn.com/bphoto/sG1chWTHZTSeGvXSnkxuAg/o.jpg", "is_closed": false, "url": "https://www.yelp.com/biz/rangoli-exquisite-indian-cuisine-new-york?adjust_creative=9gNmiWYX8uTbFBeTTvJMdA&utm_campaign=yelp_api_v3&utm_medium=api_v3_business_search&utm_source=9gNmiWYX8uTbFBeTTvJMdA", "review_count": 497, "categories": [{"alias": "indpak", "title": "Indian"}, {"alias": "desserts", "title": "Desserts"}, {"alias": "seafood", "title": "Seafood"}], "rating": 4.5, "coordinates": {"latitude": 40.7693, "longitude": -73.95823}, "transactions": ["pickup", "delivery"], "price": "$$", "location": {"address1": "1393 A 2nd Ave", "address2": "", "address3": "", "city": "New York", "zip_code": "10021", "country": "US", "state": "NY", "display_address": ["1393 A 2nd Ave", "New York, NY 10021"]}, "phone": "+12126283800", "display_phone": "(212) 628-3800", "distance": 1474.1577248990718}, {"id": "NgD-6ogFGc_c4z5_Ur4k2g", "alias": "dhaba-indian-cuisine-new-york", "name": "Dhaba Indian Cuisine", "image_url": "https://s3-media2.fl.yelpcdn.com/bphoto/MziFiAHlSvOVYS_PU6CX1Q/o.jpg", "is_closed": false, "url": "https://www.yelp.com/biz/dhaba-indian-cuisine-new-york?adjust_creative=9gNmiWYX8uTbFBeTTvJMdA&utm_campaign=yelp_api_v3&utm_medium=api_v3_business_search&utm_source=9gNmiWYX8uTbFBeTTvJMdA", "review_count": 1578, "categories": [{"alias": "indpak", "title": "Indian"}, {"alias": "buffets", "title": "Buffets"}], "rating": 3.5, "coordinates": {"latitude": 40.742364, "longitude": -73.982813}, "transactions": ["pickup", "delivery"], "price": "$$", "location": {"address1": "108 Lexington Ave", "address2": "", "address3": null, "city": "New York", "zip_code": "10016", "country": "US", "state": "NY", "display_address": ["108 Lexington Ave", "New York, NY 10016"]}, "phone": "+12126791284", "display_phone": "(212) 679-1284", "distance": 2176.6558758810247}, {"id": "RdETxi25tbocKIcMiW5TxQ", "alias": "darbar-fine-indian-cuisine-new-york-2", "name": "Darbar Fine Indian Cuisine", "image_url": "https://s3-media4.fl.yelpcdn.com/bphoto/gWDlXDQevC-N9xO32XHIBg/o.jpg", "is_closed": false, "url": "https://www.yelp.com/biz/darbar-fine-indian-cuisine-new-york-2?adjust_creative=9gNmiWYX8uTbFBeTTvJMdA&utm_campaign=yelp_api_v3&utm_medium=api_v3_business_search&utm_source=9gNmiWYX8uTbFBeTTvJMdA", "review_count": 595, "categories": [{"alias": "indpak", "title": "Indian"}, {"alias": "buffets", "title": "Buffets"}, {"alias": "bars", "title": "Bars"}], "rating": 4.0, "coordinates": {"latitude": 40.75358, "longitude": -73.97348}, "transactions": ["pickup", "delivery"], "price": "$$", "location": {"address1": "152 E 46th St", "address2": "", "address3": "", "city": "New York", "zip_code": "10017", "country": "US", "state": "NY", "display_address": ["152 E 46th St", "New York, NY 10017"]}, "phone": "+12126814500", "display_phone": "(212) 681-4500", "distance": 712.4192167883331}, {"id": "7USPKYeaAfxl0Ch9j_1l7A", "alias": "moti-mahal-delux-new-york", "name": "Moti Mahal Delux", "image_url": "https://s3-media1.fl.yelpcdn.com/bphoto/AXSKhFwc0WSuGsON2ZYQxw/o.jpg", "is_closed": false, "url": "https://www.yelp.com/biz/moti-mahal-delux-new-york?adjust_creative=9gNmiWYX8uTbFBeTTvJMdA&utm_campaign=yelp_api_v3&utm_medium=api_v3_business_search&utm_source=9gNmiWYX8uTbFBeTTvJMdA", "review_count": 553, "categories": [{"alias": "indpak", "title": "Indian"}], "rating": 4.0, "coordinates": {"latitude": 40.76213, "longitude": -73.9605}, "transactions": ["pickup", "delivery"], "price": "$$", "location": {"address1": "1149 1st Ave", "address2": null, "address3": "", "city": "New York", "zip_code": "10065", "country": "US", "state": "NY", "display_address": ["1149 1st Ave", "New York, NY 10065"]}, "phone": "+12123713535", "display_phone": "(212) 371-3535", "distance": 840.0151084401244}, {"id": "5UowQyu8tSljomOP-VL7NA", "alias": "tribhaanga-new-york", "name": "Tribhaanga", "image_url": "https://s3-media1.fl.yelpcdn.com/bphoto/M4R_wKL-dqJ--EtkKta7sw/o.jpg", "is_closed": false, "url": "https://www.yelp.com/biz/tribhaanga-new-york?adjust_creative=9gNmiWYX8uTbFBeTTvJMdA&utm_campaign=yelp_api_v3&utm_medium=api_v3_business_search&utm_source=9gNmiWYX8uTbFBeTTvJMdA", "review_count": 9, "categories": [{"alias": "indpak", "title": "Indian"}, {"alias": "asianfusion", "title": "Asian Fusion"}, {"alias": "himalayan", "title": "Himalayan/Nepalese"}], "rating": 5.0, "coordinates": {"latitude": 40.765496, "longitude": -73.982754}, "transactions": ["pickup", "delivery", "restaurant_reservation"], "location": {"address1": "234 W 56th St", "address2": "Fl 1", "address3": "", "city": "New York", "zip_code": "10019", "country": "US", "state": "NY", "display_address": ["234 W 56th St", "Fl 1", "New York, NY 10019"]}, "phone": "+12125862403", "display_phone": "(212) 586-2403", "distance": 1313.8711979175469}, {"id": "3hlAeWgSKAnSQ1tg8k8D8g", "alias": "alachi-masala-new-york-3", "name": "Alachi Masala", "image_url": "https://s3-media2.fl.yelpcdn.com/bphoto/6h_KJ0SWdJKytw58coTezw/o.jpg", "is_closed": false, "url": "https://www.yelp.com/biz/alachi-masala-new-york-3?adjust_creative=9gNmiWYX8uTbFBeTTvJMdA&utm_campaign=yelp_api_v3&utm_medium=api_v3_business_search&utm_source=9gNmiWYX8uTbFBeTTvJMdA", "review_count": 272, "categories": [{"alias": "indpak", "title": "Indian"}], "rating": 4.0, "coordinates": {"latitude": 40.786196, "longitude": -73.976448}, "transactions": ["pickup", "delivery"], "price": "$", "location": {"address1": "488 Amsterdam Ave", "address2": "", "address3": "", "city": "New York", "zip_code": "10024", "country": "US", "state": "NY", "display_address": ["488 Amsterdam Ave", "New York, NY 10024"]}, "phone": "+12128740737", "display_phone": "(212) 874-0737", "distance": 3056.0994045108105}, {"id": "tN37MOvqzrmpU0h0PfoDmw", "alias": "utsav-new-york-3", "name": "Utsav", "image_url": "https://s3-media3.fl.yelpcdn.com/bphoto/FSclXgJZFIUELzuySDR6PQ/o.jpg", "is_closed": false, "url": "https://www.yelp.com/biz/utsav-new-york-3?adjust_creative=9gNmiWYX8uTbFBeTTvJMdA&utm_campaign=yelp_api_v3&utm_medium=api_v3_business_search&utm_source=9gNmiWYX8uTbFBeTTvJMdA", "review_count": 613, "categories": [{"alias": "indpak", "title": "Indian"}, {"alias": "buffets", "title": "Buffets"}, {"alias": "cocktailbars", "title": "Cocktail Bars"}], "rating": 3.5, "coordinates": {"latitude": 40.75791, "longitude": -73.9825}, "transactions": ["pickup", "delivery"], "price": "$$", "location": {"address1": "1185 Avenue Of The Americas Plz", "address2": null, "address3": "", "city": "New York", "zip_code": "10036", "country": "US", "state": "NY", "display_address": ["1185 Avenue Of The Americas Plz", "New York, NY 10036"]}, "phone": "+12125752525", "display_phone": "(212) 575-2525", "distance": 1077.7015461283963}, {"id": "ECUTH1VOWxZ9GwfzblMKzA", "alias": "mughlai-indian-cuisine-new-york-8", "name": "Mughlai Indian Cuisine", "image_url": "https://s3-media4.fl.yelpcdn.com/bphoto/OeaZj-kqO_moK50Wcs1HcQ/o.jpg", "is_closed": false, "url": "https://www.yelp.com/biz/mughlai-indian-cuisine-new-york-8?adjust_creative=9gNmiWYX8uTbFBeTTvJMdA&utm_campaign=yelp_api_v3&utm_medium=api_v3_business_search&utm_source=9gNmiWYX8uTbFBeTTvJMdA", "review_count": 160, "categories": [{"alias": "indpak", "title": "Indian"}], "rating": 4.5, "coordinates": {"latitude": 40.765394, "longitude": -73.983272}, "transactions": ["pickup", "delivery"], "price": "$$", "location": {"address1": "255 W 55th St", "address2": null, "address3": "", "city": "New York", "zip_code": "10019", "country": "US", "state": "NY", "display_address": ["255 W 55th St", "New York, NY 10019"]}, "phone": "+16468700555", "display_phone": "(646) 870-0555", "distance": 1343.4279549746102}, {"id": "Txm8KtUh9Mn2E7980jTr5g", "alias": "dhamaka-new-york", "name": "Dhamaka", "image_url": "https://s3-media1.fl.yelpcdn.com/bphoto/-Sp5A0npkHkp1aq-2lrcUg/o.jpg", "is_closed": false, "url": "https://www.yelp.com/biz/dhamaka-new-york?adjust_creative=9gNmiWYX8uTbFBeTTvJMdA&utm_campaign=yelp_api_v3&utm_medium=api_v3_business_search&utm_source=9gNmiWYX8uTbFBeTTvJMdA", "review_count": 355, "categories": [{"alias": "indpak", "title": "Indian"}], "rating": 4.0, "coordinates": {"latitude": 40.7180658, "longitude": -73.9881304}, "transactions": ["delivery"], "price": "$$$", "location": {"address1": "119 Delancey St", "address2": "Essex Market, Store  34", "address3": null, "city": "New York", "zip_code": "10002", "country": "US", "state": "NY", "display_address": ["119 Delancey St", "Essex Market, Store  34", "New York, NY 10002"]}, "phone": "+12122048616", "display_phone": "(212) 204-8616", "distance": 4831.063794172969}, {"id": "xWVHj2XNcxEg79Nkb5Zb6Q", "alias": "semma-new-york-2", "name": "Semma", "image_url": "https://s3-media3.fl.yelpcdn.com/bphoto/A7HQCx7mbXTedCXUpVtT0g/o.jpg", "is_closed": false, "url": "https://www.yelp.com/biz/semma-new-york-2?adjust_creative=9gNmiWYX8uTbFBeTTvJMdA&utm_campaign=yelp_api_v3&utm_medium=api_v3_business_search&utm_source=9gNmiWYX8uTbFBeTTvJMdA", "review_count": 228, "categories": [{"alias": "indpak", "title": "Indian"}, {"alias": "wine_bars", "title": "Wine Bars"}, {"alias": "cocktailbars", "title": "Cocktail Bars"}], "rating": 4.0, "coordinates": {"latitude": 40.736054206102615, "longitude": -74.0005639}, "transactions": [], "price": "$$$$", "location": {"address1": "60 Greenwich Ave", "address2": "", "address3": null, "city": "New York", "zip_code": "10011", "country": "US", "state": "NY", "display_address": ["60 Greenwich Ave", "New York, NY 10011"]}, "phone": "+12123738900", "display_phone": "(212) 373-8900", "distance": 3663.9675594425235}, {"id": "raGF9jAO7JOiIbFQ2_bTAg", "alias": "india-at-time-square-new-york", "name": "India at Time Square", "image_url": "https://s3-media4.fl.yelpcdn.com/bphoto/h-76oBHA8MI2aN4U4MGYVw/o.jpg", "is_closed": false, "url": "https://www.yelp.com/biz/india-at-time-square-new-york?adjust_creative=9gNmiWYX8uTbFBeTTvJMdA&utm_campaign=yelp_api_v3&utm_medium=api_v3_business_search&utm_source=9gNmiWYX8uTbFBeTTvJMdA", "review_count": 96, "categories": [{"alias": "indpak", "title": "Indian"}], "rating": 4.5, "coordinates": {"latitude": 40.75941459798258, "longitude": -73.99145881962656}, "transactions": ["pickup", "delivery"], "price": "$$", "location": {"address1": "332 W 44th St", "address2": null, "address3": "", "city": "New York", "zip_code": "10036", "country": "US", "state": "NY", "display_address": ["332 W 44th St", "New York, NY 10036"]}, "phone": "+16464764356", "display_phone": "(646) 476-4356", "distance": 1843.4553094231787}, {"id": "qhXIW0LDT4XsoN2IE6dZHg", "alias": "ahimsa-new-york-5", "name": "Ahimsa", "image_url": "https://s3-media2.fl.yelpcdn.com/bphoto/5seQWNcu8rGqYXf_EBUC8g/o.jpg", "is_closed": false, "url": "https://www.yelp.com/biz/ahimsa-new-york-5?adjust_creative=9gNmiWYX8uTbFBeTTvJMdA&utm_campaign=yelp_api_v3&utm_medium=api_v3_business_search&utm_source=9gNmiWYX8uTbFBeTTvJMdA", "review_count": 196, "categories": [{"alias": "indpak", "title": "Indian"}, {"alias": "vegetarian", "title": "Vegetarian"}, {"alias": "desserts", "title": "Desserts"}], "rating": 4.5, "coordinates": {"latitude": 40.7478959, "longitude": -73.9758638}, "transactions": ["pickup", "delivery"], "price": "$$", "location": {"address1": "204 E 38th St", "address2": "", "address3": null, "city": "New York", "zip_code": "10016", "country": "US", "state": "NY", "display_address": ["204 E 38th St", "New York, NY 10016"]}, "phone": "+12122282022", "display_phone": "(212) 228-2022", "distance": 1361.4613747936048}, {"id": "XKy4Cy4uNgO7rxhH4yFJQQ", "alias": "mughlai-indian-cuisine-new-york-3", "name": "Mughlai Indian Cuisine", "image_url": "https://s3-media3.fl.yelpcdn.com/bphoto/Z2sYUaOOYIWEFHanImNtNQ/o.jpg", "is_closed": false, "url": "https://www.yelp.com/biz/mughlai-indian-cuisine-new-york-3?adjust_creative=9gNmiWYX8uTbFBeTTvJMdA&utm_campaign=yelp_api_v3&utm_medium=api_v3_business_search&utm_source=9gNmiWYX8uTbFBeTTvJMdA", "review_count": 449, "categories": [{"alias": "indpak", "title": "Indian"}], "rating": 4.0, "coordinates": {"latitude": 40.739692, "longitude": -73.982116}, "transactions": ["pickup", "delivery"], "price": "$$", "location": {"address1": "329 3rd Ave", "address2": null, "address3": "", "city": "New York", "zip_code": "10010", "country": "US", "state": "NY", "display_address": ["329 3rd Ave", "New York, NY 10010"]}, "phone": "+12128890909", "display_phone": "(212) 889-0909", "distance": 2410.723412268021}, {"id": "dOQjniOt57mI9l9CmrCSJQ", "alias": "curry-india-new-york-2", "name": "Curry India", "image_url": "https://s3-media2.fl.yelpcdn.com/bphoto/cWryZLuHmzMueop4FeVbQA/o.jpg", "is_closed": false, "url": "https://www.yelp.com/biz/curry-india-new-york-2?adjust_creative=9gNmiWYX8uTbFBeTTvJMdA&utm_campaign=yelp_api_v3&utm_medium=api_v3_business_search&utm_source=9gNmiWYX8uTbFBeTTvJMdA", "review_count": 190, "categories": [{"alias": "indpak", "title": "Indian"}], "rating": 4.0, "coordinates": {"latitude": 40.76006, "longitude": -73.98306}, "transactions": ["pickup", "delivery"], "price": "$$", "location": {"address1": "148 W 49th St", "address2": "", "address3": null, "city": "New York", "zip_code": "10019", "country": "US", "state": "NY", "display_address": ["148 W 49th St", "New York, NY 10019"]}, "phone": "+19172614902", "display_phone": "(917) 261-4902", "distance": 1141.9513703067032}, {"id": "FXDMFBM-rV2s5MHzA33d2g", "alias": "bombay-grill-house-new-york-3", "name": "Bombay Grill House", "image_url": "https://s3-media1.fl.yelpcdn.com/bphoto/RtlVxBPufU_NBdNrkJmPmg/o.jpg", "is_closed": false, "url": "https://www.yelp.com/biz/bombay-grill-house-new-york-3?adjust_creative=9gNmiWYX8uTbFBeTTvJMdA&utm_campaign=yelp_api_v3&utm_medium=api_v3_business_search&utm_source=9gNmiWYX8uTbFBeTTvJMdA", "review_count": 311, "categories": [{"alias": "indpak", "title": "Indian"}], "rating": 4.0, "coordinates": {"latitude": 40.76415, "longitude": -73.98806}, "transactions": ["pickup", "delivery", "restaurant_reservation"], "price": "$$", "location": {"address1": "764 9th Ave", "address2": "", "address3": "", "city": "New York", "zip_code": "10019", "country": "US", "state": "NY", "display_address": ["764 9th Ave", "New York, NY 10019"]}, "phone": "+12129771010", "display_phone": "(212) 977-1010", "distance": 1658.3275114904718}, {"id": "BPyt7S9TdcR1u571iacg7g", "alias": "the-kati-roll-company-new-york-5", "name": "The Kati Roll Company", "image_url": "https://s3-media2.fl.yelpcdn.com/bphoto/8BkwBHhPd0xM3FDpJfQQJQ/o.jpg", "is_closed": false, "url": "https://www.yelp.com/biz/the-kati-roll-company-new-york-5?adjust_creative=9gNmiWYX8uTbFBeTTvJMdA&utm_campaign=yelp_api_v3&utm_medium=api_v3_business_search&utm_source=9gNmiWYX8uTbFBeTTvJMdA", "review_count": 1653, "categories": [{"alias": "indpak", "title": "Indian"}, {"alias": "halal", "title": "Halal"}], "rating": 3.5, "coordinates": {"latitude": 40.752819, "longitude": -73.984587}, "transactions": ["pickup", "delivery"], "price": "$", "location": {"address1": "49 W 39th St", "address2": null, "address3": "", "city": "New York", "zip_code": "10018", "country": "US", "state": "NY", "display_address": ["49 W 39th St", "New York, NY 10018"]}, "phone": "+12127304280", "display_phone": "(212) 730-4280", "distance": 1448.6279816136957}, {"id": "Xl-zlT0NLLiKhym88em22w", "alias": "adda-indian-canteen-long-island-city", "name": "Adda Indian Canteen", "image_url": "https://s3-media3.fl.yelpcdn.com/bphoto/jysFNwbgMKGpBvAGjDVzcw/o.jpg", "is_closed": false, "url": "https://www.yelp.com/biz/adda-indian-canteen-long-island-city?adjust_creative=9gNmiWYX8uTbFBeTTvJMdA&utm_campaign=yelp_api_v3&utm_medium=api_v3_business_search&utm_source=9gNmiWYX8uTbFBeTTvJMdA", "review_count": 536, "categories": [{"alias": "indpak", "title": "Indian"}, {"alias": "halal", "title": "Halal"}], "rating": 4.0, "coordinates": {"latitude": 40.745011, "longitude": -73.934243}, "transactions": ["pickup", "delivery"], "price": "$$", "location": {"address1": "31-31 Thomson Ave", "address2": "", "address3": null, "city": "Long Island City", "zip_code": "11101", "country": "US", "state": "NY", "display_address": ["31-31 Thomson Ave", "Long Island City, NY 11101"]}, "phone": "+17184333888", "display_phone": "(718) 433-3888", "distance": 3367.1246902970747}, {"id": "guwS_mhhUjOT5d8sYfEluQ", "alias": "adyar-ananda-bhavan-new-york", "name": "Adyar Ananda Bhavan", "image_url": "https://s3-media3.fl.yelpcdn.com/bphoto/rElsWENP4I2QRIl56LxeHw/o.jpg", "is_closed": false, "url": "https://www.yelp.com/biz/adyar-ananda-bhavan-new-york?adjust_creative=9gNmiWYX8uTbFBeTTvJMdA&utm_campaign=yelp_api_v3&utm_medium=api_v3_business_search&utm_source=9gNmiWYX8uTbFBeTTvJMdA", "review_count": 391, "categories": [{"alias": "indpak", "title": "Indian"}, {"alias": "vegetarian", "title": "Vegetarian"}], "rating": 3.5, "coordinates": {"latitude": 40.759381, "longitude": -73.962489}, "transactions": ["pickup", "delivery"], "price": "$$", "location": {"address1": "1071 1st Ave", "address2": "", "address3": "", "city": "New York", "zip_code": "10022", "country": "US", "state": "NY", "display_address": ["1071 1st Ave", "New York, NY 10022"]}, "phone": "+12127506666", "display_phone": "(212) 750-6666", "distance": 597.1765024113633}, {"id": "15svH3HiVDwHMSIlRYpk6A", "alias": "ashoka-indian-restaurant-new-york", "name": "Ashoka Indian Restaurant", "image_url": "https://s3-media4.fl.yelpcdn.com/bphoto/SEmg93OjFxHiC4dFi-_FMw/o.jpg", "is_closed": false, "url": "https://www.yelp.com/biz/ashoka-indian-restaurant-new-york?adjust_creative=9gNmiWYX8uTbFBeTTvJMdA&utm_campaign=yelp_api_v3&utm_medium=api_v3_business_search&utm_source=9gNmiWYX8uTbFBeTTvJMdA", "review_count": 336, "categories": [{"alias": "indpak", "title": "Indian"}], "rating": 4.0, "coordinates": {"latitude": 40.78477, "longitude": -73.973027}, "transactions": ["pickup", "delivery", "restaurant_reservation"], "price": "$$", "location": {"address1": "489 Columbus Ave", "address2": "", "address3": null, "city": "New York", "zip_code": "10024", "country": "US", "state": "NY", "display_address": ["489 Columbus Ave", "New York, NY 10024"]}, "phone": "+12128751400", "display_phone": "(212) 875-1400", "distance": 2860.565188639862}, {"id": "w2-VGvlBCMYo9ko8Y_PzAw", "alias": "masala-king-new-york", "name": "Masala King", "image_url": "https://s3-media2.fl.yelpcdn.com/bphoto/tGmdKgK5ezQ27gH3fO2BzQ/o.jpg", "is_closed": false, "url": "https://www.yelp.com/biz/masala-king-new-york?adjust_creative=9gNmiWYX8uTbFBeTTvJMdA&utm_campaign=yelp_api_v3&utm_medium=api_v3_business_search&utm_source=9gNmiWYX8uTbFBeTTvJMdA", "review_count": 265, "categories": [{"alias": "indpak", "title": "Indian"}, {"alias": "bars", "title": "Bars"}], "rating": 4.0, "coordinates": {"latitude": 40.747176, "longitude": -73.981957}, "transactions": ["pickup", "delivery"], "price": "$$", "location": {"address1": "64 E 34th St", "address2": "", "address3": null, "city": "New York", "zip_code": "10016", "country": "US", "state": "NY", "display_address": ["64 E 34th St", "New York, NY 10016"]}, "phone": "+16467670230", "display_phone": "(646) 767-0230", "distance": 1693.532637173091}, {"id": "wm10mMj_41_-l_gRhRH3TA", "alias": "deep-indian-kitchen-indikitch-new-york-21", "name": "deep indian kitchen - indikitch", "image_url": "https://s3-media2.fl.yelpcdn.com/bphoto/zDb_kjHGJIEkR177iXdv0A/o.jpg", "is_closed": false, "url": "https://www.yelp.com/biz/deep-indian-kitchen-indikitch-new-york-21?adjust_creative=9gNmiWYX8uTbFBeTTvJMdA&utm_campaign=yelp_api_v3&utm_medium=api_v3_business_search&utm_source=9gNmiWYX8uTbFBeTTvJMdA", "review_count": 483, "categories": [{"alias": "indpak", "title": "Indian"}], "rating": 4.0, "coordinates": {"latitude": 40.76573, "longitude": -73.98338}, "transactions": ["pickup", "delivery"], "price": "$$", "location": {"address1": "940 8th Ave", "address2": "", "address3": "", "city": "New York", "zip_code": "10019", "country": "US", "state": "NY", "display_address": ["940 8th Ave", "New York, NY 10019"]}, "phone": "+16469187778", "display_phone": "(646) 918-7778", "distance": 1357.9953484869077}, {"id": "kS2CP48K66yL2TwIhUqy_A", "alias": "tamarind-new-york-4", "name": "Tamarind", "image_url": "https://s3-media3.fl.yelpcdn.com/bphoto/0zgXNwL18E52i95zE7CwvQ/o.jpg", "is_closed": false, "url": "https://www.yelp.com/biz/tamarind-new-york-4?adjust_creative=9gNmiWYX8uTbFBeTTvJMdA&utm_campaign=yelp_api_v3&utm_medium=api_v3_business_search&utm_source=9gNmiWYX8uTbFBeTTvJMdA", "review_count": 1098, "categories": [{"alias": "indpak", "title": "Indian"}], "rating": 4.0, "coordinates": {"latitude": 40.71909, "longitude": -74.00892}, "transactions": ["pickup", "delivery"], "price": "$$$", "location": {"address1": "99 Hudson St", "address2": "", "address3": "", "city": "New York", "zip_code": "10013", "country": "US", "state": "NY", "display_address": ["99 Hudson St", "New York, NY 10013"]}, "phone": "+12127759000", "display_phone": "(212) 775-9000", "distance": 5563.774287207312}, {"id": "jYhbUh1TV7SCfPxjIhVpcg", "alias": "baar-baar-new-york-2", "name": "Baar Baar", "image_url": "https://s3-media2.fl.yelpcdn.com/bphoto/SyvAUAWoWwKM_2b52r-WIg/o.jpg", "is_closed": false, "url": "https://www.yelp.com/biz/baar-baar-new-york-2?adjust_creative=9gNmiWYX8uTbFBeTTvJMdA&utm_campaign=yelp_api_v3&utm_medium=api_v3_business_search&utm_source=9gNmiWYX8uTbFBeTTvJMdA", "review_count": 1174, "categories": [{"alias": "gastropubs", "title": "Gastropubs"}, {"alias": "indpak", "title": "Indian"}, {"alias": "cocktailbars", "title": "Cocktail Bars"}], "rating": 4.0, "coordinates": {"latitude": 40.7244378855031, "longitude": -73.9915524}, "transactions": ["pickup", "delivery", "restaurant_reservation"], "price": "$$$", "location": {"address1": "13 E 1st St", "address2": "", "address3": "", "city": "New York", "zip_code": "10003", "country": "US", "state": "NY", "display_address": ["13 E 1st St", "New York, NY 10003"]}, "phone": "+12122281200", "display_phone": "(212) 228-1200", "distance": 4283.440253335561}, {"id": "RARUAVWONyRQovr0D6TGQg", "alias": "baazi-new-york-2", "name": "Baazi", "image_url": "https://s3-media3.fl.yelpcdn.com/bphoto/GcGYn5V-88IFV0C3ku40nw/o.jpg", "is_closed": false, "url": "https://www.yelp.com/biz/baazi-new-york-2?adjust_creative=9gNmiWYX8uTbFBeTTvJMdA&utm_campaign=yelp_api_v3&utm_medium=api_v3_business_search&utm_source=9gNmiWYX8uTbFBeTTvJMdA", "review_count": 56, "categories": [{"alias": "indpak", "title": "Indian"}], "rating": 3.5, "coordinates": {"latitude": 40.7955035, "longitude": -73.9708505}, "transactions": ["pickup", "delivery"], "location": {"address1": "2588 Broadway", "address2": "", "address3": null, "city": "New York", "zip_code": "10025", "country": "US", "state": "NY", "display_address": ["2588 Broadway", "New York, NY 10025"]}, "phone": "+16468613859", "display_phone": "(646) 861-3859", "distance": 4050.076869504684}, {"id": "T1CRoZ-f-hwrjdkBvt7_kg", "alias": "indian-tanpura-new-york-2", "name": "Indian Tanpura", "image_url": "https://s3-media2.fl.yelpcdn.com/bphoto/YE29SX_TyPKDQiASkEELCg/o.jpg", "is_closed": false, "url": "https://www.yelp.com/biz/indian-tanpura-new-york-2?adjust_creative=9gNmiWYX8uTbFBeTTvJMdA&utm_campaign=yelp_api_v3&utm_medium=api_v3_business_search&utm_source=9gNmiWYX8uTbFBeTTvJMdA", "review_count": 183, "categories": [{"alias": "indpak", "title": "Indian"}], "rating": 4.0, "coordinates": {"latitude": 40.78869, "longitude": -73.97468}, "transactions": ["pickup", "delivery"], "price": "$$", "location": {"address1": "564 Amsterdam Ave", "address2": "", "address3": "", "city": "New York", "zip_code": "10024", "country": "US", "state": "NY", "display_address": ["564 Amsterdam Ave", "New York, NY 10024"]}, "phone": "+12127218700", "display_phone": "(212) 721-8700", "distance": 3310.4858160345784}, {"id": "CEdTPBK6HBjpUP_zLDdrlQ", "alias": "sona-new-york", "name": "SONA", "image_url": "https://s3-media2.fl.yelpcdn.com/bphoto/55wgggo2w5tZeKJoa_Tfxg/o.jpg", "is_closed": false, "url": "https://www.yelp.com/biz/sona-new-york?adjust_creative=9gNmiWYX8uTbFBeTTvJMdA&utm_campaign=yelp_api_v3&utm_medium=api_v3_business_search&utm_source=9gNmiWYX8uTbFBeTTvJMdA", "review_count": 314, "categories": [{"alias": "indpak", "title": "Indian"}], "rating": 3.0, "coordinates": {"latitude": 40.73861, "longitude": -73.98864}, "transactions": ["pickup", "delivery"], "price": "$$$", "location": {"address1": "36 East 20th St", "address2": null, "address3": "", "city": "New York", "zip_code": "10003", "country": "US", "state": "NY", "display_address": ["36 East 20th St", "New York, NY 10003"]}, "phone": "+12122036460", "display_phone": "(212) 203-6460", "distance": 2802.1782980909984}, {"id": "sCHiXF4mZcsiY8_cBHNiqw", "alias": "deep-indian-kitchen-indikitch-new-york-20", "name": "deep indian kitchen - indikitch", "image_url": "https://s3-media1.fl.yelpcdn.com/bphoto/5WVQG2jxCXulQiyHcPtWOA/o.jpg", "is_closed": false, "url": "https://www.yelp.com/biz/deep-indian-kitchen-indikitch-new-york-20?adjust_creative=9gNmiWYX8uTbFBeTTvJMdA&utm_campaign=yelp_api_v3&utm_medium=api_v3_business_search&utm_source=9gNmiWYX8uTbFBeTTvJMdA", "review_count": 741, "categories": [{"alias": "indpak", "title": "Indian"}], "rating": 4.0, "coordinates": {"latitude": 40.7422142028809, "longitude": -73.9904403686523}, "transactions": ["pickup", "delivery"], "price": "$$", "location": {"address1": "25 W 23rd St", "address2": null, "address3": "", "city": "New York", "zip_code": "10010", "country": "US", "state": "NY", "display_address": ["25 W 23rd St", "New York, NY 10010"]}, "phone": "+16465907152", "display_phone": "(646) 590-7152", "distance": 2582.9192799274797}, {"id": "t6PzD4uzBOfyCLcd_lT8cQ", "alias": "sathi-new-york", "name": "Sathi", "image_url": "https://s3-media2.fl.yelpcdn.com/bphoto/Dn6S00Ly7iatO434EMPqCw/o.jpg", "is_closed": false, "url": "https://www.yelp.com/biz/sathi-new-york?adjust_creative=9gNmiWYX8uTbFBeTTvJMdA&utm_campaign=yelp_api_v3&utm_medium=api_v3_business_search&utm_source=9gNmiWYX8uTbFBeTTvJMdA", "review_count": 273, "categories": [{"alias": "indpak", "title": "Indian"}, {"alias": "himalayan", "title": "Himalayan/Nepalese"}], "rating": 4.5, "coordinates": {"latitude": 40.73621, "longitude": -73.98528}, "transactions": ["pickup", "delivery", "restaurant_reservation"], "price": "$$", "location": {"address1": "216 3rd Ave", "address2": null, "address3": "", "city": "New York", "zip_code": "10003", "country": "US", "state": "NY", "display_address": ["216 3rd Ave", "New York, NY 10003"]}, "phone": "+12122603700", "display_phone": "(212) 260-3700", "distance": 2874.7597277113678}, {"id": "IU6pOHR8Re8kvSn0mzhPHg", "alias": "jaz-indian-cuisine-new-york-3", "name": "Jaz Indian Cuisine", "image_url": "https://s3-media3.fl.yelpcdn.com/bphoto/e-BPBQL1c0enf-Z9vdjP9g/o.jpg", "is_closed": false, "url": "https://www.yelp.com/biz/jaz-indian-cuisine-new-york-3?adjust_creative=9gNmiWYX8uTbFBeTTvJMdA&utm_campaign=yelp_api_v3&utm_medium=api_v3_business_search&utm_source=9gNmiWYX8uTbFBeTTvJMdA", "review_count": 123, "categories": [{"alias": "indpak", "title": "Indian"}, {"alias": "seafood", "title": "Seafood"}, {"alias": "soup", "title": "Soup"}], "rating": 4.5, "coordinates": {"latitude": 40.7659, "longitude": -73.98741}, "transactions": ["pickup", "delivery", "restaurant_reservation"], "location": {"address1": "813 Ninth Ave", "address2": "", "address3": null, "city": "New York", "zip_code": "10019", "country": "US", "state": "NY", "display_address": ["813 Ninth Ave", "New York, NY 10019"]}, "phone": "+19176757440", "display_phone": "(917) 675-7440", "distance": 1685.241457502985}, {"id": "eTzH9lmkmouNlmuJ77i8Ow", "alias": "angaar-new-york-2", "name": "Angaar", "image_url": "https://s3-media2.fl.yelpcdn.com/bphoto/a6vUQAea4cEFSjJM6VLJKA/o.jpg", "is_closed": false, "url": "https://www.yelp.com/biz/angaar-new-york-2?adjust_creative=9gNmiWYX8uTbFBeTTvJMdA&utm_campaign=yelp_api_v3&utm_medium=api_v3_business_search&utm_source=9gNmiWYX8uTbFBeTTvJMdA", "review_count": 183, "categories": [{"alias": "indpak", "title": "Indian"}], "rating": 4.0, "coordinates": {"latitude": 40.7782, "longitude": -73.97802}, "transactions": ["pickup", "delivery"], "price": "$$", "location": {"address1": "283 Columbus Ave", "address2": "", "address3": null, "city": "New York", "zip_code": "10023", "country": "US", "state": "NY", "display_address": ["283 Columbus Ave", "New York, NY 10023"]}, "phone": "+12123934040", "display_phone": "(212) 393-4040", "distance": 2235.1294095437074}, {"id": "_7BGw3YFNOTzP1Www3zB7g", "alias": "mughlai-grill-new-york", "name": "Mughlai Grill", "image_url": "https://s3-media3.fl.yelpcdn.com/bphoto/R0MIGOkyV5I4sDlZLRVK3A/o.jpg", "is_closed": false, "url": "https://www.yelp.com/biz/mughlai-grill-new-york?adjust_creative=9gNmiWYX8uTbFBeTTvJMdA&utm_campaign=yelp_api_v3&utm_medium=api_v3_business_search&utm_source=9gNmiWYX8uTbFBeTTvJMdA", "review_count": 495, "categories": [{"alias": "indpak", "title": "Indian"}], "rating": 4.5, "coordinates": {"latitude": 40.7210905, "longitude": -73.9840446}, "transactions": ["pickup", "delivery", "restaurant_reservation"], "price": "$$", "location": {"address1": "6 Clinton St", "address2": "", "address3": null, "city": "New York", "zip_code": "10002", "country": "US", "state": "NY", "display_address": ["6 Clinton St", "New York, NY 10002"]}, "phone": "+12125332828", "display_phone": "(212) 533-2828", "distance": 4406.763113339969}, {"id": "lxNU-aBq0yPwBDx-i89ahA", "alias": "seva-indian-cuisine-astoria-5", "name": "Seva Indian Cuisine", "image_url": "https://s3-media3.fl.yelpcdn.com/bphoto/ZiD2FPfXVNCo4iojdVZACw/o.jpg", "is_closed": false, "url": "https://www.yelp.com/biz/seva-indian-cuisine-astoria-5?adjust_creative=9gNmiWYX8uTbFBeTTvJMdA&utm_campaign=yelp_api_v3&utm_medium=api_v3_business_search&utm_source=9gNmiWYX8uTbFBeTTvJMdA", "review_count": 1408, "categories": [{"alias": "indpak", "title": "Indian"}], "rating": 4.5, "coordinates": {"latitude": 40.76571, "longitude": -73.91839}, "transactions": ["pickup", "delivery"], "price": "$$", "location": {"address1": "34-11 30th Ave", "address2": null, "address3": "", "city": "Astoria", "zip_code": "11103", "country": "US", "state": "NY", "display_address": ["34-11 30th Ave", "Astoria, NY 11103"]}, "phone": "+17186264440", "display_phone": "(718) 626-4440", "distance": 4371.614115107268}, {"id": "7DUPGtHqVZHJ3yIufbWLsg", "alias": "malai-marke-indian-cuisine-new-york", "name": "Malai Marke Indian Cuisine", "image_url": "https://s3-media1.fl.yelpcdn.com/bphoto/jKKQcL3nCVngME5d3WMQIg/o.jpg", "is_closed": false, "url": "https://www.yelp.com/biz/malai-marke-indian-cuisine-new-york?adjust_creative=9gNmiWYX8uTbFBeTTvJMdA&utm_campaign=yelp_api_v3&utm_medium=api_v3_business_search&utm_source=9gNmiWYX8uTbFBeTTvJMdA", "review_count": 639, "categories": [{"alias": "indpak", "title": "Indian"}], "rating": 4.0, "coordinates": {"latitude": 40.726934, "longitude": -73.98758}, "transactions": ["pickup", "delivery"], "price": "$$", "location": {"address1": "318 E 6th St", "address2": null, "address3": "", "city": "New York", "zip_code": "10003", "country": "US", "state": "NY", "display_address": ["318 E 6th St", "New York, NY 10003"]}, "phone": "+12127777729", "display_phone": "(212) 777-7729", "distance": 3892.726040227525}, {"id": "3uEkZEAp7biQEtt0S7W1Vg", "alias": "vatan-indian-vegetarian-new-york-2", "name": "Vatan Indian Vegetarian", "image_url": "https://s3-media1.fl.yelpcdn.com/bphoto/5BALTnIJksxabqT5qcaU9g/o.jpg", "is_closed": false, "url": "https://www.yelp.com/biz/vatan-indian-vegetarian-new-york-2?adjust_creative=9gNmiWYX8uTbFBeTTvJMdA&utm_campaign=yelp_api_v3&utm_medium=api_v3_business_search&utm_source=9gNmiWYX8uTbFBeTTvJMdA", "review_count": 821, "categories": [{"alias": "indpak", "title": "Indian"}, {"alias": "vegetarian", "title": "Vegetarian"}], "rating": 4.0, "coordinates": {"latitude": 40.74236, "longitude": -73.9803699}, "transactions": ["delivery", "restaurant_reservation"], "price": "$$$", "location": {"address1": "409 3rd Ave", "address2": "", "address3": "", "city": "New York", "zip_code": "10016", "country": "US", "state": "NY", "display_address": ["409 3rd Ave", "New York, NY 10016"]}, "phone": "+12126895666", "display_phone": "(212) 689-5666", "distance": 2080.4488714937957}, {"id": "nd0uXNXaeaDMuMk4C1GusA", "alias": "bukhara-grill-indian-spice-rave-new-york", "name": "Bukhara Grill:Indian Spice Rave", "image_url": "https://s3-media3.fl.yelpcdn.com/bphoto/FaoeJhzOZB-BcIRlx0etzA/o.jpg", "is_closed": false, "url": "https://www.yelp.com/biz/bukhara-grill-indian-spice-rave-new-york?adjust_creative=9gNmiWYX8uTbFBeTTvJMdA&utm_campaign=yelp_api_v3&utm_medium=api_v3_business_search&utm_source=9gNmiWYX8uTbFBeTTvJMdA", "review_count": 555, "categories": [{"alias": "indpak", "title": "Indian"}, {"alias": "buffets", "title": "Buffets"}, {"alias": "vegetarian", "title": "Vegetarian"}], "rating": 3.5, "coordinates": {"latitude": 40.75501, "longitude": -73.97028}, "transactions": ["pickup", "delivery"], "price": "$$", "location": {"address1": "217 E 49th St", "address2": "", "address3": "", "city": "New York", "zip_code": "10017", "country": "US", "state": "NY", "display_address": ["217 E 49th St", "New York, NY 10017"]}, "phone": "+12128882839", "display_phone": "(212) 888-2839", "distance": 467.5040626400062}], "total": 902, "region": {"center": {"longitude": -73.96957397460938, "latitude": 40.75917470627005}}}