{"businesses": [{"id": "JSX6Pk56w4BhgO8eSvCrKg", "alias": "aroqa-new-york", "name": "aRoqa", "image_url": "https://s3-media1.fl.yelpcdn.com/bphoto/VSx5w9dlSIwIgruaHwxJ4w/o.jpg", "is_closed": false, "url": "https://www.yelp.com/biz/aroqa-new-york?adjust_creative=9gNmiWYX8uTbFBeTTvJMdA&utm_campaign=yelp_api_v3&utm_medium=api_v3_business_search&utm_source=9gNmiWYX8uTbFBeTTvJMdA", "review_count": 388, "categories": [{"alias": "indpak", "title": "Indian"}, {"alias": "bars", "title": "Bars"}, {"alias": "tapasmallplates", "title": "Tapas/Small Plates"}], "rating": 4.0, "coordinates": {"latitude": 40.746065, "longitude": -74.001254}, "transactions": ["delivery", "pickup"], "price": "$$", "location": {"address1": "206 9th Ave", "address2": null, "address3": "", "city": "New York", "zip_code": "10011", "country": "US", "state": "NY", "display_address": ["206 9th Ave", "New York, NY 10011"]}, "phone": "+16466785471", "display_phone": "(646) 678-5471", "distance": 3040.7327303640322}, {"id": "ePn4BwyXeY8NKN-MWSgfrQ", "alias": "kebab-aur-sharab-new-york", "name": "Kebab Aur Sharab", "image_url": "https://s3-media2.fl.yelpcdn.com/bphoto/_vNAjdeglHo2f5UH0-Grvw/o.jpg", "is_closed": false, "url": "https://www.yelp.com/biz/kebab-aur-sharab-new-york?adjust_creative=9gNmiWYX8uTbFBeTTvJMdA&utm_campaign=yelp_api_v3&utm_medium=api_v3_business_search&utm_source=9gNmiWYX8uTbFBeTTvJMdA", "review_count": 27, "categories": [{"alias": "indpak", "title": "Indian"}, {"alias": "kebab", "title": "Kebab"}, {"alias": "cocktailbars", "title": "Cocktail Bars"}], "rating": 4.0, "coordinates": {"latitude": 40.77951, "longitude": -73.98331}, "transactions": [], "location": {"address1": "247 W 72nd St", "address2": null, "address3": "", "city": "New York", "zip_code": "10023", "country": "US", "state": "NY", "display_address": ["247 W 72nd St", "New York, NY 10023"]}, "phone": "+12125405247", "display_phone": "(212) 540-5247", "distance": 2544.454419947499}, {"id": "VC1udoc_sbHdFaBr0-bMsA", "alias": "bombay-chowk-new-york", "name": "Bombay Chowk", "image_url": "https://s3-media4.fl.yelpcdn.com/bphoto/8EzXzr6_2WW26rHJXHGEYQ/o.jpg", "is_closed": false, "url": "https://www.yelp.com/biz/bombay-chowk-new-york?adjust_creative=9gNmiWYX8uTbFBeTTvJMdA&utm_campaign=yelp_api_v3&utm_medium=api_v3_business_search&utm_source=9gNmiWYX8uTbFBeTTvJMdA", "review_count": 151, "categories": [{"alias": "indpak", "title": "Indian"}], "rating": 4.0, "coordinates": {"latitude": 40.76873, "longitude": -73.9549}, "transactions": ["delivery", "pickup"], "price": "$$", "location": {"address1": "1378 1st Ave", "address2": null, "address3": "", "city": "New York", "zip_code": "10021", "country": "US", "state": "NY", "display_address": ["1378 1st Ave", "New York, NY 10021"]}, "phone": "+12122494111", "display_phone": "(212) 249-4111", "distance": 1624.58823425044}, {"id": "DZE4ThXa7d0kSXnR3Hb-kg", "alias": "junoon-new-york", "name": "Junoon", "image_url": "https://s3-media3.fl.yelpcdn.com/bphoto/QqnguAAnesls_yRw_Uj2Uw/o.jpg", "is_closed": false, "url": "https://www.yelp.com/biz/junoon-new-york?adjust_creative=9gNmiWYX8uTbFBeTTvJMdA&utm_campaign=yelp_api_v3&utm_medium=api_v3_business_search&utm_source=9gNmiWYX8uTbFBeTTvJMdA", "review_count": 1683, "categories": [{"alias": "indpak", "title": "Indian"}, {"alias": "desserts", "title": "Desserts"}, {"alias": "cocktailbars", "title": "Cocktail Bars"}], "rating": 3.5, "coordinates": {"latitude": 40.743193, "longitude": -73.990838}, "transactions": ["delivery", "pickup"], "price": "$$$$", "location": {"address1": "19 W 24th St", "address2": "", "address3": "", "city": "New York", "zip_code": "10010", "country": "US", "state": "NY", "display_address": ["19 W 24th St", "New York, NY 10010"]}, "phone": "+12124902100", "display_phone": "(212) 490-2100", "distance": 2523.170914569253}, {"id": "GaxVczLK1qUuJHOP9VcFsQ", "alias": "ananda-new-york-4", "name": "Ananda", "image_url": "https://s3-media2.fl.yelpcdn.com/bphoto/BcEKtAx2k7Lp306o1i_tCw/o.jpg", "is_closed": false, "url": "https://www.yelp.com/biz/ananda-new-york-4?adjust_creative=9gNmiWYX8uTbFBeTTvJMdA&utm_campaign=yelp_api_v3&utm_medium=api_v3_business_search&utm_source=9gNmiWYX8uTbFBeTTvJMdA", "review_count": 384, "categories": [{"alias": "indpak", "title": "Indian"}, {"alias": "vegetarian", "title": "Vegetarian"}, {"alias": "kosher", "title": "Kosher"}], "rating": 4.0, "coordinates": {"latitude": 40.728724, "longitude": -73.999147}, "transactions": ["delivery", "pickup"], "price": "$$", "location": {"address1": "210 Thompson St", "address2": null, "address3": "", "city": "New York", "zip_code": "10012", "country": "US", "state": "NY", "display_address": ["210 Thompson St", "New York, NY 10012"]}, "phone": "+12125337290", "display_phone": "(212) 533-7290", "distance": 4203.048552426259}, {"id": "zVLG_O3AQnvQ53PSJ5mTMA", "alias": "om-new-york", "name": "Om", "image_url": "https://s3-media3.fl.yelpcdn.com/bphoto/CRsQCJa3J7JFQ5dCdeS2LQ/o.jpg", "is_closed": false, "url": "https://www.yelp.com/biz/om-new-york?adjust_creative=9gNmiWYX8uTbFBeTTvJMdA&utm_campaign=yelp_api_v3&utm_medium=api_v3_business_search&utm_source=9gNmiWYX8uTbFBeTTvJMdA", "review_count": 541, "categories": [{"alias": "indpak", "title": "Indian"}], "rating": 4.0, "coordinates": {"latitude": 40.7726799, "longitude": -73.9497983}, "transactions": ["delivery", "pickup"], "price": "$$", "location": {"address1": "1531 York Ave", "address2": null, "address3": "", "city": "New York", "zip_code": "10028", "country": "US", "state": "NY", "display_address": ["1531 York Ave", "New York, NY 10028"]}, "phone": "+12126284500", "display_phone": "(212) 628-4500", "distance": 2242.509561996958}, {"id": "jb-Fe1cC3ZARF9xyFvJQYQ", "alias": "tandoor-oven-new-york", "name": "Tandoor Oven", "image_url": "https://s3-media2.fl.yelpcdn.com/bphoto/xp2FQUq8AOpEcYwp9us4IA/o.jpg", "is_closed": false, "url": "https://www.yelp.com/biz/tandoor-oven-new-york?adjust_creative=9gNmiWYX8uTbFBeTTvJMdA&utm_campaign=yelp_api_v3&utm_medium=api_v3_business_search&utm_source=9gNmiWYX8uTbFBeTTvJMdA", "review_count": 199, "categories": [{"alias": "indpak", "title": "Indian"}], "rating": 3.5, "coordinates": {"latitude": 40.777150771146204, "longitude": -73.9556964}, "transactions": ["delivery", "pickup"], "price": "$$", "location": {"address1": "175 E 83rd St", "address2": "", "address3": "", "city": "New York", "zip_code": "10028", "country": "US", "state": "NY", "display_address": ["175 E 83rd St", "New York, NY 10028"]}, "phone": "+12126283000", "display_phone": "(212) 628-3000", "distance": 2315.4302787260817}, {"id": "5faOK0osoS-zdEwT21S-Cg", "alias": "saravanaa-bhavan-new-york-9", "name": "Saravanaa Bhavan", "image_url": "https://s3-media1.fl.yelpcdn.com/bphoto/dehh9iOIVBqFxthB0Hcm4w/o.jpg", "is_closed": false, "url": "https://www.yelp.com/biz/saravanaa-bhavan-new-york-9?adjust_creative=9gNmiWYX8uTbFBeTTvJMdA&utm_campaign=yelp_api_v3&utm_medium=api_v3_business_search&utm_source=9gNmiWYX8uTbFBeTTvJMdA", "review_count": 398, "categories": [{"alias": "indpak", "title": "Indian"}], "rating": 3.0, "coordinates": {"latitude": 40.7835899, "longitude": -73.97777}, "transactions": ["delivery", "pickup"], "price": "$$", "location": {"address1": "413 Amsterdam Ave", "address2": "", "address3": "", "city": "New York", "zip_code": "10024", "country": "US", "state": "NY", "display_address": ["413 Amsterdam Ave", "New York, NY 10024"]}, "phone": "+12127217755", "display_phone": "(212) 721-7755", "distance": 2796.08875045572}, {"id": "rzjwoNXH2tCEmA3wo6fy9w", "alias": "india-palace-new-york", "name": "India Palace", "image_url": "https://s3-media1.fl.yelpcdn.com/bphoto/FWh3M7AVLcgNxtuC5OssbQ/o.jpg", "is_closed": false, "url": "https://www.yelp.com/biz/india-palace-new-york?adjust_creative=9gNmiWYX8uTbFBeTTvJMdA&utm_campaign=yelp_api_v3&utm_medium=api_v3_business_search&utm_source=9gNmiWYX8uTbFBeTTvJMdA", "review_count": 16, "categories": [{"alias": "indpak", "title": "Indian"}, {"alias": "whiskeybars", "title": "Whiskey Bars"}, {"alias": "cocktailbars", "title": "Cocktail Bars"}], "rating": 4.0, "coordinates": {"latitude": 40.763200972497586, "longitude": -73.96042531491231}, "transactions": ["delivery", "pickup"], "location": {"address1": "401 E 62nd St", "address2": null, "address3": "", "city": "New York", "zip_code": "10065", "country": "US", "state": "NY", "display_address": ["401 E 62nd St", "New York, NY 10065"]}, "phone": "+12129330705", "display_phone": "(212) 933-0705", "distance": 891.1506780376267}, {"id": "iXSuNKKUBIrBX7zUerlQDQ", "alias": "benares-new-york-3", "name": "Benares", "image_url": "https://s3-media3.fl.yelpcdn.com/bphoto/02ev2tUDuz86hPhPxMEgFQ/o.jpg", "is_closed": false, "url": "https://www.yelp.com/biz/benares-new-york-3?adjust_creative=9gNmiWYX8uTbFBeTTvJMdA&utm_campaign=yelp_api_v3&utm_medium=api_v3_business_search&utm_source=9gNmiWYX8uTbFBeTTvJMdA", "review_count": 630, "categories": [{"alias": "indpak", "title": "Indian"}], "rating": 4.0, "coordinates": {"latitude": 40.71415, "longitude": -74.009209}, "transactions": ["delivery", "pickup"], "price": "$$", "location": {"address1": "45 Murray St", "address2": "", "address3": null, "city": "New York", "zip_code": "10007", "country": "US", "state": "NY", "display_address": ["45 Murray St", "New York, NY 10007"]}, "phone": "+12127664900", "display_phone": "(212) 766-4900", "distance": 6018.046019631655}, {"id": "5z7OuOWuZRu6byp2XDKbQw", "alias": "saravanaa-bhavan-new-york-7", "name": "Saravanaa Bhavan", "image_url": "https://s3-media4.fl.yelpcdn.com/bphoto/QmEOvrz0hPMgABV7ijnbuQ/o.jpg", "is_closed": false, "url": "https://www.yelp.com/biz/saravanaa-bhavan-new-york-7?adjust_creative=9gNmiWYX8uTbFBeTTvJMdA&utm_campaign=yelp_api_v3&utm_medium=api_v3_business_search&utm_source=9gNmiWYX8uTbFBeTTvJMdA", "review_count": 999, "categories": [{"alias": "indpak", "title": "Indian"}, {"alias": "vegetarian", "title": "Vegetarian"}], "rating": 3.5, "coordinates": {"latitude": 40.7414, "longitude": -73.98306}, "transactions": ["delivery", "pickup"], "price": "$$", "location": {"address1": "81 Lexington Ave", "address2": "", "address3": "", "city": "New York", "zip_code": "10016", "country": "US", "state": "NY", "display_address": ["81 Lexington Ave", "New York, NY 10016"]}, "phone": "+12126847755", "display_phone": "(212) 684-7755", "distance": 2278.228761354049}, {"id": "_SIoeZKs--95T4OsUKwtJw", "alias": "chote-miya-new-york", "name": "Chote Miya", "image_url": "https://s3-media3.fl.yelpcdn.com/bphoto/z7PDwy73iGXfJdsfEUCsVA/o.jpg", "is_closed": false, "url": "https://www.yelp.com/biz/chote-miya-new-york?adjust_creative=9gNmiWYX8uTbFBeTTvJMdA&utm_campaign=yelp_api_v3&utm_medium=api_v3_business_search&utm_source=9gNmiWYX8uTbFBeTTvJMdA", "review_count": 45, "categories": [{"alias": "indpak", "title": "Indian"}], "rating": 4.0, "coordinates": {"latitude": 40.74222, "longitude": -74.00466}, "transactions": ["delivery", "pickup"], "location": {"address1": "75 9th Ave", "address2": "", "address3": "Chelsea Market", "city": "New York", "zip_code": "10011", "country": "US", "state": "NY", "display_address": ["75 9th Ave", "Chelsea Market", "New York, NY 10011"]}, "phone": "+16468632117", "display_phone": "(646) 863-2117", "distance": 3584.898338009682}, {"id": "e5c8jGklVNKoaURcDsVxgQ", "alias": "curry-up-now-hoboken", "name": "Curry Up Now", "image_url": "https://s3-media4.fl.yelpcdn.com/bphoto/T4G0RoaQZkghn_dQ0BXCww/o.jpg", "is_closed": false, "url": "https://www.yelp.com/biz/curry-up-now-hoboken?adjust_creative=9gNmiWYX8uTbFBeTTvJMdA&utm_campaign=yelp_api_v3&utm_medium=api_v3_business_search&utm_source=9gNmiWYX8uTbFBeTTvJMdA", "review_count": 240, "categories": [{"alias": "indpak", "title": "Indian"}, {"alias": "vegetarian", "title": "Vegetarian"}, {"alias": "vegan", "title": "Vegan"}], "rating": 4.0, "coordinates": {"latitude": 40.737138, "longitude": -74.030709}, "transactions": ["delivery", "pickup"], "price": "$$", "location": {"address1": "91 Washington St", "address2": null, "address3": "", "city": "Hoboken", "zip_code": "07030", "country": "US", "state": "NJ", "display_address": ["91 Washington St", "Hoboken, NJ 07030"]}, "phone": "+12016592879", "display_phone": "(201) 659-2879", "distance": 5703.219352135351}, {"id": "NhBUzlITbu3rdjm9UEfWsw", "alias": "rajs-indian-kitchen-long-island-city-28", "name": "Raj's Indian Kitchen", "image_url": "https://s3-media3.fl.yelpcdn.com/bphoto/CKQ9ez41SOgqXi2DLA1eiA/o.jpg", "is_closed": false, "url": "https://www.yelp.com/biz/rajs-indian-kitchen-long-island-city-28?adjust_creative=9gNmiWYX8uTbFBeTTvJMdA&utm_campaign=yelp_api_v3&utm_medium=api_v3_business_search&utm_source=9gNmiWYX8uTbFBeTTvJMdA", "review_count": 335, "categories": [{"alias": "indpak", "title": "Indian"}], "rating": 4.0, "coordinates": {"latitude": 40.74956171352732, "longitude": -73.93954799532425}, "transactions": ["delivery", "pickup"], "price": "$", "location": {"address1": "42-12 28th St", "address2": "", "address3": "", "city": "Long Island City", "zip_code": "11101", "country": "US", "state": "NY", "display_address": ["42-12 28th St", "Long Island City, NY 11101"]}, "phone": "+17183618844", "display_phone": "(718) 361-8844", "distance": 2745.7481194498146}, {"id": "BXoW0AUDE7WZJcY-Vhqlbg", "alias": "indian-table-brooklyn-2", "name": "Indian Table", "image_url": "https://s3-media2.fl.yelpcdn.com/bphoto/84dNZX6yq31XhL8jDYF6lA/o.jpg", "is_closed": false, "url": "https://www.yelp.com/biz/indian-table-brooklyn-2?adjust_creative=9gNmiWYX8uTbFBeTTvJMdA&utm_campaign=yelp_api_v3&utm_medium=api_v3_business_search&utm_source=9gNmiWYX8uTbFBeTTvJMdA", "review_count": 190, "categories": [{"alias": "indpak", "title": "Indian"}], "rating": 4.5, "coordinates": {"latitude": 40.6859591, "longitude": -73.9941661}, "transactions": ["delivery", "pickup"], "price": "$$", "location": {"address1": "234 Court St", "address2": "", "address3": null, "city": "Brooklyn", "zip_code": "11201", "country": "US", "state": "NY", "display_address": ["234 Court St", "Brooklyn, NY 11201"]}, "phone": "+13476893882", "display_phone": "(347) 689-3882", "distance": 8400.83403992372}, {"id": "uucP1LoFyamFS0qDwgMXbg", "alias": "ghandi-cafe-new-york", "name": "Ghandi Cafe", "image_url": "https://s3-media3.fl.yelpcdn.com/bphoto/SOFvfwF5Jjw3_Dhokd1d9g/o.jpg", "is_closed": false, "url": "https://www.yelp.com/biz/ghandi-cafe-new-york?adjust_creative=9gNmiWYX8uTbFBeTTvJMdA&utm_campaign=yelp_api_v3&utm_medium=api_v3_business_search&utm_source=9gNmiWYX8uTbFBeTTvJMdA", "review_count": 484, "categories": [{"alias": "indpak", "title": "Indian"}], "rating": 4.0, "coordinates": {"latitude": 40.73194, "longitude": -74.0033}, "transactions": ["delivery", "pickup"], "price": "$$", "location": {"address1": "283 Bleecker St", "address2": "", "address3": "", "city": "New York", "zip_code": "10014", "country": "US", "state": "NY", "display_address": ["283 Bleecker St", "New York, NY 10014"]}, "phone": "+12126451456", "display_phone": "(212) 645-1456", "distance": 4138.658284799604}, {"id": "V2oWqXcoJkgGeIPOaS9eDA", "alias": "masala-times-greenwich-village-new-york-9", "name": "Masala Times Greenwich Village", "image_url": "https://s3-media2.fl.yelpcdn.com/bphoto/JmwjRGiwYoBPasKWpkXJXA/o.jpg", "is_closed": false, "url": "https://www.yelp.com/biz/masala-times-greenwich-village-new-york-9?adjust_creative=9gNmiWYX8uTbFBeTTvJMdA&utm_campaign=yelp_api_v3&utm_medium=api_v3_business_search&utm_source=9gNmiWYX8uTbFBeTTvJMdA", "review_count": 572, "categories": [{"alias": "indpak", "title": "Indian"}, {"alias": "comfortfood", "title": "Comfort Food"}, {"alias": "halal", "title": "Halal"}], "rating": 4.0, "coordinates": {"latitude": 40.7292728223798, "longitude": -74.0015978515206}, "transactions": ["delivery", "pickup"], "price": "$$", "location": {"address1": "194 Bleecker St", "address2": "", "address3": "", "city": "New York", "zip_code": "10012", "country": "US", "state": "NY", "display_address": ["194 Bleecker St", "New York, NY 10012"]}, "phone": "+12129955100", "display_phone": "(212) 995-5100", "distance": 4281.766097734994}, {"id": "HsEmXckXmsRAAEVDFCGYYg", "alias": "namaste-astoria-2", "name": "Namaste", "image_url": "https://s3-media1.fl.yelpcdn.com/bphoto/mm0n9eYsjWvzBksUwb_tyA/o.jpg", "is_closed": false, "url": "https://www.yelp.com/biz/namaste-astoria-2?adjust_creative=9gNmiWYX8uTbFBeTTvJMdA&utm_campaign=yelp_api_v3&utm_medium=api_v3_business_search&utm_source=9gNmiWYX8uTbFBeTTvJMdA", "review_count": 576, "categories": [{"alias": "indpak", "title": "Indian"}, {"alias": "halal", "title": "Halal"}, {"alias": "buffets", "title": "Buffets"}], "rating": 4.0, "coordinates": {"latitude": 40.7668, "longitude": -73.92068}, "transactions": ["delivery", "pickup"], "price": "$$", "location": {"address1": "31-15 30th Ave", "address2": null, "address3": "", "city": "Astoria", "zip_code": "11102", "country": "US", "state": "NY", "display_address": ["31-15 30th Ave", "Astoria, NY 11102"]}, "phone": "+17186262783", "display_phone": "(718) 626-2783", "distance": 4202.010587723326}, {"id": "u1gdMF6vMCdwCilQ6vgyfw", "alias": "honest-new-york", "name": "Honest", "image_url": "https://s3-media4.fl.yelpcdn.com/bphoto/YjLPopNY7KLzAo_X4PsE3A/o.jpg", "is_closed": false, "url": "https://www.yelp.com/biz/honest-new-york?adjust_creative=9gNmiWYX8uTbFBeTTvJMdA&utm_campaign=yelp_api_v3&utm_medium=api_v3_business_search&utm_source=9gNmiWYX8uTbFBeTTvJMdA", "review_count": 42, "categories": [{"alias": "indpak", "title": "Indian"}], "rating": 4.5, "coordinates": {"latitude": 40.72887, "longitude": -74.00082}, "transactions": [], "price": "$$", "location": {"address1": "176 Bleecker St", "address2": "", "address3": null, "city": "New York", "zip_code": "10012", "country": "US", "state": "NY", "display_address": ["176 Bleecker St", "New York, NY 10012"]}, "phone": "+19172612610", "display_phone": "(917) 261-2610", "distance": 4278.825395237537}, {"id": "D_xGTuIZqh1g6ie9QybcYw", "alias": "bawarchi-indian-cuisine-new-york-2", "name": "Bawarchi Indian Cuisine", "image_url": "https://s3-media1.fl.yelpcdn.com/bphoto/BN6ZQrj7Pd367V9cMuMwGA/o.jpg", "is_closed": false, "url": "https://www.yelp.com/biz/bawarchi-indian-cuisine-new-york-2?adjust_creative=9gNmiWYX8uTbFBeTTvJMdA&utm_campaign=yelp_api_v3&utm_medium=api_v3_business_search&utm_source=9gNmiWYX8uTbFBeTTvJMdA", "review_count": 133, "categories": [{"alias": "indpak", "title": "Indian"}, {"alias": "soup", "title": "Soup"}, {"alias": "seafood", "title": "Seafood"}], "rating": 4.0, "coordinates": {"latitude": 40.792804, "longitude": -73.950393}, "transactions": ["delivery", "pickup"], "price": "$$", "location": {"address1": "1546 Madison Ave", "address2": "", "address3": "", "city": "New York", "zip_code": "10029", "country": "US", "state": "NY", "display_address": ["1546 Madison Ave", "New York, NY 10029"]}, "phone": "", "display_phone": "", "distance": 4074.5953936530373}, {"id": "1KGvtMU7VBcdlvxo2brdQg", "alias": "clove-indian-restaurant-and-bar-new-york", "name": "Clove Indian Restaurant & Bar", "image_url": "https://s3-media3.fl.yelpcdn.com/bphoto/NiQWurdcp_UrSuc8SEV_0Q/o.jpg", "is_closed": false, "url": "https://www.yelp.com/biz/clove-indian-restaurant-and-bar-new-york?adjust_creative=9gNmiWYX8uTbFBeTTvJMdA&utm_campaign=yelp_api_v3&utm_medium=api_v3_business_search&utm_source=9gNmiWYX8uTbFBeTTvJMdA", "review_count": 329, "categories": [{"alias": "indpak", "title": "Indian"}], "rating": 4.0, "coordinates": {"latitude": 40.8212624, "longitude": -73.9506836}, "transactions": ["delivery", "pickup"], "price": "$$", "location": {"address1": "1592 Amsterdam Ave", "address2": null, "address3": "", "city": "New York", "zip_code": "10031", "country": "US", "state": "NY", "display_address": ["1592 Amsterdam Ave", "New York, NY 10031"]}, "phone": "+16469186644", "display_phone": "(646) 918-6644", "distance": 7091.235069393692}, {"id": "XgqIDfU6tKPUdRxRG5uDNw", "alias": "desi-deli-indian-restaurant-new-york-4", "name": "Desi Deli Indian Restaurant", "image_url": "https://s3-media4.fl.yelpcdn.com/bphoto/8FaBCQ5w8tQlgri9wxms0Q/o.jpg", "is_closed": false, "url": "https://www.yelp.com/biz/desi-deli-indian-restaurant-new-york-4?adjust_creative=9gNmiWYX8uTbFBeTTvJMdA&utm_campaign=yelp_api_v3&utm_medium=api_v3_business_search&utm_source=9gNmiWYX8uTbFBeTTvJMdA", "review_count": 141, "categories": [{"alias": "indpak", "title": "Indian"}, {"alias": "bubbletea", "title": "Bubble Tea"}, {"alias": "breakfast_brunch", "title": "Breakfast & Brunch"}], "rating": 3.5, "coordinates": {"latitude": 40.76433, "longitude": -73.99182}, "transactions": ["delivery", "pickup"], "price": "$", "location": {"address1": "724 10th Ave", "address2": "", "address3": "", "city": "New York", "zip_code": "10019", "country": "US", "state": "NY", "display_address": ["724 10th Ave", "New York, NY 10019"]}, "phone": "+12123999007", "display_phone": "(212) 399-9007", "distance": 1948.9766956966823}, {"id": "t_tWuzMEsoD9GDgAm_0l7g", "alias": "swagat-new-york", "name": "Swagat", "image_url": "https://s3-media4.fl.yelpcdn.com/bphoto/3rO1Wv0CbvQiuMPbbhLSOA/o.jpg", "is_closed": false, "url": "https://www.yelp.com/biz/swagat-new-york?adjust_creative=9gNmiWYX8uTbFBeTTvJMdA&utm_campaign=yelp_api_v3&utm_medium=api_v3_business_search&utm_source=9gNmiWYX8uTbFBeTTvJMdA", "review_count": 432, "categories": [{"alias": "indpak", "title": "Indian"}], "rating": 3.5, "coordinates": {"latitude": 40.78353, "longitude": -73.97782}, "transactions": ["delivery", "pickup"], "price": "$$", "location": {"address1": "411 Amsterdam Ave", "address2": "", "address3": "", "city": "New York", "zip_code": "10024", "country": "US", "state": "NY", "display_address": ["411 Amsterdam Ave", "New York, NY 10024"]}, "phone": "+12123621400", "display_phone": "(212) 362-1400", "distance": 2790.187033265651}, {"id": "iYh7mB7PDd5ZvZZ4lFPF1w", "alias": "anand-indian-cuisine-new-york", "name": "Anand Indian Cuisine", "image_url": "https://s3-media4.fl.yelpcdn.com/bphoto/QgENonMlLCCQ0YVFIGQJMQ/o.jpg", "is_closed": false, "url": "https://www.yelp.com/biz/anand-indian-cuisine-new-york?adjust_creative=9gNmiWYX8uTbFBeTTvJMdA&utm_campaign=yelp_api_v3&utm_medium=api_v3_business_search&utm_source=9gNmiWYX8uTbFBeTTvJMdA", "review_count": 162, "categories": [{"alias": "indpak", "title": "Indian"}], "rating": 4.0, "coordinates": {"latitude": 40.77232, "longitude": -73.955241}, "transactions": ["delivery", "pickup"], "price": "$$", "location": {"address1": "304 E 78th St", "address2": "", "address3": null, "city": "New York", "zip_code": "10075", "country": "US", "state": "NY", "display_address": ["304 E 78th St", "New York, NY 10075"]}, "phone": "+12126500333", "display_phone": "(212) 650-0333", "distance": 1895.077159071186}, {"id": "S6r0P0PItA9EYHV1nCiQgg", "alias": "mysttik-masaala-new-york-13", "name": "Mysttik Masaala", "image_url": "https://s3-media1.fl.yelpcdn.com/bphoto/EPHWHspm1xScY2BGK1Ievg/o.jpg", "is_closed": false, "url": "https://www.yelp.com/biz/mysttik-masaala-new-york-13?adjust_creative=9gNmiWYX8uTbFBeTTvJMdA&utm_campaign=yelp_api_v3&utm_medium=api_v3_business_search&utm_source=9gNmiWYX8uTbFBeTTvJMdA", "review_count": 457, "categories": [{"alias": "foodtrucks", "title": "Food Trucks"}, {"alias": "indpak", "title": "Indian"}], "rating": 4.5, "coordinates": {"latitude": 40.75932, "longitude": -73.97209}, "transactions": ["delivery"], "price": "$", "location": {"address1": "399 Park Ave", "address2": "Corner of 54th street", "address3": "", "city": "New York", "zip_code": "10022", "country": "US", "state": "NY", "display_address": ["399 Park Ave", "Corner of 54th street", "New York, NY 10022"]}, "phone": "+19173063128", "display_phone": "(917) 306-3128", "distance": 203.59588345345588}, {"id": "mZALre3ahuetu5X8_uUJew", "alias": "thelewala-new-york", "name": "Thelewala", "image_url": "https://s3-media2.fl.yelpcdn.com/bphoto/5KgclMDut5vG1d_nrvW7Yw/o.jpg", "is_closed": false, "url": "https://www.yelp.com/biz/thelewala-new-york?adjust_creative=9gNmiWYX8uTbFBeTTvJMdA&utm_campaign=yelp_api_v3&utm_medium=api_v3_business_search&utm_source=9gNmiWYX8uTbFBeTTvJMdA", "review_count": 531, "categories": [{"alias": "indpak", "title": "Indian"}], "rating": 4.0, "coordinates": {"latitude": 40.72963, "longitude": -74.00068}, "transactions": ["delivery", "pickup"], "price": "$", "location": {"address1": "112 Macdougal St", "address2": "", "address3": "", "city": "New York", "zip_code": "10012", "country": "US", "state": "NY", "display_address": ["112 Macdougal St", "New York, NY 10012"]}, "phone": "+12126149100", "display_phone": "(212) 614-9100", "distance": 4201.484760562012}, {"id": "GNPne4Il-itbn2sLbvMo1g", "alias": "angel-indian-restaurant-jackson-heights", "name": "Angel Indian Restaurant", "image_url": "https://s3-media2.fl.yelpcdn.com/bphoto/W2Wqu_WTeQw4PeJ11oaY_w/o.jpg", "is_closed": false, "url": "https://www.yelp.com/biz/angel-indian-restaurant-jackson-heights?adjust_creative=9gNmiWYX8uTbFBeTTvJMdA&utm_campaign=yelp_api_v3&utm_medium=api_v3_business_search&utm_source=9gNmiWYX8uTbFBeTTvJMdA", "review_count": 343, "categories": [{"alias": "indpak", "title": "Indian"}, {"alias": "vegetarian", "title": "Vegetarian"}], "rating": 4.5, "coordinates": {"latitude": 40.7473069226623, "longitude": -73.8912814123575}, "transactions": ["delivery", "pickup"], "price": "$$", "location": {"address1": "7414 37th Rd", "address2": "", "address3": null, "city": "Jackson Heights", "zip_code": "11372", "country": "US", "state": "NY", "display_address": ["7414 37th Rd", "Jackson Heights, NY 11372"]}, "phone": "+13478480097", "display_phone": "(347) 848-0097", "distance": 6725.566272823265}, {"id": "zyQpS4QrYYB0VKXf7JPUlQ", "alias": "atithi-indian-cuisine-brooklyn", "name": "Atithi Indian Cuisine", "image_url": "https://s3-media3.fl.yelpcdn.com/bphoto/ZUBeEb5-a-XisknvoeVwUA/o.jpg", "is_closed": false, "url": "https://www.yelp.com/biz/atithi-indian-cuisine-brooklyn?adjust_creative=9gNmiWYX8uTbFBeTTvJMdA&utm_campaign=yelp_api_v3&utm_medium=api_v3_business_search&utm_source=9gNmiWYX8uTbFBeTTvJMdA", "review_count": 172, "categories": [{"alias": "indpak", "title": "Indian"}], "rating": 5.0, "coordinates": {"latitude": 40.714765, "longitude": -73.961606}, "transactions": ["restaurant_reservation", "delivery", "pickup"], "price": "$$", "location": {"address1": "159 Grand St", "address2": null, "address3": "", "city": "Brooklyn", "zip_code": "11249", "country": "US", "state": "NY", "display_address": ["159 Grand St", "Brooklyn, NY 11249"]}, "phone": "+17186849192", "display_phone": "(718) 684-9192", "distance": 4978.166236681223}, {"id": "KXD44wWmrGf7mzyyr0bikw", "alias": "p-s-kitchen-new-york-3", "name": "P.S. Kitchen", "image_url": "https://s3-media3.fl.yelpcdn.com/bphoto/iGyr8tMU4mcy2zF2DBN4lw/o.jpg", "is_closed": false, "url": "https://www.yelp.com/biz/p-s-kitchen-new-york-3?adjust_creative=9gNmiWYX8uTbFBeTTvJMdA&utm_campaign=yelp_api_v3&utm_medium=api_v3_business_search&utm_source=9gNmiWYX8uTbFBeTTvJMdA", "review_count": 666, "categories": [{"alias": "vegetarian", "title": "Vegetarian"}, {"alias": "bars", "title": "Bars"}, {"alias": "vegan", "title": "Vegan"}], "rating": 4.5, "coordinates": {"latitude": 40.760706, "longitude": -73.986627}, "transactions": ["delivery", "pickup"], "price": "$$", "location": {"address1": "246 W 48th St", "address2": "", "address3": null, "city": "New York", "zip_code": "10036", "country": "US", "state": "NY", "display_address": ["246 W 48th St", "New York, NY 10036"]}, "phone": "+12126517247", "display_phone": "(212) 651-7247", "distance": 1446.3435341803377}, {"id": "UtknyDJ_DPut-FKRqs0wpQ", "alias": "royal-grill-halal-food-new-york-2", "name": "Royal Grill Halal Food", "image_url": "https://s3-media3.fl.yelpcdn.com/bphoto/-klpG6APVCZ_PRlT3mSJaw/o.jpg", "is_closed": false, "url": "https://www.yelp.com/biz/royal-grill-halal-food-new-york-2?adjust_creative=9gNmiWYX8uTbFBeTTvJMdA&utm_campaign=yelp_api_v3&utm_medium=api_v3_business_search&utm_source=9gNmiWYX8uTbFBeTTvJMdA", "review_count": 514, "categories": [{"alias": "halal", "title": "Halal"}, {"alias": "foodtrucks", "title": "Food Trucks"}, {"alias": "indpak", "title": "Indian"}], "rating": 4.5, "coordinates": {"latitude": 40.75621073292354, "longitude": -73.98334948251191}, "transactions": ["delivery", "pickup"], "price": "$", "location": {"address1": "44TH St And 6th Ave", "address2": "", "address3": "", "city": "New York", "zip_code": "10018", "country": "US", "state": "NY", "display_address": ["44TH St And 6th Ave", "New York, NY 10018"]}, "phone": "+13477240504", "display_phone": "(347) 724-0504", "distance": 1206.1778875319092}, {"id": "_nScWpFX3M1K7s30hFEsRw", "alias": "inday-new-york-2", "name": "INDAY", "image_url": "https://s3-media3.fl.yelpcdn.com/bphoto/5XVjJGgGZmgblwuSmAaw-Q/o.jpg", "is_closed": false, "url": "https://www.yelp.com/biz/inday-new-york-2?adjust_creative=9gNmiWYX8uTbFBeTTvJMdA&utm_campaign=yelp_api_v3&utm_medium=api_v3_business_search&utm_source=9gNmiWYX8uTbFBeTTvJMdA", "review_count": 397, "categories": [{"alias": "indpak", "title": "Indian"}, {"alias": "salad", "title": "Salad"}, {"alias": "gluten_free", "title": "Gluten-Free"}], "rating": 4.0, "coordinates": {"latitude": 40.7434986, "longitude": -73.9892206}, "transactions": ["delivery", "pickup"], "price": "$$", "location": {"address1": "1133 Broadway", "address2": "", "address3": "", "city": "New York", "zip_code": "10010", "country": "US", "state": "NY", "display_address": ["1133 Broadway", "New York, NY 10010"]}, "phone": "+19175215012", "display_phone": "(917) 521-5012", "distance": 2388.96519595075}, {"id": "yV7brOiTLS3Lmwws8e3nXA", "alias": "dil-e-punjab-deli-new-york-2", "name": "Dil-e Punjab Deli", "image_url": "https://s3-media2.fl.yelpcdn.com/bphoto/vRwVd7qL8DWsvRePyeJaeg/o.jpg", "is_closed": false, "url": "https://www.yelp.com/biz/dil-e-punjab-deli-new-york-2?adjust_creative=9gNmiWYX8uTbFBeTTvJMdA&utm_campaign=yelp_api_v3&utm_medium=api_v3_business_search&utm_source=9gNmiWYX8uTbFBeTTvJMdA", "review_count": 211, "categories": [{"alias": "indpak", "title": "Indian"}, {"alias": "vegetarian", "title": "Vegetarian"}], "rating": 4.5, "coordinates": {"latitude": 40.74482, "longitude": -74.00206}, "transactions": ["delivery", "pickup"], "price": "$", "location": {"address1": "170 9th Ave", "address2": "", "address3": "", "city": "New York", "zip_code": "10011", "country": "US", "state": "NY", "display_address": ["170 9th Ave", "New York, NY 10011"]}, "phone": "+12126479428", "display_phone": "(212) 647-9428", "distance": 3178.3395363401755}, {"id": "t0mizbevBMMNBecgnl7vQg", "alias": "anar-new-york-5", "name": "Anar", "image_url": "https://s3-media2.fl.yelpcdn.com/bphoto/Be7WfXzkKfJGVRd02Ro4KA/o.jpg", "is_closed": false, "url": "https://www.yelp.com/biz/anar-new-york-5?adjust_creative=9gNmiWYX8uTbFBeTTvJMdA&utm_campaign=yelp_api_v3&utm_medium=api_v3_business_search&utm_source=9gNmiWYX8uTbFBeTTvJMdA", "review_count": 102, "categories": [{"alias": "indpak", "title": "Indian"}], "rating": 4.5, "coordinates": {"latitude": 40.800232646589066, "longitude": -73.96559153149137}, "transactions": ["delivery", "pickup"], "price": "$$", "location": {"address1": "935 Amsterdam Ave", "address2": "", "address3": "", "city": "New York", "zip_code": "10025", "country": "US", "state": "NY", "display_address": ["935 Amsterdam Ave", "New York, NY 10025"]}, "phone": "+12123669888", "display_phone": "(212) 366-9888", "distance": 4577.727287026399}, {"id": "UiG3MlLDMMZp31XDBM2kvA", "alias": "karahi-indian-cuisine-new-york-3", "name": "Karahi Indian Cuisine", "image_url": "https://s3-media3.fl.yelpcdn.com/bphoto/q2sjkVqflQYHH41pQR3b1A/o.jpg", "is_closed": false, "url": "https://www.yelp.com/biz/karahi-indian-cuisine-new-york-3?adjust_creative=9gNmiWYX8uTbFBeTTvJMdA&utm_campaign=yelp_api_v3&utm_medium=api_v3_business_search&utm_source=9gNmiWYX8uTbFBeTTvJMdA", "review_count": 98, "categories": [{"alias": "indpak", "title": "Indian"}], "rating": 4.5, "coordinates": {"latitude": 40.765667, "longitude": -73.987595}, "transactions": ["delivery", "pickup"], "location": {"address1": "803 9th Ave", "address2": "", "address3": null, "city": "New York", "zip_code": "10019", "country": "US", "state": "NY", "display_address": ["803 9th Ave", "New York, NY 10019"]}, "phone": "+12124591515", "display_phone": "(212) 459-1515", "distance": 1680.6976632951212}, {"id": "_R6EjbrynW_LFnmWoRqgww", "alias": "surya-madam-ji-new-york", "name": "Surya - Madam Ji", "image_url": "https://s3-media1.fl.yelpcdn.com/bphoto/R_VMneVfhmSB5PwJXn4Mww/o.jpg", "is_closed": false, "url": "https://www.yelp.com/biz/surya-madam-ji-new-york?adjust_creative=9gNmiWYX8uTbFBeTTvJMdA&utm_campaign=yelp_api_v3&utm_medium=api_v3_business_search&utm_source=9gNmiWYX8uTbFBeTTvJMdA", "review_count": 285, "categories": [{"alias": "indpak", "title": "Indian"}, {"alias": "cocktailbars", "title": "Cocktail Bars"}, {"alias": "wine_bars", "title": "Wine Bars"}], "rating": 3.5, "coordinates": {"latitude": 40.728186, "longitude": -73.999436}, "transactions": ["delivery", "pickup"], "price": "$$", "location": {"address1": "154 Bleecker St", "address2": "", "address3": "", "city": "New York", "zip_code": "10012", "country": "US", "state": "NY", "display_address": ["154 Bleecker St", "New York, NY 10012"]}, "phone": "+12128751405", "display_phone": "(212) 875-1405", "distance": 4266.420497258405}, {"id": "FvnExtQHPfz_crDCBTQ1iQ", "alias": "mint-masala-new-york", "name": "Mint Masala", "image_url": "https://s3-media3.fl.yelpcdn.com/bphoto/hmoJmqweg1MQ4KIT7QQOvA/o.jpg", "is_closed": false, "url": "https://www.yelp.com/biz/mint-masala-new-york?adjust_creative=9gNmiWYX8uTbFBeTTvJMdA&utm_campaign=yelp_api_v3&utm_medium=api_v3_business_search&utm_source=9gNmiWYX8uTbFBeTTvJMdA", "review_count": 343, "categories": [{"alias": "indpak", "title": "Indian"}, {"alias": "halal", "title": "Halal"}], "rating": 4.0, "coordinates": {"latitude": 40.729513, "longitude": -74.001138}, "transactions": ["delivery", "pickup"], "price": "$$", "location": {"address1": "95 Macdougal St", "address2": "", "address3": null, "city": "New York", "zip_code": "10012", "country": "US", "state": "NY", "display_address": ["95 Macdougal St", "New York, NY 10012"]}, "phone": "+12127772888", "display_phone": "(212) 777-2888", "distance": 4234.531211668693}, {"id": "Q7wFlNr4OFU0eCJXcOmopg", "alias": "bombays-indian-restaurant-new-york", "name": "Bombay's Indian Restaurant", "image_url": "https://s3-media3.fl.yelpcdn.com/bphoto/yKDhC52JC0vMWb2D8X1qTA/o.jpg", "is_closed": false, "url": "https://www.yelp.com/biz/bombays-indian-restaurant-new-york?adjust_creative=9gNmiWYX8uTbFBeTTvJMdA&utm_campaign=yelp_api_v3&utm_medium=api_v3_business_search&utm_source=9gNmiWYX8uTbFBeTTvJMdA", "review_count": 254, "categories": [{"alias": "indpak", "title": "Indian"}], "rating": 3.5, "coordinates": {"latitude": 40.70344, "longitude": -74.01109}, "transactions": ["delivery", "pickup"], "price": "$$", "location": {"address1": "60 Pearl St", "address2": null, "address3": "", "city": "New York", "zip_code": "10004", "country": "US", "state": "NY", "display_address": ["60 Pearl St", "New York, NY 10004"]}, "phone": "+12127422222", "display_phone": "(212) 742-2222", "distance": 7117.330070303047}, {"id": "EPHhPGDFvnq2ARTBxAikuw", "alias": "milon-new-york", "name": "Milon", "image_url": "https://s3-media1.fl.yelpcdn.com/bphoto/NEPvVEXyCmXTSMhUSwPe2A/o.jpg", "is_closed": false, "url": "https://www.yelp.com/biz/milon-new-york?adjust_creative=9gNmiWYX8uTbFBeTTvJMdA&utm_campaign=yelp_api_v3&utm_medium=api_v3_business_search&utm_source=9gNmiWYX8uTbFBeTTvJMdA", "review_count": 516, "categories": [{"alias": "indpak", "title": "Indian"}, {"alias": "bangladeshi", "title": "Bangladeshi"}], "rating": 3.5, "coordinates": {"latitude": 40.726322, "longitude": -73.986648}, "transactions": ["delivery", "pickup"], "price": "$$", "location": {"address1": "93 1st Ave", "address2": "", "address3": "", "city": "New York", "zip_code": "10003", "country": "US", "state": "NY", "display_address": ["93 1st Ave", "New York, NY 10003"]}, "phone": "+12122284896", "display_phone": "(212) 228-4896", "distance": 3927.1826151629552}, {"id": "9x95RpLEIDRWG2Y9w4qz4Q", "alias": "inday-new-york-5", "name": "INDAY", "image_url": "https://s3-media2.fl.yelpcdn.com/bphoto/mBrDpK6CpZII8QG5nu_Vtw/o.jpg", "is_closed": false, "url": "https://www.yelp.com/biz/inday-new-york-5?adjust_creative=9gNmiWYX8uTbFBeTTvJMdA&utm_campaign=yelp_api_v3&utm_medium=api_v3_business_search&utm_source=9gNmiWYX8uTbFBeTTvJMdA", "review_count": 136, "categories": [{"alias": "indpak", "title": "Indian"}], "rating": 4.0, "coordinates": {"latitude": 40.75233, "longitude": -73.97353}, "transactions": ["delivery", "pickup"], "price": "$$", "location": {"address1": "708 3rd Ave", "address2": "44th Street", "address3": null, "city": "New York", "zip_code": "10017", "country": "US", "state": "NY", "display_address": ["708 3rd Ave", "44th Street", "New York, NY 10017"]}, "phone": "+19175215012", "display_phone": "(917) 521-5012", "distance": 823.2199114927981}, {"id": "yx8cpBwPttpdBvm4V1EawQ", "alias": "joy-curry-and-tandoor-new-york-2", "name": "Joy Curry & Tandoor", "image_url": "https://s3-media3.fl.yelpcdn.com/bphoto/Vv_Ia8YufBu83XaUZ_rmCw/o.jpg", "is_closed": false, "url": "https://www.yelp.com/biz/joy-curry-and-tandoor-new-york-2?adjust_creative=9gNmiWYX8uTbFBeTTvJMdA&utm_campaign=yelp_api_v3&utm_medium=api_v3_business_search&utm_source=9gNmiWYX8uTbFBeTTvJMdA", "review_count": 227, "categories": [{"alias": "indpak", "title": "Indian"}], "rating": 4.0, "coordinates": {"latitude": 40.75352, "longitude": -73.9736117202377}, "transactions": ["delivery", "pickup"], "price": "$$", "location": {"address1": "148 E 46th St", "address2": "", "address3": "", "city": "New York", "zip_code": "10017", "country": "US", "state": "NY", "display_address": ["148 E 46th St", "New York, NY 10017"]}, "phone": "+12124901277", "display_phone": "(212) 490-1277", "distance": 714.8581397163009}, {"id": "bFUVp77ApNkACqXvgiekPQ", "alias": "bhatti-indian-grill-new-york", "name": "Bhatti Indian Grill", "image_url": "https://s3-media2.fl.yelpcdn.com/bphoto/fCwBrKWmLyQt287coO16aw/o.jpg", "is_closed": false, "url": "https://www.yelp.com/biz/bhatti-indian-grill-new-york?adjust_creative=9gNmiWYX8uTbFBeTTvJMdA&utm_campaign=yelp_api_v3&utm_medium=api_v3_business_search&utm_source=9gNmiWYX8uTbFBeTTvJMdA", "review_count": 872, "categories": [{"alias": "indpak", "title": "Indian"}], "rating": 3.5, "coordinates": {"latitude": 40.74221, "longitude": -73.98308}, "transactions": ["delivery", "pickup"], "price": "$$", "location": {"address1": "100 Lexington Ave", "address2": "", "address3": "", "city": "New York", "zip_code": "10016", "country": "US", "state": "NY", "display_address": ["100 Lexington Ave", "New York, NY 10016"]}, "phone": "+12126834228", "display_phone": "(212) 683-4228", "distance": 2201.556026321735}, {"id": "Z_fT0KLZV3y80LHUMlmbig", "alias": "khiladi-nyc-new-york", "name": "Khiladi NYC", "image_url": "https://s3-media2.fl.yelpcdn.com/bphoto/_0BUSt6XEZ1bLtsEQCd2EA/o.jpg", "is_closed": false, "url": "https://www.yelp.com/biz/khiladi-nyc-new-york?adjust_creative=9gNmiWYX8uTbFBeTTvJMdA&utm_campaign=yelp_api_v3&utm_medium=api_v3_business_search&utm_source=9gNmiWYX8uTbFBeTTvJMdA", "review_count": 191, "categories": [{"alias": "indpak", "title": "Indian"}], "rating": 4.5, "coordinates": {"latitude": 40.727536, "longitude": -73.97926}, "transactions": ["delivery", "pickup"], "location": {"address1": "175 Avenue B", "address2": "", "address3": null, "city": "New York", "zip_code": "10009", "country": "US", "state": "NY", "display_address": ["175 Avenue B", "New York, NY 10009"]}, "phone": "+16467910351", "display_phone": "(646) 791-0351", "distance": 3616.48471505892}, {"id": "GVaTZnN7a-DkrK57l7BbGw", "alias": "boishakhi-restaurant-astoria-2", "name": "Boishakhi Restaurant", "image_url": "https://s3-media1.fl.yelpcdn.com/bphoto/R5-ykbxXYMGzen0dpB874g/o.jpg", "is_closed": false, "url": "https://www.yelp.com/biz/boishakhi-restaurant-astoria-2?adjust_creative=9gNmiWYX8uTbFBeTTvJMdA&utm_campaign=yelp_api_v3&utm_medium=api_v3_business_search&utm_source=9gNmiWYX8uTbFBeTTvJMdA", "review_count": 105, "categories": [{"alias": "indpak", "title": "Indian"}, {"alias": "bangladeshi", "title": "Bangladeshi"}, {"alias": "halal", "title": "Halal"}], "rating": 4.0, "coordinates": {"latitude": 40.7569548876687, "longitude": -73.9310011267662}, "transactions": ["delivery", "pickup"], "price": "$", "location": {"address1": "2914 36th Ave", "address2": "", "address3": "", "city": "Astoria", "zip_code": "11106", "country": "US", "state": "NY", "display_address": ["2914 36th Ave", "Astoria, NY 11106"]}, "phone": "+17186061242", "display_phone": "(718) 606-1242", "distance": 3258.2410077604845}, {"id": "_z2_1TE_1brlvljiGtJ4mA", "alias": "aahar-indian-cuisine-new-york", "name": "Aahar Indian Cuisine", "image_url": "https://s3-media2.fl.yelpcdn.com/bphoto/V5QIjldzSDuXfIERTyDSUQ/o.jpg", "is_closed": false, "url": "https://www.yelp.com/biz/aahar-indian-cuisine-new-york?adjust_creative=9gNmiWYX8uTbFBeTTvJMdA&utm_campaign=yelp_api_v3&utm_medium=api_v3_business_search&utm_source=9gNmiWYX8uTbFBeTTvJMdA", "review_count": 427, "categories": [{"alias": "indpak", "title": "Indian"}], "rating": 4.5, "coordinates": {"latitude": 40.71334, "longitude": -74.0081}, "transactions": ["delivery", "pickup"], "price": "$$", "location": {"address1": "10 Murray St", "address2": null, "address3": "", "city": "New York", "zip_code": "10007", "country": "US", "state": "NY", "display_address": ["10 Murray St", "New York, NY 10007"]}, "phone": "+16466493374", "display_phone": "(646) 649-3374", "distance": 6046.7982203251995}, {"id": "fCxjrytrEw_l9vGjSCzszg", "alias": "paisley-new-york-2", "name": "Paisley", "image_url": "https://s3-media4.fl.yelpcdn.com/bphoto/0Q6wJhgNByrUiAXHznRTFw/o.jpg", "is_closed": false, "url": "https://www.yelp.com/biz/paisley-new-york-2?adjust_creative=9gNmiWYX8uTbFBeTTvJMdA&utm_campaign=yelp_api_v3&utm_medium=api_v3_business_search&utm_source=9gNmiWYX8uTbFBeTTvJMdA", "review_count": 91, "categories": [{"alias": "indpak", "title": "Indian"}], "rating": 4.5, "coordinates": {"latitude": 40.722387, "longitude": -74.0095662}, "transactions": ["delivery", "pickup"], "location": {"address1": "429 Greenwich St", "address2": "", "address3": null, "city": "New York", "zip_code": "10013", "country": "US", "state": "NY", "display_address": ["429 Greenwich St", "New York, NY 10013"]}, "phone": "+12122748003", "display_phone": "(212) 274-8003", "distance": 5299.5498578896995}, {"id": "NVMdf02l1GuzzDb7ESI_qQ", "alias": "taste-from-everest-new-york-2", "name": "Taste From Everest", "image_url": "https://s3-media1.fl.yelpcdn.com/bphoto/AuEJvPE765g4QimEtzBmxA/o.jpg", "is_closed": false, "url": "https://www.yelp.com/biz/taste-from-everest-new-york-2?adjust_creative=9gNmiWYX8uTbFBeTTvJMdA&utm_campaign=yelp_api_v3&utm_medium=api_v3_business_search&utm_source=9gNmiWYX8uTbFBeTTvJMdA", "review_count": 85, "categories": [{"alias": "himalayan", "title": "Himalayan/Nepalese"}, {"alias": "indpak", "title": "Indian"}], "rating": 4.5, "coordinates": {"latitude": 40.7422712, "longitude": -73.9830327}, "transactions": ["restaurant_reservation", "delivery", "pickup"], "price": "$$", "location": {"address1": "102 Lexington Ave", "address2": "", "address3": "", "city": "New York", "zip_code": "10016", "country": "US", "state": "NY", "display_address": ["102 Lexington Ave", "New York, NY 10016"]}, "phone": "+16466093006", "display_phone": "(646) 609-3006", "distance": 2195.0254216412027}, {"id": "l_Td-NFRIdxu7m6pgJUqhQ", "alias": "manhattan-valley-new-york-10", "name": "Manhattan Valley", "image_url": "https://s3-media2.fl.yelpcdn.com/bphoto/9iuhRfpLusK2ECrq8_5FdA/o.jpg", "is_closed": false, "url": "https://www.yelp.com/biz/manhattan-valley-new-york-10?adjust_creative=9gNmiWYX8uTbFBeTTvJMdA&utm_campaign=yelp_api_v3&utm_medium=api_v3_business_search&utm_source=9gNmiWYX8uTbFBeTTvJMdA", "review_count": 119, "categories": [{"alias": "indpak", "title": "Indian"}], "rating": 3.5, "coordinates": {"latitude": 40.797005967886, "longitude": -73.9697319902153}, "transactions": ["delivery", "pickup"], "price": "$$", "location": {"address1": "2636 Broadway 100 St", "address2": "", "address3": "", "city": "New York", "zip_code": "10025", "country": "US", "state": "NY", "display_address": ["2636 Broadway 100 St", "New York, NY 10025"]}, "phone": "+12122229222", "display_phone": "(212) 222-9222", "distance": 4206.66073609162}, {"id": "gWuHmSQ8G5FiKv-rEogwvA", "alias": "pongal-new-york-2", "name": "Pongal", "image_url": "https://s3-media1.fl.yelpcdn.com/bphoto/yyVbbtkCt789TkuCQ7FU_A/o.jpg", "is_closed": false, "url": "https://www.yelp.com/biz/pongal-new-york-2?adjust_creative=9gNmiWYX8uTbFBeTTvJMdA&utm_campaign=yelp_api_v3&utm_medium=api_v3_business_search&utm_source=9gNmiWYX8uTbFBeTTvJMdA", "review_count": 547, "categories": [{"alias": "indpak", "title": "Indian"}, {"alias": "vegetarian", "title": "Vegetarian"}, {"alias": "desserts", "title": "Desserts"}], "rating": 4.0, "coordinates": {"latitude": 40.74246, "longitude": -73.9829}, "transactions": ["delivery", "pickup"], "price": "$$", "location": {"address1": "110 Lexington Ave", "address2": "", "address3": "", "city": "New York", "zip_code": "10016", "country": "US", "state": "NY", "display_address": ["110 Lexington Ave", "New York, NY 10016"]}, "phone": "+12126969458", "display_phone": "(212) 696-9458", "distance": 2171.3465737100946}, {"id": "qs5aBgcT2v1BFlW-XqQS0Q", "alias": "biryani-cart-new-york", "name": "Biryani Cart", "image_url": "https://s3-media1.fl.yelpcdn.com/bphoto/XNgk6VMqrm6TPmU5aVCoXw/o.jpg", "is_closed": false, "url": "https://www.yelp.com/biz/biryani-cart-new-york?adjust_creative=9gNmiWYX8uTbFBeTTvJMdA&utm_campaign=yelp_api_v3&utm_medium=api_v3_business_search&utm_source=9gNmiWYX8uTbFBeTTvJMdA", "review_count": 562, "categories": [{"alias": "indpak", "title": "Indian"}, {"alias": "foodtrucks", "title": "Food Trucks"}], "rating": 3.5, "coordinates": {"latitude": 40.757403, "longitude": -73.9822503}, "transactions": ["delivery", "pickup"], "price": "$", "location": {"address1": "46th St & 6th Ave", "address2": null, "address3": "", "city": "New York", "zip_code": "10003", "country": "US", "state": "NY", "display_address": ["46th St & 6th Ave", "New York, NY 10003"]}, "phone": "+19292787442", "display_phone": "(929) 278-7442", "distance": 1085.7092358461357}, {"id": "ZNJ4ij7_xOlKSeMeEh1khA", "alias": "rowdy-rooster-new-york", "name": "Rowdy Rooster", "image_url": "https://s3-media1.fl.yelpcdn.com/bphoto/QxXOShY36saArvi3Kowd3Q/o.jpg", "is_closed": false, "url": "https://www.yelp.com/biz/rowdy-rooster-new-york?adjust_creative=9gNmiWYX8uTbFBeTTvJMdA&utm_campaign=yelp_api_v3&utm_medium=api_v3_business_search&utm_source=9gNmiWYX8uTbFBeTTvJMdA", "review_count": 156, "categories": [{"alias": "indpak", "title": "Indian"}, {"alias": "chickenshop", "title": "Chicken Shop"}], "rating": 4.5, "coordinates": {"latitude": 40.728473350506725, "longitude": -73.98500709999999}, "transactions": [], "price": "$$", "location": {"address1": "149 1st Ave", "address2": "", "address3": null, "city": "New York", "zip_code": "10003", "country": "US", "state": "NY", "display_address": ["149 1st Ave", "New York, NY 10003"]}, "phone": "", "display_phone": "", "distance": 3653.036199415684}], "total": 902, "region": {"center": {"longitude": -73.96957397460938, "latitude": 40.75917470627005}}}