{"businesses": [{"id": "KtYEMI-_zy5hoZTBd3i3Tw", "alias": "indian-curry-heights-brooklyn", "name": "Indian Curry Heights", "image_url": "https://s3-media2.fl.yelpcdn.com/bphoto/mgI-K3p34ao8VAFMqYtb2w/o.jpg", "is_closed": false, "url": "https://www.yelp.com/biz/indian-curry-heights-brooklyn?adjust_creative=9gNmiWYX8uTbFBeTTvJMdA&utm_campaign=yelp_api_v3&utm_medium=api_v3_business_search&utm_source=9gNmiWYX8uTbFBeTTvJMdA", "review_count": 80, "categories": [{"alias": "indpak", "title": "Indian"}], "rating": 3.5, "coordinates": {"latitude": 40.685816, "longitude": -73.923047}, "transactions": ["pickup", "delivery"], "price": "$$", "location": {"address1": "125 Ralph Ave", "address2": null, "address3": "", "city": "Brooklyn", "zip_code": "11221", "country": "US", "state": "NY", "display_address": ["125 Ralph Ave", "Brooklyn, NY 11221"]}, "phone": "+17189287707", "display_phone": "(718) 928-7707", "distance": 9046.52813861825}, {"id": "wqOBqXkMar3xPOHfkWGwDA", "alias": "the-soul-spot-brooklyn", "name": "The Soul Spot", "image_url": "https://s3-media2.fl.yelpcdn.com/bphoto/83QhMexUstjgawTAcNRPLw/o.jpg", "is_closed": false, "url": "https://www.yelp.com/biz/the-soul-spot-brooklyn?adjust_creative=9gNmiWYX8uTbFBeTTvJMdA&utm_campaign=yelp_api_v3&utm_medium=api_v3_business_search&utm_source=9gNmiWYX8uTbFBeTTvJMdA", "review_count": 349, "categories": [{"alias": "soulfood", "title": "Soul Food"}, {"alias": "caribbean", "title": "Caribbean"}, {"alias": "halal", "title": "Halal"}], "rating": 3.5, "coordinates": {"latitude": 40.688221, "longitude": -73.988875}, "transactions": ["pickup", "delivery"], "price": "$$", "location": {"address1": "302 Atlantic Ave", "address2": "", "address3": "", "city": "Brooklyn", "zip_code": "11201", "country": "US", "state": "NY", "display_address": ["302 Atlantic Ave", "Brooklyn, NY 11201"]}, "phone": "+17185969933", "display_phone": "(718) 596-9933", "distance": 8052.818557711377}, {"id": "u_j2PopX_tFfQvrlerjmmA", "alias": "golconda-chimney-jersey-city-2", "name": "Golconda Chimney", "image_url": "https://s3-media2.fl.yelpcdn.com/bphoto/1ORld6PJ28UR4xQ5LRdTeg/o.jpg", "is_closed": false, "url": "https://www.yelp.com/biz/golconda-chimney-jersey-city-2?adjust_creative=9gNmiWYX8uTbFBeTTvJMdA&utm_campaign=yelp_api_v3&utm_medium=api_v3_business_search&utm_source=9gNmiWYX8uTbFBeTTvJMdA", "review_count": 196, "categories": [{"alias": "indpak", "title": "Indian"}, {"alias": "halal", "title": "Halal"}, {"alias": "vegetarian", "title": "Vegetarian"}], "rating": 3.0, "coordinates": {"latitude": 40.73585, "longitude": -74.06517}, "transactions": ["pickup", "delivery"], "price": "$$", "location": {"address1": "806 Newark Ave", "address2": "", "address3": "", "city": "Jersey City", "zip_code": "07306", "country": "US", "state": "NJ", "display_address": ["806 Newark Ave", "Jersey City, NJ 07306"]}, "phone": "+12016080666", "display_phone": "(201) 608-0666", "distance": 8464.816140461611}, {"id": "XN_m4p2LJ_y9UloHvZj63Q", "alias": "chapati-house-new-york-3", "name": "Chapati House", "image_url": "https://s3-media2.fl.yelpcdn.com/bphoto/R4mPZIHtGAUfMHbj93FobA/o.jpg", "is_closed": false, "url": "https://www.yelp.com/biz/chapati-house-new-york-3?adjust_creative=9gNmiWYX8uTbFBeTTvJMdA&utm_campaign=yelp_api_v3&utm_medium=api_v3_business_search&utm_source=9gNmiWYX8uTbFBeTTvJMdA", "review_count": 1, "categories": [{"alias": "indpak", "title": "Indian"}], "rating": 5.0, "coordinates": {"latitude": 40.81456, "longitude": -73.95945}, "transactions": ["pickup", "delivery"], "location": {"address1": "3153 Broadway", "address2": null, "address3": "", "city": "New York", "zip_code": "10027", "country": "US", "state": "NY", "display_address": ["3153 Broadway", "New York, NY 10027"]}, "phone": "+12127497200", "display_phone": "(212) 749-7200", "distance": 6222.61847045763}, {"id": "EVaeiIE_p0m2LkeG6rhh2g", "alias": "joy-of-india-new-york", "name": "Joy of India", "image_url": "", "is_closed": false, "url": "https://www.yelp.com/biz/joy-of-india-new-york?adjust_creative=9gNmiWYX8uTbFBeTTvJMdA&utm_campaign=yelp_api_v3&utm_medium=api_v3_business_search&utm_source=9gNmiWYX8uTbFBeTTvJMdA", "review_count": 1, "categories": [{"alias": "indpak", "title": "Indian"}], "rating": 5.0, "coordinates": {"latitude": 40.742973, "longitude": -73.982743}, "transactions": [], "location": {"address1": "127 E 28th St", "address2": "", "address3": null, "city": "New York", "zip_code": "10016", "country": "US", "state": "NY", "display_address": ["127 E 28th St", "New York, NY 10016"]}, "phone": "+12126850808", "display_phone": "(212) 685-0808", "distance": 2117.0876808754956}, {"id": "37RhWHnMsnjULuoN95Bg9A", "alias": "izzys-brooklyn-smokehouse-crown-heights", "name": "Izzy's Brooklyn Smokehouse", "image_url": "https://s3-media2.fl.yelpcdn.com/bphoto/UU3cIJtCriUcGdFwpekiiQ/o.jpg", "is_closed": false, "url": "https://www.yelp.com/biz/izzys-brooklyn-smokehouse-crown-heights?adjust_creative=9gNmiWYX8uTbFBeTTvJMdA&utm_campaign=yelp_api_v3&utm_medium=api_v3_business_search&utm_source=9gNmiWYX8uTbFBeTTvJMdA", "review_count": 179, "categories": [{"alias": "bbq", "title": "Barbeque"}, {"alias": "kosher", "title": "Kosher"}, {"alias": "smokehouse", "title": "Smokehouse"}], "rating": 4.0, "coordinates": {"latitude": 40.66487, "longitude": -73.9369}, "transactions": ["pickup", "delivery"], "price": "$$$", "location": {"address1": "397 Troy Ave", "address2": "", "address3": "", "city": "Crown Heights", "zip_code": "11213", "country": "US", "state": "NY", "display_address": ["397 Troy Ave", "Crown Heights, NY 11213"]}, "phone": "+13474250524", "display_phone": "(347) 425-0524", "distance": 10843.97466674218}, {"id": "4Hxhgx2AufLIuhrqyz_7IA", "alias": "alams-halal-cart-long-island-city", "name": "Alam's Halal Cart", "image_url": "https://s3-media2.fl.yelpcdn.com/bphoto/cAkzxxaINx6EjO-221wZzA/o.jpg", "is_closed": false, "url": "https://www.yelp.com/biz/alams-halal-cart-long-island-city?adjust_creative=9gNmiWYX8uTbFBeTTvJMdA&utm_campaign=yelp_api_v3&utm_medium=api_v3_business_search&utm_source=9gNmiWYX8uTbFBeTTvJMdA", "review_count": 28, "categories": [{"alias": "halal", "title": "Halal"}, {"alias": "foodtrucks", "title": "Food Trucks"}], "rating": 4.5, "coordinates": {"latitude": 40.7446895, "longitude": -73.9578213}, "transactions": [], "price": "$", "location": {"address1": "4805 Center Blvd", "address2": null, "address3": "", "city": "Long Island City", "zip_code": "11101", "country": "US", "state": "NY", "display_address": ["4805 Center Blvd", "Long Island City, NY 11101"]}, "phone": "+19294016189", "display_phone": "(929) 401-6189", "distance": 1884.8485997240127}, {"id": "L02D3DmTwrkap-BaAfIg8g", "alias": "lucky-sweets-and-restaurant-astoria", "name": "Lucky Sweets & Restaurant", "image_url": "https://s3-media3.fl.yelpcdn.com/bphoto/wqgtpt7os24U60ch_XgduQ/o.jpg", "is_closed": false, "url": "https://www.yelp.com/biz/lucky-sweets-and-restaurant-astoria?adjust_creative=9gNmiWYX8uTbFBeTTvJMdA&utm_campaign=yelp_api_v3&utm_medium=api_v3_business_search&utm_source=9gNmiWYX8uTbFBeTTvJMdA", "review_count": 4, "categories": [{"alias": "indpak", "title": "Indian"}, {"alias": "pakistani", "title": "Pakistani"}], "rating": 3.0, "coordinates": {"latitude": 40.755595, "longitude": -73.9279987}, "transactions": [], "price": "$", "location": {"address1": "3310 36th Ave", "address2": "", "address3": "", "city": "Astoria", "zip_code": "11106", "country": "US", "state": "NY", "display_address": ["3310 36th Ave", "Astoria, NY 11106"]}, "phone": "", "display_phone": "", "distance": 3532.277280476653}, {"id": "rML0mPoWQHxG8ifHGuI7pQ", "alias": "mashallah-sweets-and-restaurant-brooklyn", "name": "Mashallah Sweets & Restaurant", "image_url": "https://s3-media3.fl.yelpcdn.com/bphoto/dK-rXoedq-K9W-0mKcoKbQ/o.jpg", "is_closed": false, "url": "https://www.yelp.com/biz/mashallah-sweets-and-restaurant-brooklyn?adjust_creative=9gNmiWYX8uTbFBeTTvJMdA&utm_campaign=yelp_api_v3&utm_medium=api_v3_business_search&utm_source=9gNmiWYX8uTbFBeTTvJMdA", "review_count": 98, "categories": [{"alias": "pakistani", "title": "Pakistani"}, {"alias": "indpak", "title": "Indian"}], "rating": 3.5, "coordinates": {"latitude": 40.641254, "longitude": -73.969039}, "transactions": ["pickup", "delivery"], "price": "$", "location": {"address1": "663 Coney Island Ave", "address2": null, "address3": "", "city": "Brooklyn", "zip_code": "11218", "country": "US", "state": "NY", "display_address": ["663 Coney Island Ave", "Brooklyn, NY 11218"]}, "phone": "+17182870090", "display_phone": "(718) 287-0090", "distance": 13118.50391933082}, {"id": "Yv3MrJfVG3pQJIQbOTxHLA", "alias": "tribos-peri-peri-saddle-brook-2", "name": "Tribos Peri Peri", "image_url": "https://s3-media1.fl.yelpcdn.com/bphoto/jbOwu5LLWCSeZ2HwthJYuw/o.jpg", "is_closed": false, "url": "https://www.yelp.com/biz/tribos-peri-peri-saddle-brook-2?adjust_creative=9gNmiWYX8uTbFBeTTvJMdA&utm_campaign=yelp_api_v3&utm_medium=api_v3_business_search&utm_source=9gNmiWYX8uTbFBeTTvJMdA", "review_count": 213, "categories": [{"alias": "portuguese", "title": "Portuguese"}, {"alias": "african", "title": "African"}, {"alias": "halal", "title": "Halal"}], "rating": 4.0, "coordinates": {"latitude": 40.89726037467907, "longitude": -74.09554404217042}, "transactions": ["pickup", "delivery"], "price": "$$", "location": {"address1": "383 Market St", "address2": "Ste 5", "address3": "", "city": "Saddle Brook", "zip_code": "07663", "country": "US", "state": "NJ", "display_address": ["383 Market St", "Ste 5", "Saddle Brook, NJ 07663"]}, "phone": "+12012921911", "display_phone": "(201) 292-1911", "distance": 18657.278399501174}, {"id": "_Hkn4K3FIw7yxxyijSovFg", "alias": "dosa-spot-jersey-city-2", "name": "Dosa Spot", "image_url": "https://s3-media1.fl.yelpcdn.com/bphoto/nCyx5eM8xwMJGO2ZWgHx-A/o.jpg", "is_closed": false, "url": "https://www.yelp.com/biz/dosa-spot-jersey-city-2?adjust_creative=9gNmiWYX8uTbFBeTTvJMdA&utm_campaign=yelp_api_v3&utm_medium=api_v3_business_search&utm_source=9gNmiWYX8uTbFBeTTvJMdA", "review_count": 13, "categories": [{"alias": "indpak", "title": "Indian"}], "rating": 3.0, "coordinates": {"latitude": 40.72705844462733, "longitude": -74.03692641990772}, "transactions": ["pickup", "delivery"], "location": {"address1": "30 Mall Dr W", "address2": "", "address3": null, "city": "Jersey City", "zip_code": "07310", "country": "US", "state": "NJ", "display_address": ["30 Mall Dr W", "Jersey City, NJ 07310"]}, "phone": "+12019126041", "display_phone": "(201) 912-6041", "distance": 6704.434951205238}, {"id": "BKgnH8uhGIjeHq3DfVzLbg", "alias": "gyro-king-teaneck", "name": "Gyro King", "image_url": "https://s3-media2.fl.yelpcdn.com/bphoto/iucp6EAZ8vcMnA912POl9A/o.jpg", "is_closed": false, "url": "https://www.yelp.com/biz/gyro-king-teaneck?adjust_creative=9gNmiWYX8uTbFBeTTvJMdA&utm_campaign=yelp_api_v3&utm_medium=api_v3_business_search&utm_source=9gNmiWYX8uTbFBeTTvJMdA", "review_count": 57, "categories": [{"alias": "falafel", "title": "Falafel"}, {"alias": "halal", "title": "Halal"}, {"alias": "kebab", "title": "Kebab"}], "rating": 3.5, "coordinates": {"latitude": 40.87447, "longitude": -74.02124}, "transactions": ["pickup", "delivery"], "price": "$", "location": {"address1": "314 Queen Anne Rd", "address2": "", "address3": null, "city": "Teaneck", "zip_code": "07666", "country": "US", "state": "NJ", "display_address": ["314 Queen Anne Rd", "Teaneck, NJ 07666"]}, "phone": "+18622571616", "display_phone": "(862) 257-1616", "distance": 13532.071391356922}, {"id": "HYW2O2qycmFiGUNt_TlyPA", "alias": "shawarmania-astoria", "name": "Shawarmania", "image_url": "https://s3-media3.fl.yelpcdn.com/bphoto/iZk_GvQNhd2fiakzmD-Dgg/o.jpg", "is_closed": false, "url": "https://www.yelp.com/biz/shawarmania-astoria?adjust_creative=9gNmiWYX8uTbFBeTTvJMdA&utm_campaign=yelp_api_v3&utm_medium=api_v3_business_search&utm_source=9gNmiWYX8uTbFBeTTvJMdA", "review_count": 263, "categories": [{"alias": "halal", "title": "Halal"}, {"alias": "mideastern", "title": "Middle Eastern"}, {"alias": "mediterranean", "title": "Mediterranean"}], "rating": 4.0, "coordinates": {"latitude": 40.774947, "longitude": -73.911846}, "transactions": ["pickup", "delivery"], "price": "$", "location": {"address1": "22-49 31st St", "address2": "", "address3": "", "city": "Astoria", "zip_code": "11105", "country": "US", "state": "NY", "display_address": ["22-49 31st St", "Astoria, NY 11105"]}, "phone": "+17185451800", "display_phone": "(718) 545-1800", "distance": 5168.264656678978}, {"id": "MAwtBgCmrY-i_jbmXlDMkw", "alias": "peacefood-cafe-downtown-new-york", "name": "Peacefood Cafe Downtown", "image_url": "https://s3-media1.fl.yelpcdn.com/bphoto/mNYkq6eXIryOv7SIAVj0Xw/o.jpg", "is_closed": false, "url": "https://www.yelp.com/biz/peacefood-cafe-downtown-new-york?adjust_creative=9gNmiWYX8uTbFBeTTvJMdA&utm_campaign=yelp_api_v3&utm_medium=api_v3_business_search&utm_source=9gNmiWYX8uTbFBeTTvJMdA", "review_count": 815, "categories": [{"alias": "vegan", "title": "Vegan"}], "rating": 4.0, "coordinates": {"latitude": 40.7332670924819, "longitude": -73.9929751334153}, "transactions": ["pickup", "delivery"], "price": "$$", "location": {"address1": "41 E 11th St", "address2": "", "address3": "", "city": "New York", "zip_code": "10003", "country": "US", "state": "NY", "display_address": ["41 E 11th St", "New York, NY 10003"]}, "phone": "+12129792288", "display_phone": "(212) 979-2288", "distance": 3490.7350810859075}, {"id": "PZLdVjlGHc9XlvFDdxHcIw", "alias": "jassis-world-famous-deli-long-island-city", "name": "Jassi's World Famous Deli", "image_url": "https://s3-media3.fl.yelpcdn.com/bphoto/hHNydstdC_yKKseWYQFMZg/o.jpg", "is_closed": false, "url": "https://www.yelp.com/biz/jassis-world-famous-deli-long-island-city?adjust_creative=9gNmiWYX8uTbFBeTTvJMdA&utm_campaign=yelp_api_v3&utm_medium=api_v3_business_search&utm_source=9gNmiWYX8uTbFBeTTvJMdA", "review_count": 19, "categories": [{"alias": "delis", "title": "Delis"}, {"alias": "indpak", "title": "Indian"}, {"alias": "tradamerican", "title": "American (Traditional)"}], "rating": 3.0, "coordinates": {"latitude": 40.749784, "longitude": -73.946762}, "transactions": ["pickup", "delivery"], "price": "$", "location": {"address1": "4344 21st St", "address2": null, "address3": null, "city": "Long Island City", "zip_code": "11101", "country": "US", "state": "NY", "display_address": ["4344 21st St", "Long Island City, NY 11101"]}, "phone": "+17187862484", "display_phone": "(718) 786-2484", "distance": 2183.673334361031}, {"id": "pMdhVoZuxIQGYOD8tsWMpA", "alias": "prabhu-kirpa-restaurant-and-sweets-south-ozone-park", "name": "Prabhu Kirpa Restaurant and Sweets", "image_url": "", "is_closed": false, "url": "https://www.yelp.com/biz/prabhu-kirpa-restaurant-and-sweets-south-ozone-park?adjust_creative=9gNmiWYX8uTbFBeTTvJMdA&utm_campaign=yelp_api_v3&utm_medium=api_v3_business_search&utm_source=9gNmiWYX8uTbFBeTTvJMdA", "review_count": 2, "categories": [{"alias": "indpak", "title": "Indian"}, {"alias": "pakistani", "title": "Pakistani"}, {"alias": "vegetarian", "title": "Vegetarian"}], "rating": 5.0, "coordinates": {"latitude": 40.67483, "longitude": -73.80412}, "transactions": [], "price": "$$$", "location": {"address1": "13403 Rockaway Blvd", "address2": "", "address3": "", "city": "South Ozone Park", "zip_code": "11420", "country": "US", "state": "NY", "display_address": ["13403 Rockaway Blvd", "South Ozone Park, NY 11420"]}, "phone": "+17187383030", "display_phone": "(718) 738-3030", "distance": 16805.650948837247}, {"id": "utbWLB3zYR1o__iDI9-Xgg", "alias": "namaste-chautari-restaurant-jackson-heights", "name": "Namaste Chautari Restaurant", "image_url": "https://s3-media3.fl.yelpcdn.com/bphoto/5fVzPcAlLJLYe5j-F_4wZg/o.jpg", "is_closed": false, "url": "https://www.yelp.com/biz/namaste-chautari-restaurant-jackson-heights?adjust_creative=9gNmiWYX8uTbFBeTTvJMdA&utm_campaign=yelp_api_v3&utm_medium=api_v3_business_search&utm_source=9gNmiWYX8uTbFBeTTvJMdA", "review_count": 17, "categories": [{"alias": "himalayan", "title": "Himalayan/Nepalese"}, {"alias": "asianfusion", "title": "Asian Fusion"}], "rating": 2.5, "coordinates": {"latitude": 40.7470142, "longitude": -73.8911845}, "transactions": ["pickup", "delivery"], "price": "$", "location": {"address1": "7415 Roosevelt Ave", "address2": null, "address3": "", "city": "Jackson Heights", "zip_code": "11372", "country": "US", "state": "NY", "display_address": ["7415 Roosevelt Ave", "Jackson Heights, NY 11372"]}, "phone": "+17184244994", "display_phone": "(718) 424-4994", "distance": 6760.595458692265}, {"id": "CP5zlAOYYne7uhzUC1LyuQ", "alias": "annam-brahma-jamaica", "name": "Annam Brahma", "image_url": "https://s3-media4.fl.yelpcdn.com/bphoto/owH20ISUOB0InHRScOjb_Q/o.jpg", "is_closed": false, "url": "https://www.yelp.com/biz/annam-brahma-jamaica?adjust_creative=9gNmiWYX8uTbFBeTTvJMdA&utm_campaign=yelp_api_v3&utm_medium=api_v3_business_search&utm_source=9gNmiWYX8uTbFBeTTvJMdA", "review_count": 90, "categories": [{"alias": "vegetarian", "title": "Vegetarian"}, {"alias": "indpak", "title": "Indian"}], "rating": 4.0, "coordinates": {"latitude": 40.712811, "longitude": -73.801268327869}, "transactions": ["pickup", "delivery"], "price": "$", "location": {"address1": "8443 164th St", "address2": "", "address3": "", "city": "Jamaica", "zip_code": "11432", "country": "US", "state": "NY", "display_address": ["8443 164th St", "Jamaica, NY 11432"]}, "phone": "+17185232600", "display_phone": "(718) 523-2600", "distance": 15088.652438661013}, {"id": "KBJjn-BNqkcEhqz_iaadWw", "alias": "the-cumin-bowl-the-bronx", "name": "The Cumin Bowl", "image_url": "", "is_closed": false, "url": "https://www.yelp.com/biz/the-cumin-bowl-the-bronx?adjust_creative=9gNmiWYX8uTbFBeTTvJMdA&utm_campaign=yelp_api_v3&utm_medium=api_v3_business_search&utm_source=9gNmiWYX8uTbFBeTTvJMdA", "review_count": 1, "categories": [{"alias": "indpak", "title": "Indian"}], "rating": 1.0, "coordinates": {"latitude": 40.8780142, "longitude": -73.9027765}, "transactions": ["pickup", "delivery"], "location": {"address1": "146 W 231st St", "address2": "", "address3": null, "city": "The Bronx", "zip_code": "10463", "country": "US", "state": "NY", "display_address": ["146 W 231st St", "The Bronx, NY 10463"]}, "phone": "", "display_phone": "", "distance": 14362.463213984212}, {"id": "XUYR7XBtPn0cIAn5hCl4Cw", "alias": "curry-spot-bronx", "name": "Curry Spot", "image_url": "https://s3-media3.fl.yelpcdn.com/bphoto/cB3MkjsS8yswQSbJ4MGe1Q/o.jpg", "is_closed": false, "url": "https://www.yelp.com/biz/curry-spot-bronx?adjust_creative=9gNmiWYX8uTbFBeTTvJMdA&utm_campaign=yelp_api_v3&utm_medium=api_v3_business_search&utm_source=9gNmiWYX8uTbFBeTTvJMdA", "review_count": 116, "categories": [{"alias": "indpak", "title": "Indian"}], "rating": 3.5, "coordinates": {"latitude": 40.89776, "longitude": -73.86706}, "transactions": ["pickup", "delivery"], "price": "$$", "location": {"address1": "4268 Katonah Ave", "address2": "", "address3": "", "city": "Bronx", "zip_code": "10470", "country": "US", "state": "NY", "display_address": ["4268 Katonah Ave", "Bronx, NY 10470"]}, "phone": "+17187085900", "display_phone": "(718) 708-5900", "distance": 17663.89177261579}, {"id": "OHD58Nwnf5sSMpSgpiUk3Q", "alias": "aroma-palace-restaurant-elm-park", "name": "Aroma Palace Restaurant", "image_url": "", "is_closed": false, "url": "https://www.yelp.com/biz/aroma-palace-restaurant-elm-park?adjust_creative=9gNmiWYX8uTbFBeTTvJMdA&utm_campaign=yelp_api_v3&utm_medium=api_v3_business_search&utm_source=9gNmiWYX8uTbFBeTTvJMdA", "review_count": 3, "categories": [{"alias": "indpak", "title": "Indian"}], "rating": 4.5, "coordinates": {"latitude": 40.6311378479004, "longitude": -74.1384887695312}, "transactions": [], "location": {"address1": "461 Port Richmond Ave", "address2": "", "address3": "", "city": "Elm Park", "zip_code": "10302", "country": "US", "state": "NY", "display_address": ["461 Port Richmond Ave", "Elm Park, NY 10302"]}, "phone": "+17185569500", "display_phone": "(718) 556-9500", "distance": 20136.74895341648}, {"id": "kjDnwT4HwQDVjGo1OInaEg", "alias": "tandoor-kitchen-jamaica-2", "name": "Tandoor Kitchen", "image_url": "https://s3-media4.fl.yelpcdn.com/bphoto/hE5R1pwB5QouQ1QO2WpB_A/o.jpg", "is_closed": false, "url": "https://www.yelp.com/biz/tandoor-kitchen-jamaica-2?adjust_creative=9gNmiWYX8uTbFBeTTvJMdA&utm_campaign=yelp_api_v3&utm_medium=api_v3_business_search&utm_source=9gNmiWYX8uTbFBeTTvJMdA", "review_count": 44, "categories": [{"alias": "indpak", "title": "Indian"}], "rating": 4.0, "coordinates": {"latitude": 40.667760068861234, "longitude": -73.78135065481457}, "transactions": ["pickup", "delivery"], "price": "$", "location": {"address1": "15412 Rockaway Blvd", "address2": null, "address3": "", "city": "Jamaica", "zip_code": "11434", "country": "US", "state": "NY", "display_address": ["15412 Rockaway Blvd", "Jamaica, NY 11434"]}, "phone": "+13475484066", "display_phone": "(347) 548-4066", "distance": 18841.28915465491}, {"id": "wCSKWPBOmUvKZz8gdStxjA", "alias": "sylhet-fusion-cuisine-queens", "name": "Sylhet Fusion Cuisine", "image_url": "https://s3-media3.fl.yelpcdn.com/bphoto/1Y988WAPB3lMRyNFb_BEAQ/o.jpg", "is_closed": false, "url": "https://www.yelp.com/biz/sylhet-fusion-cuisine-queens?adjust_creative=9gNmiWYX8uTbFBeTTvJMdA&utm_campaign=yelp_api_v3&utm_medium=api_v3_business_search&utm_source=9gNmiWYX8uTbFBeTTvJMdA", "review_count": 3, "categories": [{"alias": "indpak", "title": "Indian"}, {"alias": "burgers", "title": "Burgers"}, {"alias": "icecream", "title": "Ice Cream & Frozen Yogurt"}], "rating": 2.5, "coordinates": {"latitude": 40.7418533621439, "longitude": -73.9196883689782}, "transactions": ["pickup", "delivery"], "location": {"address1": "45-12 Greenpoint Ave", "address2": "", "address3": null, "city": "Queens", "zip_code": "11104", "country": "US", "state": "NY", "display_address": ["45-12 Greenpoint Ave", "Queens, NY 11104"]}, "phone": "+17189373028", "display_phone": "(718) 937-3028", "distance": 4641.652228835418}, {"id": "eXrk95smyEBBIOJigCvo7Q", "alias": "punjabi-diner-queens", "name": "Punjabi Diner", "image_url": "https://s3-media2.fl.yelpcdn.com/bphoto/i4zGZW2JIkuuFktZ5zmfTA/o.jpg", "is_closed": false, "url": "https://www.yelp.com/biz/punjabi-diner-queens?adjust_creative=9gNmiWYX8uTbFBeTTvJMdA&utm_campaign=yelp_api_v3&utm_medium=api_v3_business_search&utm_source=9gNmiWYX8uTbFBeTTvJMdA", "review_count": 22, "categories": [{"alias": "indpak", "title": "Indian"}], "rating": 2.5, "coordinates": {"latitude": 40.6893308825209, "longitude": -73.828362131187}, "transactions": ["pickup", "delivery"], "price": "$$", "location": {"address1": "116-1 101st Ave", "address2": "", "address3": null, "city": "Queens", "zip_code": "11419", "country": "US", "state": "NY", "display_address": ["116-1 101st Ave", "Queens, NY 11419"]}, "phone": "+17188463900", "display_phone": "(718) 846-3900", "distance": 14199.106691773313}, {"id": "YMMzKiyXHhltXIqy2sMiAA", "alias": "curry-and-kebab-bronx", "name": "Curry & Kebab", "image_url": "https://s3-media2.fl.yelpcdn.com/bphoto/i4bILlqHaBo99lXEvisYtA/o.jpg", "is_closed": false, "url": "https://www.yelp.com/biz/curry-and-kebab-bronx?adjust_creative=9gNmiWYX8uTbFBeTTvJMdA&utm_campaign=yelp_api_v3&utm_medium=api_v3_business_search&utm_source=9gNmiWYX8uTbFBeTTvJMdA", "review_count": 91, "categories": [{"alias": "halal", "title": "Halal"}, {"alias": "indpak", "title": "Indian"}, {"alias": "seafood", "title": "Seafood"}], "rating": 4.0, "coordinates": {"latitude": 40.8740694334906, "longitude": -73.8795868679881}, "transactions": ["pickup", "delivery"], "price": "$$", "location": {"address1": "3111 Bainbridge Ave", "address2": "", "address3": null, "city": "Bronx", "zip_code": "10467", "country": "US", "state": "NY", "display_address": ["3111 Bainbridge Ave", "Bronx, NY 10467"]}, "phone": "+17182315370", "display_phone": "(718) 231-5370", "distance": 14851.386744959482}, {"id": "DR22QPe3A52diajwPuooVA", "alias": "bikanervala-jersey-city", "name": "Bikanervala", "image_url": "https://s3-media2.fl.yelpcdn.com/bphoto/qjrj_ZhDD5NbIMfqnp1Gqw/o.jpg", "is_closed": false, "url": "https://www.yelp.com/biz/bikanervala-jersey-city?adjust_creative=9gNmiWYX8uTbFBeTTvJMdA&utm_campaign=yelp_api_v3&utm_medium=api_v3_business_search&utm_source=9gNmiWYX8uTbFBeTTvJMdA", "review_count": 74, "categories": [{"alias": "indpak", "title": "Indian"}], "rating": 3.0, "coordinates": {"latitude": 40.735425, "longitude": -74.065587}, "transactions": ["pickup", "delivery"], "location": {"address1": "815 Newark Ave", "address2": "", "address3": null, "city": "Jersey City", "zip_code": "07306", "country": "US", "state": "NJ", "display_address": ["815 Newark Ave", "Jersey City, NJ 07306"]}, "phone": "+12016593842", "display_phone": "(201) 659-3842", "distance": 8510.110528995923}, {"id": "hjEjLPf1lnAVYR3mMiuSQQ", "alias": "rockaway-grill-jamaica-2", "name": "Rockaway Grill", "image_url": "https://s3-media1.fl.yelpcdn.com/bphoto/mWRhvrPUb9gG-TFhwJjKkg/o.jpg", "is_closed": false, "url": "https://www.yelp.com/biz/rockaway-grill-jamaica-2?adjust_creative=9gNmiWYX8uTbFBeTTvJMdA&utm_campaign=yelp_api_v3&utm_medium=api_v3_business_search&utm_source=9gNmiWYX8uTbFBeTTvJMdA", "review_count": 14, "categories": [{"alias": "indpak", "title": "Indian"}, {"alias": "desserts", "title": "Desserts"}, {"alias": "breakfast_brunch", "title": "Breakfast & Brunch"}], "rating": 4.5, "coordinates": {"latitude": 40.6739, "longitude": -73.79925}, "transactions": [], "location": {"address1": "141-16 Rockaway Blvd", "address2": null, "address3": "", "city": "Jamaica", "zip_code": "11436", "country": "US", "state": "NY", "display_address": ["141-16 Rockaway Blvd", "Jamaica, NY 11436"]}, "phone": "+17188801155", "display_phone": "(718) 880-1155", "distance": 17186.951383534117}, {"id": "XNJgKHavBZm47RpudtAn3A", "alias": "taste-of-lahore-jackson-heights", "name": "Taste Of Lahore", "image_url": "https://s3-media2.fl.yelpcdn.com/bphoto/jDxikPd5dFJjSHa-UUiUlQ/o.jpg", "is_closed": false, "url": "https://www.yelp.com/biz/taste-of-lahore-jackson-heights?adjust_creative=9gNmiWYX8uTbFBeTTvJMdA&utm_campaign=yelp_api_v3&utm_medium=api_v3_business_search&utm_source=9gNmiWYX8uTbFBeTTvJMdA", "review_count": 96, "categories": [{"alias": "pakistani", "title": "Pakistani"}, {"alias": "indpak", "title": "Indian"}, {"alias": "halal", "title": "Halal"}], "rating": 3.0, "coordinates": {"latitude": 40.754585844911595, "longitude": -73.89332355971034}, "transactions": ["pickup", "delivery"], "price": "$$", "location": {"address1": "73-10 Northern Blvd", "address2": "", "address3": "", "city": "Jackson Heights", "zip_code": "11372", "country": "US", "state": "NY", "display_address": ["73-10 Northern Blvd", "Jackson Heights, NY 11372"]}, "phone": "+17187796700", "display_phone": "(718) 779-6700", "distance": 6442.701221047972}, {"id": "PQOmBOFXF9FQNhOMEdrhSg", "alias": "lhasa-tibetan-restaurant-new-york-4", "name": "LHASA Tibetan Restaurant", "image_url": "https://s3-media4.fl.yelpcdn.com/bphoto/K9lgV8YcIl0aqqoBBUT-Pw/o.jpg", "is_closed": false, "url": "https://www.yelp.com/biz/lhasa-tibetan-restaurant-new-york-4?adjust_creative=9gNmiWYX8uTbFBeTTvJMdA&utm_campaign=yelp_api_v3&utm_medium=api_v3_business_search&utm_source=9gNmiWYX8uTbFBeTTvJMdA", "review_count": 76, "categories": [{"alias": "himalayan", "title": "Himalayan/Nepalese"}], "rating": 4.5, "coordinates": {"latitude": 40.729355, "longitude": -73.984263}, "transactions": ["pickup", "delivery"], "price": "$$", "location": {"address1": "177 1st Ave", "address2": "", "address3": null, "city": "New York", "zip_code": "10003", "country": "US", "state": "NY", "display_address": ["177 1st Ave", "New York, NY 10003"]}, "phone": "+19173882230", "display_phone": "(917) 388-2230", "distance": 3539.2935577748913}, {"id": "0ORwxqRAliQvbYMIND19FQ", "alias": "masala-cafe-newark-3", "name": "Masala Cafe", "image_url": "https://s3-media4.fl.yelpcdn.com/bphoto/x8Z6P2XEi21fa91U1lSLyA/o.jpg", "is_closed": false, "url": "https://www.yelp.com/biz/masala-cafe-newark-3?adjust_creative=9gNmiWYX8uTbFBeTTvJMdA&utm_campaign=yelp_api_v3&utm_medium=api_v3_business_search&utm_source=9gNmiWYX8uTbFBeTTvJMdA", "review_count": 58, "categories": [{"alias": "indpak", "title": "Indian"}, {"alias": "halal", "title": "Halal"}, {"alias": "delis", "title": "Delis"}], "rating": 3.5, "coordinates": {"latitude": 40.7376, "longitude": -74.17251}, "transactions": ["pickup", "delivery"], "price": "$$", "location": {"address1": "27 Academy St", "address2": null, "address3": "", "city": "Newark", "zip_code": "07102", "country": "US", "state": "NJ", "display_address": ["27 Academy St", "Newark, NJ 07102"]}, "phone": "+19738770993", "display_phone": "(973) 877-0993", "distance": 17262.420039978704}, {"id": "k2Jd3omePPtz2IZGgWadmA", "alias": "baba-kitchens-belleville", "name": "Baba Kitchens", "image_url": "https://s3-media3.fl.yelpcdn.com/bphoto/pd_9SmUp_RkiiIuiMhTFRA/o.jpg", "is_closed": false, "url": "https://www.yelp.com/biz/baba-kitchens-belleville?adjust_creative=9gNmiWYX8uTbFBeTTvJMdA&utm_campaign=yelp_api_v3&utm_medium=api_v3_business_search&utm_source=9gNmiWYX8uTbFBeTTvJMdA", "review_count": 7, "categories": [{"alias": "turkish", "title": "Turkish"}, {"alias": "indpak", "title": "Indian"}, {"alias": "burgers", "title": "Burgers"}], "rating": 3.5, "coordinates": {"latitude": 40.79756, "longitude": -74.14552}, "transactions": ["pickup", "delivery"], "location": {"address1": "500 Cortlandt St", "address2": "", "address3": "", "city": "Belleville", "zip_code": "07109", "country": "US", "state": "NJ", "display_address": ["500 Cortlandt St", "Belleville, NJ 07109"]}, "phone": "+19733273887", "display_phone": "(973) 327-3887", "distance": 15414.890683452139}, {"id": "PELbdHCpKUexQiE7UjdasA", "alias": "platters-corner-hackensack", "name": "Platters Corner", "image_url": "https://s3-media1.fl.yelpcdn.com/bphoto/2Nm-jd-qYKiC-OHuQgATSQ/o.jpg", "is_closed": false, "url": "https://www.yelp.com/biz/platters-corner-hackensack?adjust_creative=9gNmiWYX8uTbFBeTTvJMdA&utm_campaign=yelp_api_v3&utm_medium=api_v3_business_search&utm_source=9gNmiWYX8uTbFBeTTvJMdA", "review_count": 84, "categories": [{"alias": "mideastern", "title": "Middle Eastern"}, {"alias": "halal", "title": "Halal"}, {"alias": "falafel", "title": "Falafel"}], "rating": 4.5, "coordinates": {"latitude": 40.879569, "longitude": -74.041223}, "transactions": ["pickup", "delivery"], "location": {"address1": "60 River St", "address2": null, "address3": "", "city": "Hackensack", "zip_code": "07601", "country": "US", "state": "NJ", "display_address": ["60 River St", "Hackensack, NJ 07601"]}, "phone": "+12013433241", "display_phone": "(201) 343-3241", "distance": 14680.798848156317}, {"id": "YMY1m8i_QzdzAaauE9PRRQ", "alias": "biryani-adda-jersey-city", "name": "Biryani Adda", "image_url": "", "is_closed": false, "url": "https://www.yelp.com/biz/biryani-adda-jersey-city?adjust_creative=9gNmiWYX8uTbFBeTTvJMdA&utm_campaign=yelp_api_v3&utm_medium=api_v3_business_search&utm_source=9gNmiWYX8uTbFBeTTvJMdA", "review_count": 1, "categories": [{"alias": "indpak", "title": "Indian"}, {"alias": "desserts", "title": "Desserts"}, {"alias": "fooddeliveryservices", "title": "Food Delivery Services"}], "rating": 4.0, "coordinates": {"latitude": 40.73529, "longitude": -74.063842}, "transactions": ["delivery"], "location": {"address1": "771 Newark Ave", "address2": null, "address3": null, "city": "Jersey City", "zip_code": "07306", "country": "US", "state": "NJ", "display_address": ["771 Newark Ave", "Jersey City, NJ 07306"]}, "phone": "+12016041772", "display_phone": "(201) 604-1772", "distance": 8376.197999934326}, {"id": "o21M4dKM4KQbzGVrlq_3Iw", "alias": "pearl-indian-food-brooklyn-2", "name": "Pearl Indian Food", "image_url": "https://s3-media3.fl.yelpcdn.com/bphoto/3XnZWh3odQ68Ws30Tu62JA/o.jpg", "is_closed": false, "url": "https://www.yelp.com/biz/pearl-indian-food-brooklyn-2?adjust_creative=9gNmiWYX8uTbFBeTTvJMdA&utm_campaign=yelp_api_v3&utm_medium=api_v3_business_search&utm_source=9gNmiWYX8uTbFBeTTvJMdA", "review_count": 175, "categories": [{"alias": "indpak", "title": "Indian"}, {"alias": "vegetarian", "title": "Vegetarian"}, {"alias": "seafood", "title": "Seafood"}], "rating": 3.5, "coordinates": {"latitude": 40.67324165367078, "longitude": -73.95731615490283}, "transactions": ["pickup", "delivery"], "price": "$$", "location": {"address1": "738 Franklin Ave", "address2": "", "address3": "", "city": "Brooklyn", "zip_code": "11238", "country": "US", "state": "NY", "display_address": ["738 Franklin Ave", "Brooklyn, NY 11238"]}, "phone": "+17186229500", "display_phone": "(718) 622-9500", "distance": 9610.993823015422}, {"id": "tHldrgkIiHa-AF-08JLGsQ", "alias": "southern-spice-jersey-city", "name": "Southern Spice", "image_url": "", "is_closed": false, "url": "https://www.yelp.com/biz/southern-spice-jersey-city?adjust_creative=9gNmiWYX8uTbFBeTTvJMdA&utm_campaign=yelp_api_v3&utm_medium=api_v3_business_search&utm_source=9gNmiWYX8uTbFBeTTvJMdA", "review_count": 3, "categories": [{"alias": "indpak", "title": "Indian"}], "rating": 4.5, "coordinates": {"latitude": 40.73565809999999, "longitude": -74.0666622}, "transactions": ["delivery", "pickup"], "location": {"address1": "839 Newark Ave", "address2": null, "address3": null, "city": "Jersey City", "zip_code": "07306", "country": "US", "state": "NJ", "display_address": ["839 Newark Ave", "Jersey City, NJ 07306"]}, "phone": "+18488281002", "display_phone": "(848) 828-1002", "distance": 8586.620089099086}, {"id": "2DGTVgGGme6CoXFCgooqVw", "alias": "premium-sweets-and-restaurant-bronx-3", "name": "Premium Sweets & Restaurant", "image_url": "https://s3-media2.fl.yelpcdn.com/bphoto/J40QBzhSO_qs4Ezw4H2Ipw/o.jpg", "is_closed": false, "url": "https://www.yelp.com/biz/premium-sweets-and-restaurant-bronx-3?adjust_creative=9gNmiWYX8uTbFBeTTvJMdA&utm_campaign=yelp_api_v3&utm_medium=api_v3_business_search&utm_source=9gNmiWYX8uTbFBeTTvJMdA", "review_count": 24, "categories": [{"alias": "bangladeshi", "title": "Bangladeshi"}], "rating": 4.5, "coordinates": {"latitude": 40.8359499, "longitude": -73.85487}, "transactions": ["pickup", "delivery"], "price": "$$", "location": {"address1": "2104 Starling Ave", "address2": "", "address3": "", "city": "Bronx", "zip_code": "10462", "country": "US", "state": "NY", "display_address": ["2104 Starling Ave", "Bronx, NY 10462"]}, "phone": "+17182399500", "display_phone": "(718) 239-9500", "distance": 12887.561191585837}, {"id": "jlH66jTIZUwX5MT1D-lhvg", "alias": "tikka-grill-jackson-heights", "name": "Tikka Grill", "image_url": "https://s3-media2.fl.yelpcdn.com/bphoto/zTGrHFyl2qU6lW9_WpjZSQ/o.jpg", "is_closed": false, "url": "https://www.yelp.com/biz/tikka-grill-jackson-heights?adjust_creative=9gNmiWYX8uTbFBeTTvJMdA&utm_campaign=yelp_api_v3&utm_medium=api_v3_business_search&utm_source=9gNmiWYX8uTbFBeTTvJMdA", "review_count": 33, "categories": [{"alias": "pakistani", "title": "Pakistani"}], "rating": 4.0, "coordinates": {"latitude": 40.7646759, "longitude": -73.8871923}, "transactions": ["pickup", "delivery"], "price": "$", "location": {"address1": "2402 82nd St", "address2": "", "address3": "", "city": "Jackson Heights", "zip_code": "11370", "country": "US", "state": "NY", "display_address": ["2402 82nd St", "Jackson Heights, NY 11370"]}, "phone": "+17184584848", "display_phone": "(718) 458-4848", "distance": 6955.794527795961}, {"id": "3FzpZE56CHuipiY_JDT3EA", "alias": "zyara-restaurant-astoria-2", "name": "Zyara Restaurant", "image_url": "https://s3-media1.fl.yelpcdn.com/bphoto/t_F71v8CBS4GQ6FOkdUUqg/o.jpg", "is_closed": false, "url": "https://www.yelp.com/biz/zyara-restaurant-astoria-2?adjust_creative=9gNmiWYX8uTbFBeTTvJMdA&utm_campaign=yelp_api_v3&utm_medium=api_v3_business_search&utm_source=9gNmiWYX8uTbFBeTTvJMdA", "review_count": 299, "categories": [{"alias": "halal", "title": "Halal"}, {"alias": "mideastern", "title": "Middle Eastern"}, {"alias": "sandwiches", "title": "Sandwiches"}], "rating": 3.5, "coordinates": {"latitude": 40.76648, "longitude": -73.91251}, "transactions": ["pickup", "delivery"], "price": "$$", "location": {"address1": "25-53 Steinway St", "address2": "", "address3": null, "city": "Astoria", "zip_code": "11103", "country": "US", "state": "NY", "display_address": ["25-53 Steinway St", "Astoria, NY 11103"]}, "phone": "+17187777753", "display_phone": "(718) 777-7753", "distance": 4873.8885680885105}, {"id": "MAjVFhRwxbOsMHLkObzh4Q", "alias": "canteen-desi-dhaba-jersey-city", "name": "Canteen Desi Dhaba", "image_url": "https://s3-media2.fl.yelpcdn.com/bphoto/pXfxxkwr5d5O2IjU1k9pAQ/o.jpg", "is_closed": false, "url": "https://www.yelp.com/biz/canteen-desi-dhaba-jersey-city?adjust_creative=9gNmiWYX8uTbFBeTTvJMdA&utm_campaign=yelp_api_v3&utm_medium=api_v3_business_search&utm_source=9gNmiWYX8uTbFBeTTvJMdA", "review_count": 123, "categories": [{"alias": "indpak", "title": "Indian"}], "rating": 3.0, "coordinates": {"latitude": 40.7352069, "longitude": -74.0671543}, "transactions": ["pickup", "delivery"], "price": "$$", "location": {"address1": "117 Tonnele Ave", "address2": "", "address3": "", "city": "Jersey City", "zip_code": "07306", "country": "US", "state": "NJ", "display_address": ["117 Tonnele Ave", "Jersey City, NJ 07306"]}, "phone": "+12014340007", "display_phone": "(201) 434-0007", "distance": 8646.379865917897}, {"id": "1thBGawoqRUHqCfQMZycYQ", "alias": "s-and-s-cheesecake-bronx", "name": "S&S Cheesecake", "image_url": "https://s3-media1.fl.yelpcdn.com/bphoto/mgTpzpV75tW8ljqugAINew/o.jpg", "is_closed": false, "url": "https://www.yelp.com/biz/s-and-s-cheesecake-bronx?adjust_creative=9gNmiWYX8uTbFBeTTvJMdA&utm_campaign=yelp_api_v3&utm_medium=api_v3_business_search&utm_source=9gNmiWYX8uTbFBeTTvJMdA", "review_count": 206, "categories": [{"alias": "desserts", "title": "Desserts"}, {"alias": "bakeries", "title": "Bakeries"}, {"alias": "kosher", "title": "Kosher"}], "rating": 4.5, "coordinates": {"latitude": 40.8847182244062, "longitude": -73.8995528966188}, "transactions": ["pickup", "delivery"], "price": "$$", "location": {"address1": "222 W 238th St", "address2": null, "address3": "", "city": "Bronx", "zip_code": "10463", "country": "US", "state": "NY", "display_address": ["222 W 238th St", "Bronx, NY 10463"]}, "phone": "+17185493888", "display_phone": "(718) 549-3888", "distance": 15139.71978450484}, {"id": "1hbAbWZ3bdJCSg_EoS4zyQ", "alias": "pita-grill-new-york-20", "name": "Pita Grill", "image_url": "https://s3-media3.fl.yelpcdn.com/bphoto/eWW-YvqxJ3Pf6nFwDm1LqQ/o.jpg", "is_closed": false, "url": "https://www.yelp.com/biz/pita-grill-new-york-20?adjust_creative=9gNmiWYX8uTbFBeTTvJMdA&utm_campaign=yelp_api_v3&utm_medium=api_v3_business_search&utm_source=9gNmiWYX8uTbFBeTTvJMdA", "review_count": 166, "categories": [{"alias": "mideastern", "title": "Middle Eastern"}, {"alias": "kosher", "title": "Kosher"}, {"alias": "tradamerican", "title": "American (Traditional)"}], "rating": 2.5, "coordinates": {"latitude": 40.759541, "longitude": -73.965394}, "transactions": ["pickup", "delivery"], "price": "$$", "location": {"address1": "1083 2nd Ave", "address2": "", "address3": "", "city": "New York", "zip_code": "10022", "country": "US", "state": "NY", "display_address": ["1083 2nd Ave", "New York, NY 10022"]}, "phone": "+12127501122", "display_phone": "(212) 750-1122", "distance": 354.408374035117}, {"id": "NHoKf98A1Hi8htHEfeptgw", "alias": "sapid-indian-food-brooklyn", "name": "Sapid Indian Food", "image_url": "https://s3-media2.fl.yelpcdn.com/bphoto/DRqRBVdPGykujclZTS8BGw/o.jpg", "is_closed": false, "url": "https://www.yelp.com/biz/sapid-indian-food-brooklyn?adjust_creative=9gNmiWYX8uTbFBeTTvJMdA&utm_campaign=yelp_api_v3&utm_medium=api_v3_business_search&utm_source=9gNmiWYX8uTbFBeTTvJMdA", "review_count": 148, "categories": [{"alias": "indpak", "title": "Indian"}, {"alias": "seafood", "title": "Seafood"}], "rating": 4.0, "coordinates": {"latitude": 40.679767, "longitude": -73.963936}, "transactions": ["pickup", "delivery"], "price": "$$", "location": {"address1": "595 Washington Ave", "address2": "", "address3": "", "city": "Brooklyn", "zip_code": "11238", "country": "US", "state": "NY", "display_address": ["595 Washington Ave", "Brooklyn, NY 11238"]}, "phone": "+17188578100", "display_phone": "(718) 857-8100", "distance": 8842.499317106993}, {"id": "FhEcZwucF9wgtIN0qjnzig", "alias": "curry-hill-indian-food-jersey-city-3", "name": "Curry Hill Indian Food", "image_url": "https://s3-media2.fl.yelpcdn.com/bphoto/aP_94kHJDzuslDyY9L5gqQ/o.jpg", "is_closed": false, "url": "https://www.yelp.com/biz/curry-hill-indian-food-jersey-city-3?adjust_creative=9gNmiWYX8uTbFBeTTvJMdA&utm_campaign=yelp_api_v3&utm_medium=api_v3_business_search&utm_source=9gNmiWYX8uTbFBeTTvJMdA", "review_count": 3, "categories": [{"alias": "indpak", "title": "Indian"}, {"alias": "foodtrucks", "title": "Food Trucks"}], "rating": 4.5, "coordinates": {"latitude": 40.739979, "longitude": -74.070788}, "transactions": ["delivery"], "location": {"address1": "420 Saint Paul Ave", "address2": null, "address3": null, "city": "Jersey City", "zip_code": "07306", "country": "US", "state": "NJ", "display_address": ["420 Saint Paul Ave", "Jersey City, NJ 07306"]}, "phone": "+12012349935", "display_phone": "(201) 234-9935", "distance": 8794.683093281044}, {"id": "--IdKkia9zPNgB-rQreyBQ", "alias": "hungry-jersey-city", "name": "Hungry", "image_url": "https://s3-media2.fl.yelpcdn.com/bphoto/sutaloI0MdoCozKcSdg6nw/o.jpg", "is_closed": false, "url": "https://www.yelp.com/biz/hungry-jersey-city?adjust_creative=9gNmiWYX8uTbFBeTTvJMdA&utm_campaign=yelp_api_v3&utm_medium=api_v3_business_search&utm_source=9gNmiWYX8uTbFBeTTvJMdA", "review_count": 41, "categories": [{"alias": "indpak", "title": "Indian"}], "rating": 3.0, "coordinates": {"latitude": 40.73535, "longitude": -74.06591}, "transactions": ["pickup", "delivery"], "price": "$$", "location": {"address1": "821 Newark Ave", "address2": "", "address3": null, "city": "Jersey City", "zip_code": "07306", "country": "US", "state": "NJ", "display_address": ["821 Newark Ave", "Jersey City, NJ 07306"]}, "phone": "+12019185801", "display_phone": "(201) 918-5801", "distance": 8527.990495204753}, {"id": "7UJRw4Klt5yfE7q9vznEHA", "alias": "kabob-shack-brooklyn-2", "name": "Kabob Shack", "image_url": "https://s3-media4.fl.yelpcdn.com/bphoto/WYeSfFMueI8F7cQwY7X95w/o.jpg", "is_closed": false, "url": "https://www.yelp.com/biz/kabob-shack-brooklyn-2?adjust_creative=9gNmiWYX8uTbFBeTTvJMdA&utm_campaign=yelp_api_v3&utm_medium=api_v3_business_search&utm_source=9gNmiWYX8uTbFBeTTvJMdA", "review_count": 196, "categories": [{"alias": "afghani", "title": "Afghan"}, {"alias": "mideastern", "title": "Middle Eastern"}, {"alias": "mediterranean", "title": "Mediterranean"}], "rating": 4.0, "coordinates": {"latitude": 40.7107199, "longitude": -73.9582771}, "transactions": ["pickup", "delivery"], "price": "$", "location": {"address1": "182 Havemeyer St", "address2": null, "address3": "", "city": "Brooklyn", "zip_code": "11211", "country": "US", "state": "NY", "display_address": ["182 Havemeyer St", "Brooklyn, NY 11211"]}, "phone": "+17183877111", "display_phone": "(718) 387-7111", "distance": 5471.35242160233}, {"id": "qByUTkBkFZAUBWUsZ7uWfQ", "alias": "samosa-paradise-jersey-city", "name": "Samosa Paradise", "image_url": "https://s3-media3.fl.yelpcdn.com/bphoto/bIvmAI5IgQLrWhD4ID8vzQ/o.jpg", "is_closed": false, "url": "https://www.yelp.com/biz/samosa-paradise-jersey-city?adjust_creative=9gNmiWYX8uTbFBeTTvJMdA&utm_campaign=yelp_api_v3&utm_medium=api_v3_business_search&utm_source=9gNmiWYX8uTbFBeTTvJMdA", "review_count": 47, "categories": [{"alias": "pakistani", "title": "Pakistani"}, {"alias": "indpak", "title": "Indian"}], "rating": 4.0, "coordinates": {"latitude": 40.735826, "longitude": -74.065081}, "transactions": ["pickup", "delivery"], "location": {"address1": "804 Newark Ave", "address2": null, "address3": "", "city": "Jersey City", "zip_code": "07306", "country": "US", "state": "NJ", "display_address": ["804 Newark Ave", "Jersey City, NJ 07306"]}, "phone": "+12014149493", "display_phone": "(201) 414-9493", "distance": 8458.865107060614}, {"id": "oF_Uq8SGBHRcz-U5i8wlBQ", "alias": "amitabha-vegan-restaurant-fresh-meadows", "name": "Amitabha Vegan Restaurant", "image_url": "https://s3-media2.fl.yelpcdn.com/bphoto/ovn6j7p4sxZe245k6D47HQ/o.jpg", "is_closed": false, "url": "https://www.yelp.com/biz/amitabha-vegan-restaurant-fresh-meadows?adjust_creative=9gNmiWYX8uTbFBeTTvJMdA&utm_campaign=yelp_api_v3&utm_medium=api_v3_business_search&utm_source=9gNmiWYX8uTbFBeTTvJMdA", "review_count": 94, "categories": [{"alias": "vegan", "title": "Vegan"}, {"alias": "asianfusion", "title": "Asian Fusion"}, {"alias": "noodles", "title": "Noodles"}], "rating": 4.5, "coordinates": {"latitude": 40.732932, "longitude": -73.79464}, "transactions": ["pickup", "delivery"], "price": "$$", "location": {"address1": "6824 Fresh Meadow Ln", "address2": null, "address3": "", "city": "Fresh Meadows", "zip_code": "11365", "country": "US", "state": "NY", "display_address": ["6824 Fresh Meadow Ln", "Fresh Meadows, NY 11365"]}, "phone": "+17184612100", "display_phone": "(718) 461-2100", "distance": 15023.996629632335}, {"id": "UOaXJyVrr9l1XO7lGaT-bQ", "alias": "sweetness-brooklyn", "name": "Sweetness", "image_url": "https://s3-media3.fl.yelpcdn.com/bphoto/lAunbje9s-uvNSPGBe70pw/o.jpg", "is_closed": false, "url": "https://www.yelp.com/biz/sweetness-brooklyn?adjust_creative=9gNmiWYX8uTbFBeTTvJMdA&utm_campaign=yelp_api_v3&utm_medium=api_v3_business_search&utm_source=9gNmiWYX8uTbFBeTTvJMdA", "review_count": 67, "categories": [{"alias": "indpak", "title": "Indian"}, {"alias": "bakeries", "title": "Bakeries"}, {"alias": "pakistani", "title": "Pakistani"}], "rating": 3.5, "coordinates": {"latitude": 40.629718, "longitude": -73.966388}, "transactions": ["pickup", "delivery"], "price": "$", "location": {"address1": "1150 Coney Island", "address2": "", "address3": "", "city": "Brooklyn", "zip_code": "11230", "country": "US", "state": "NY", "display_address": ["1150 Coney Island", "Brooklyn, NY 11230"]}, "phone": "+17184211150", "display_phone": "(718) 421-1150", "distance": 14397.418760233726}, {"id": "3WNKxnkqLk6aD_E8CMXUEQ", "alias": "bake-and-things-brooklyn-3", "name": "Bake & Things", "image_url": "https://s3-media2.fl.yelpcdn.com/bphoto/952U_VxVjkEJydZiTnuNoQ/o.jpg", "is_closed": false, "url": "https://www.yelp.com/biz/bake-and-things-brooklyn-3?adjust_creative=9gNmiWYX8uTbFBeTTvJMdA&utm_campaign=yelp_api_v3&utm_medium=api_v3_business_search&utm_source=9gNmiWYX8uTbFBeTTvJMdA", "review_count": 124, "categories": [{"alias": "trinidadian", "title": "Trinidadian"}], "rating": 3.5, "coordinates": {"latitude": 40.65082, "longitude": -73.94487}, "transactions": ["pickup", "delivery"], "price": "$", "location": {"address1": "184 E 35th St", "address2": "", "address3": "", "city": "Brooklyn", "zip_code": "11203", "country": "US", "state": "NY", "display_address": ["184 E 35th St", "Brooklyn, NY 11203"]}, "phone": "+17188261807", "display_phone": "(718) 826-1807", "distance": 12222.170787702671}, {"id": "WBJLoLeRSSzRDrzOv5IRng", "alias": "sonali-indian-restaurant-new-york", "name": "Sonali Indian Restaurant", "image_url": "https://s3-media3.fl.yelpcdn.com/bphoto/0_OtiRsZYylcSIkIoSw5FA/o.jpg", "is_closed": false, "url": "https://www.yelp.com/biz/sonali-indian-restaurant-new-york?adjust_creative=9gNmiWYX8uTbFBeTTvJMdA&utm_campaign=yelp_api_v3&utm_medium=api_v3_business_search&utm_source=9gNmiWYX8uTbFBeTTvJMdA", "review_count": 3, "categories": [{"alias": "indpak", "title": "Indian"}], "rating": 2.5, "coordinates": {"latitude": 40.7266693115234, "longitude": -73.9873733520508}, "transactions": [], "location": {"address1": "326 E 6th St", "address2": "", "address3": "", "city": "New York", "zip_code": "10003", "country": "US", "state": "NY", "display_address": ["326 E 6th St", "New York, NY 10003"]}, "phone": "+12125057517", "display_phone": "(212) 505-7517", "distance": 3906.2287628752238}], "total": 902, "region": {"center": {"longitude": -73.96957397460938, "latitude": 40.75917470627005}}}