{"businesses": [{"id": "S7ivv5O0beH3U9cV3cRD_Q", "alias": "jujube-tree-astoria", "name": "Jujube Tree", "image_url": "https://s3-media4.fl.yelpcdn.com/bphoto/SlDciDQrgQ5kMtLJPk6cmA/o.jpg", "is_closed": false, "url": "https://www.yelp.com/biz/jujube-tree-astoria?adjust_creative=9gNmiWYX8uTbFBeTTvJMdA&utm_campaign=yelp_api_v3&utm_medium=api_v3_business_search&utm_source=9gNmiWYX8uTbFBeTTvJMdA", "review_count": 427, "categories": [{"alias": "vegan", "title": "Vegan"}, {"alias": "asianfusion", "title": "Asian Fusion"}], "rating": 4.5, "coordinates": {"latitude": 40.76512, "longitude": -73.91821}, "transactions": ["delivery", "pickup"], "price": "$$", "location": {"address1": "35-02 30th Ave", "address2": "", "address3": "", "city": "Astoria", "zip_code": "11103", "country": "US", "state": "NY", "display_address": ["35-02 30th Ave", "Astoria, NY 11103"]}, "phone": "+17185451888", "display_phone": "(718) 545-1888", "distance": 4376.905196863845}, {"id": "smOk6VlCt7_m4XmnKgZB6g", "alias": "fluffies-hot-chicken-and-frankie-rolls-hackensack", "name": "Fluffies Hot Chicken & Frankie Rolls", "image_url": "https://s3-media2.fl.yelpcdn.com/bphoto/JCaN9M6QrBkC72impBH87A/o.jpg", "is_closed": false, "url": "https://www.yelp.com/biz/fluffies-hot-chicken-and-frankie-rolls-hackensack?adjust_creative=9gNmiWYX8uTbFBeTTvJMdA&utm_campaign=yelp_api_v3&utm_medium=api_v3_business_search&utm_source=9gNmiWYX8uTbFBeTTvJMdA", "review_count": 52, "categories": [{"alias": "chickenshop", "title": "Chicken Shop"}, {"alias": "halal", "title": "Halal"}, {"alias": "indpak", "title": "Indian"}], "rating": 4.5, "coordinates": {"latitude": 40.876171, "longitude": -74.0645503}, "transactions": ["delivery", "pickup"], "price": "$$", "location": {"address1": "252 S Summit Ave", "address2": null, "address3": null, "city": "Hackensack", "zip_code": "07601", "country": "US", "state": "NJ", "display_address": ["252 S Summit Ave", "Hackensack, NJ 07601"]}, "phone": "+12014023936", "display_phone": "(201) 402-3936", "distance": 15268.344709918512}, {"id": "7X3hB3KtkHVKk1GZKAnlbA", "alias": "woodside-cafe-woodside-4", "name": "Woodside Cafe", "image_url": "https://s3-media2.fl.yelpcdn.com/bphoto/Fh_JVf71TiieEywjoPvUrA/o.jpg", "is_closed": false, "url": "https://www.yelp.com/biz/woodside-cafe-woodside-4?adjust_creative=9gNmiWYX8uTbFBeTTvJMdA&utm_campaign=yelp_api_v3&utm_medium=api_v3_business_search&utm_source=9gNmiWYX8uTbFBeTTvJMdA", "review_count": 68, "categories": [{"alias": "himalayan", "title": "Himalayan/Nepalese"}], "rating": 3.0, "coordinates": {"latitude": 40.74950530709463, "longitude": -73.89772726011496}, "transactions": ["delivery", "pickup"], "price": "$$", "location": {"address1": "64-23 Broadway", "address2": null, "address3": "", "city": "Woodside", "zip_code": "11377", "country": "US", "state": "NY", "display_address": ["64-23 Broadway", "Woodside, NY 11377"]}, "phone": "+13476423445", "display_phone": "(347) 642-3445", "distance": 6146.546588647386}, {"id": "7CloPu57SYPIrJAB1Ie0Ew", "alias": "dhanshiri-jamaica", "name": "DhanShiri", "image_url": "https://s3-media2.fl.yelpcdn.com/bphoto/BJr66dpQt5zj3ih0XpYSMQ/o.jpg", "is_closed": false, "url": "https://www.yelp.com/biz/dhanshiri-jamaica?adjust_creative=9gNmiWYX8uTbFBeTTvJMdA&utm_campaign=yelp_api_v3&utm_medium=api_v3_business_search&utm_source=9gNmiWYX8uTbFBeTTvJMdA", "review_count": 86, "categories": [{"alias": "indpak", "title": "Indian"}, {"alias": "chinese", "title": "Chinese"}, {"alias": "halal", "title": "Halal"}], "rating": 3.5, "coordinates": {"latitude": 40.710867, "longitude": -73.7921906}, "transactions": ["delivery", "pickup"], "price": "$$", "location": {"address1": "169-28 Hillside Ave", "address2": "", "address3": "", "city": "Jamaica", "zip_code": "11432", "country": "US", "state": "NY", "display_address": ["169-28 Hillside Ave", "Jamaica, NY 11432"]}, "phone": "+17187250001", "display_phone": "(718) 725-0001", "distance": 15895.169609191047}, {"id": "iHiEMvbpLzNYTMsd5-VnQw", "alias": "jacob-soul-food-restaurant-new-york-2", "name": "Jacob Soul Food Restaurant", "image_url": "https://s3-media2.fl.yelpcdn.com/bphoto/RtJtywyJaXdMs82m1Tlckw/o.jpg", "is_closed": false, "url": "https://www.yelp.com/biz/jacob-soul-food-restaurant-new-york-2?adjust_creative=9gNmiWYX8uTbFBeTTvJMdA&utm_campaign=yelp_api_v3&utm_medium=api_v3_business_search&utm_source=9gNmiWYX8uTbFBeTTvJMdA", "review_count": 394, "categories": [{"alias": "soulfood", "title": "Soul Food"}, {"alias": "buffets", "title": "Buffets"}], "rating": 4.0, "coordinates": {"latitude": 40.810025, "longitude": -73.9439219}, "transactions": ["delivery"], "price": "$$", "location": {"address1": "373 Lenox Ave", "address2": "", "address3": "", "city": "New York", "zip_code": "10027", "country": "US", "state": "NY", "display_address": ["373 Lenox Ave", "New York, NY 10027"]}, "phone": "+12128663663", "display_phone": "(212) 866-3663", "distance": 6052.721535640041}, {"id": "m6WOGq7BSB8YPjKoOpNTLQ", "alias": "cafe-tibet-brooklyn", "name": "Cafe Tibet", "image_url": "https://s3-media4.fl.yelpcdn.com/bphoto/OwiN1GuAjMH4lGSwK3QVvw/o.jpg", "is_closed": false, "url": "https://www.yelp.com/biz/cafe-tibet-brooklyn?adjust_creative=9gNmiWYX8uTbFBeTTvJMdA&utm_campaign=yelp_api_v3&utm_medium=api_v3_business_search&utm_source=9gNmiWYX8uTbFBeTTvJMdA", "review_count": 368, "categories": [{"alias": "himalayan", "title": "Himalayan/Nepalese"}], "rating": 4.0, "coordinates": {"latitude": 40.641126, "longitude": -73.964031}, "transactions": ["delivery"], "price": "$$", "location": {"address1": "1510 Cortelyou Rd", "address2": "", "address3": "", "city": "Brooklyn", "zip_code": "11226", "country": "US", "state": "NY", "display_address": ["1510 Cortelyou Rd", "Brooklyn, NY 11226"]}, "phone": "+17189412725", "display_phone": "(718) 941-2725", "distance": 13134.717084926}, {"id": "ujKLiI39ie5K_iB-TLaFMg", "alias": "chennai-dosa-express-jersey-city-3", "name": "Chennai Dosa Express", "image_url": "https://s3-media1.fl.yelpcdn.com/bphoto/i2e1S6UCCQsY_EcnHVikZQ/o.jpg", "is_closed": false, "url": "https://www.yelp.com/biz/chennai-dosa-express-jersey-city-3?adjust_creative=9gNmiWYX8uTbFBeTTvJMdA&utm_campaign=yelp_api_v3&utm_medium=api_v3_business_search&utm_source=9gNmiWYX8uTbFBeTTvJMdA", "review_count": 47, "categories": [{"alias": "indpak", "title": "Indian"}], "rating": 3.0, "coordinates": {"latitude": 40.73506, "longitude": -74.06278}, "transactions": ["delivery", "pickup"], "price": "$", "location": {"address1": "2986 John F Kennedy Blvd", "address2": null, "address3": "", "city": "Jersey City", "zip_code": "07306", "country": "US", "state": "NJ", "display_address": ["2986 John F Kennedy Blvd", "Jersey City, NJ 07306"]}, "phone": "+12019638900", "display_phone": "(201) 963-8900", "distance": 8299.361622949584}, {"id": "OBQ2IKvREm5oW6_uu-v_uw", "alias": "shangerila-restaurant-bronx", "name": "Shangerila Restaurant", "image_url": "https://s3-media1.fl.yelpcdn.com/bphoto/5BUHH4ULzZZ9YkACJhtXbA/o.jpg", "is_closed": false, "url": "https://www.yelp.com/biz/shangerila-restaurant-bronx?adjust_creative=9gNmiWYX8uTbFBeTTvJMdA&utm_campaign=yelp_api_v3&utm_medium=api_v3_business_search&utm_source=9gNmiWYX8uTbFBeTTvJMdA", "review_count": 287, "categories": [{"alias": "sushi", "title": "Sushi Bars"}, {"alias": "buffets", "title": "Buffets"}, {"alias": "seafood", "title": "Seafood"}], "rating": 3.0, "coordinates": {"latitude": 40.847301, "longitude": -73.8330438}, "transactions": ["delivery", "pickup"], "price": "$$", "location": {"address1": "2893 Buhre Ave", "address2": "", "address3": "", "city": "Bronx", "zip_code": "10461", "country": "US", "state": "NY", "display_address": ["2893 Buhre Ave", "Bronx, NY 10461"]}, "phone": "+17188286080", "display_phone": "(718) 828-6080", "distance": 15131.7503523992}, {"id": "p0aDcwnhhjnAfn67tEFesg", "alias": "asha-indian-food-new-york", "name": "Asha Indian Food", "image_url": "", "is_closed": false, "url": "https://www.yelp.com/biz/asha-indian-food-new-york?adjust_creative=9gNmiWYX8uTbFBeTTvJMdA&utm_campaign=yelp_api_v3&utm_medium=api_v3_business_search&utm_source=9gNmiWYX8uTbFBeTTvJMdA", "review_count": 6, "categories": [{"alias": "indpak", "title": "Indian"}], "rating": 2.0, "coordinates": {"latitude": 40.7902707, "longitude": -73.9473015}, "transactions": ["delivery", "pickup"], "location": {"address1": "151 E 103rd St", "address2": "", "address3": "", "city": "New York", "zip_code": "10029", "country": "US", "state": "NY", "display_address": ["151 E 103rd St", "New York, NY 10029"]}, "phone": "+12128281800", "display_phone": "(212) 828-1800", "distance": 3933.5969949347887}, {"id": "hG1H6NRQvWQkr7OeTFqDSw", "alias": "anarkali-indian-cuisine-brooklyn", "name": "Anarkali Indian Cuisine", "image_url": "https://s3-media1.fl.yelpcdn.com/bphoto/pZ7FVycnTwwal-n_K5HMsw/o.jpg", "is_closed": false, "url": "https://www.yelp.com/biz/anarkali-indian-cuisine-brooklyn?adjust_creative=9gNmiWYX8uTbFBeTTvJMdA&utm_campaign=yelp_api_v3&utm_medium=api_v3_business_search&utm_source=9gNmiWYX8uTbFBeTTvJMdA", "review_count": 116, "categories": [{"alias": "indpak", "title": "Indian"}], "rating": 3.5, "coordinates": {"latitude": 40.647476, "longitude": -73.9686}, "transactions": ["delivery", "pickup"], "price": "$$", "location": {"address1": "1125 Church Ave", "address2": "", "address3": "", "city": "Brooklyn", "zip_code": "11218", "country": "US", "state": "NY", "display_address": ["1125 Church Ave", "Brooklyn, NY 11218"]}, "phone": "+17182822200", "display_phone": "(718) 282-2200", "distance": 12420.587034333086}, {"id": "fKsGFEKMD0e39B7SW-G8xw", "alias": "fahima-halal-manhattan", "name": "Fahima Halal", "image_url": "https://s3-media2.fl.yelpcdn.com/bphoto/yPG7bNHdIkINlz_55zBs-w/o.jpg", "is_closed": false, "url": "https://www.yelp.com/biz/fahima-halal-manhattan?adjust_creative=9gNmiWYX8uTbFBeTTvJMdA&utm_campaign=yelp_api_v3&utm_medium=api_v3_business_search&utm_source=9gNmiWYX8uTbFBeTTvJMdA", "review_count": 8, "categories": [{"alias": "halal", "title": "Halal"}, {"alias": "foodstands", "title": "Food Stands"}], "rating": 4.5, "coordinates": {"latitude": 40.75394, "longitude": -73.97214}, "transactions": [], "price": "$", "location": {"address1": "Corner Of 47th And 3rd", "address2": "", "address3": "", "city": "Manhattan", "zip_code": "10036", "country": "US", "state": "NY", "display_address": ["Corner Of 47th And 3rd", "Manhattan, NY 10036"]}, "phone": "", "display_phone": "", "distance": 619.6447019843157}, {"id": "a4TRg23qUQvWN9HAAdXGgw", "alias": "halal-xpress-brooklyn-3", "name": "Halal Xpress", "image_url": "https://s3-media4.fl.yelpcdn.com/bphoto/Rerl6obNs9kyRbYJyNc9_g/o.jpg", "is_closed": false, "url": "https://www.yelp.com/biz/halal-xpress-brooklyn-3?adjust_creative=9gNmiWYX8uTbFBeTTvJMdA&utm_campaign=yelp_api_v3&utm_medium=api_v3_business_search&utm_source=9gNmiWYX8uTbFBeTTvJMdA", "review_count": 76, "categories": [{"alias": "asianfusion", "title": "Asian Fusion"}, {"alias": "chinese", "title": "Chinese"}, {"alias": "halal", "title": "Halal"}], "rating": 4.5, "coordinates": {"latitude": 40.612962, "longitude": -73.996675}, "transactions": ["delivery", "pickup"], "price": "$", "location": {"address1": "7524 18th Ave", "address2": null, "address3": "", "city": "Brooklyn", "zip_code": "11214", "country": "US", "state": "NY", "display_address": ["7524 18th Ave", "Brooklyn, NY 11214"]}, "phone": "+17184169090", "display_phone": "(718) 416-9090", "distance": 16417.896095471046}, {"id": "3V_MBHgvRiqYsMPUAmegMw", "alias": "apna-pind-queens", "name": "Apna Pind", "image_url": "https://s3-media4.fl.yelpcdn.com/bphoto/QWZ0FtaZoLwFSxNzyNT7tg/o.jpg", "is_closed": false, "url": "https://www.yelp.com/biz/apna-pind-queens?adjust_creative=9gNmiWYX8uTbFBeTTvJMdA&utm_campaign=yelp_api_v3&utm_medium=api_v3_business_search&utm_source=9gNmiWYX8uTbFBeTTvJMdA", "review_count": 11, "categories": [{"alias": "indpak", "title": "Indian"}], "rating": 3.5, "coordinates": {"latitude": 40.675962902256266, "longitude": -73.81954630203742}, "transactions": ["delivery", "pickup"], "location": {"address1": "118-16 Rockaway Blvd", "address2": "", "address3": null, "city": "Queens", "zip_code": "11420", "country": "US", "state": "NY", "display_address": ["118-16 Rockaway Blvd", "Queens, NY 11420"]}, "phone": "+17183743417", "display_phone": "(718) 374-3417", "distance": 15667.980689378994}, {"id": "hSiTqxKKgvQSI5x5VdMjoQ", "alias": "top-thai-restaurant-brooklyn-6", "name": "Top Thai Restaurant", "image_url": "https://s3-media1.fl.yelpcdn.com/bphoto/r_1LQVRCkdV0s6aOVB7wlw/o.jpg", "is_closed": false, "url": "https://www.yelp.com/biz/top-thai-restaurant-brooklyn-6?adjust_creative=9gNmiWYX8uTbFBeTTvJMdA&utm_campaign=yelp_api_v3&utm_medium=api_v3_business_search&utm_source=9gNmiWYX8uTbFBeTTvJMdA", "review_count": 343, "categories": [{"alias": "thai", "title": "Thai"}, {"alias": "halal", "title": "Halal"}, {"alias": "noodles", "title": "Noodles"}], "rating": 3.5, "coordinates": {"latitude": 40.62325, "longitude": -74.02838}, "transactions": ["delivery", "pickup"], "price": "$$", "location": {"address1": "8510 4th Ave", "address2": "", "address3": "", "city": "Brooklyn", "zip_code": "11209", "country": "US", "state": "NY", "display_address": ["8510 4th Ave", "Brooklyn, NY 11209"]}, "phone": "+17183335811", "display_phone": "(718) 333-5811", "distance": 15906.356109968681}, {"id": "Rta-_ALLo7g9xTUi23pmRw", "alias": "curry-on-jersey-city-307", "name": "Curry On", "image_url": "https://s3-media3.fl.yelpcdn.com/bphoto/byFJFuZEkjJ6rauA_W2iKA/o.jpg", "is_closed": false, "url": "https://www.yelp.com/biz/curry-on-jersey-city-307?adjust_creative=9gNmiWYX8uTbFBeTTvJMdA&utm_campaign=yelp_api_v3&utm_medium=api_v3_business_search&utm_source=9gNmiWYX8uTbFBeTTvJMdA", "review_count": 158, "categories": [{"alias": "indpak", "title": "Indian"}, {"alias": "chinese", "title": "Chinese"}], "rating": 3.0, "coordinates": {"latitude": 40.73523895358633, "longitude": -74.06355132883567}, "transactions": ["delivery", "pickup"], "price": "$$", "location": {"address1": "765 Newark Ave", "address2": null, "address3": "", "city": "Jersey City", "zip_code": "07306", "country": "US", "state": "NJ", "display_address": ["765 Newark Ave", "Jersey City, NJ 07306"]}, "phone": "+12012220122", "display_phone": "(201) 222-0122", "distance": 8352.146770776955}, {"id": "3PabSEZ2ESexVFZznyozVw", "alias": "delice-and-sarrasin-new-york", "name": "Delice & Sarrasin", "image_url": "https://s3-media1.fl.yelpcdn.com/bphoto/L_mUplxh2HfiQOSpEStjNg/o.jpg", "is_closed": false, "url": "https://www.yelp.com/biz/delice-and-sarrasin-new-york?adjust_creative=9gNmiWYX8uTbFBeTTvJMdA&utm_campaign=yelp_api_v3&utm_medium=api_v3_business_search&utm_source=9gNmiWYX8uTbFBeTTvJMdA", "review_count": 524, "categories": [{"alias": "french", "title": "French"}, {"alias": "vegan", "title": "Vegan"}], "rating": 4.0, "coordinates": {"latitude": 40.73377, "longitude": -74.00065}, "transactions": ["delivery", "pickup"], "price": "$$$", "location": {"address1": "20 Christopher St", "address2": null, "address3": "", "city": "New York", "zip_code": "10014", "country": "US", "state": "NY", "display_address": ["20 Christopher St", "New York, NY 10014"]}, "phone": "+12122437200", "display_phone": "(212) 243-7200", "distance": 3848.94733917346}, {"id": "0BcydXe2sU0aPwSRAq3zgw", "alias": "asian-taste-86-elmhurst", "name": "Asian Taste 86", "image_url": "https://s3-media2.fl.yelpcdn.com/bphoto/q3yH1SH2LeAqq2PzjRAQEA/o.jpg", "is_closed": false, "url": "https://www.yelp.com/biz/asian-taste-86-elmhurst?adjust_creative=9gNmiWYX8uTbFBeTTvJMdA&utm_campaign=yelp_api_v3&utm_medium=api_v3_business_search&utm_source=9gNmiWYX8uTbFBeTTvJMdA", "review_count": 116, "categories": [{"alias": "halal", "title": "Halal"}, {"alias": "indonesian", "title": "Indonesian"}], "rating": 4.0, "coordinates": {"latitude": 40.74177, "longitude": -73.87861}, "transactions": ["delivery", "pickup"], "price": "$$", "location": {"address1": "8610 Whitney Ave", "address2": "", "address3": "", "city": "Elmhurst", "zip_code": "11373", "country": "US", "state": "NY", "display_address": ["8610 Whitney Ave", "Elmhurst, NY 11373"]}, "phone": "+17187798686", "display_phone": "(718) 779-8686", "distance": 7901.467857557713}, {"id": "laAtmcJjds_sf-tJ7CkceA", "alias": "pollo-l-e-s-new-york", "name": "Pollo L.E.S.", "image_url": "https://s3-media2.fl.yelpcdn.com/bphoto/zhySM2GJ7SAQeZg9r69itA/o.jpg", "is_closed": false, "url": "https://www.yelp.com/biz/pollo-l-e-s-new-york?adjust_creative=9gNmiWYX8uTbFBeTTvJMdA&utm_campaign=yelp_api_v3&utm_medium=api_v3_business_search&utm_source=9gNmiWYX8uTbFBeTTvJMdA", "review_count": 4, "categories": [{"alias": "halal", "title": "Halal"}, {"alias": "chickenshop", "title": "Chicken Shop"}, {"alias": "peruvian", "title": "Peruvian"}], "rating": 4.0, "coordinates": {"latitude": 40.71983, "longitude": -73.99035}, "transactions": ["delivery", "pickup"], "location": {"address1": "123 Allen St", "address2": "", "address3": null, "city": "New York", "zip_code": "10002", "country": "US", "state": "NY", "display_address": ["123 Allen St", "New York, NY 10002"]}, "phone": "+12127290578", "display_phone": "(212) 729-0578", "distance": 4712.450085809814}, {"id": "cecWBm6P2T1dIXrTfJWKng", "alias": "jennys-roti-shop-bronx", "name": "Jenny's Roti Shop", "image_url": "https://s3-media4.fl.yelpcdn.com/bphoto/2_ErODuPLUt_YulyOkyDRQ/o.jpg", "is_closed": false, "url": "https://www.yelp.com/biz/jennys-roti-shop-bronx?adjust_creative=9gNmiWYX8uTbFBeTTvJMdA&utm_campaign=yelp_api_v3&utm_medium=api_v3_business_search&utm_source=9gNmiWYX8uTbFBeTTvJMdA", "review_count": 54, "categories": [{"alias": "trinidadian", "title": "Trinidadian"}], "rating": 3.5, "coordinates": {"latitude": 40.8337936401367, "longitude": -73.8511505126953}, "transactions": ["delivery", "pickup"], "price": "$", "location": {"address1": "1262 Castle Hill Ave", "address2": "", "address3": "", "city": "Bronx", "zip_code": "10462", "country": "US", "state": "NY", "display_address": ["1262 Castle Hill Ave", "Bronx, NY 10462"]}, "phone": "+13472818558", "display_phone": "(347) 281-8558", "distance": 12969.92533906608}, {"id": "QK4oWeb8EItwV5U3YH_R8Q", "alias": "lash-west-indian-and-american-cuisine-bronx", "name": "Lash West Indian & American Cuisine", "image_url": "https://s3-media1.fl.yelpcdn.com/bphoto/OBKn2eTHKWpXbJQiBrWU6A/o.jpg", "is_closed": false, "url": "https://www.yelp.com/biz/lash-west-indian-and-american-cuisine-bronx?adjust_creative=9gNmiWYX8uTbFBeTTvJMdA&utm_campaign=yelp_api_v3&utm_medium=api_v3_business_search&utm_source=9gNmiWYX8uTbFBeTTvJMdA", "review_count": 203, "categories": [{"alias": "indpak", "title": "Indian"}, {"alias": "caribbean", "title": "Caribbean"}, {"alias": "tradamerican", "title": "American (Traditional)"}], "rating": 3.5, "coordinates": {"latitude": 40.87122, "longitude": -73.8632}, "transactions": ["pickup"], "price": "$$", "location": {"address1": "800 Burke Ave", "address2": null, "address3": null, "city": "Bronx", "zip_code": "10467", "country": "US", "state": "NY", "display_address": ["800 Burke Ave", "Bronx, NY 10467"]}, "phone": "+17188820815", "display_phone": "(718) 882-0815", "distance": 15334.345399820746}, {"id": "Ze62JT6qQTCRSjBN4dyzAg", "alias": "tamilnadu-cafe-jersey-city-2", "name": "Tamilnadu Cafe", "image_url": "https://s3-media3.fl.yelpcdn.com/bphoto/ELzr9HyBdF6Q1Y-xQLLgmA/o.jpg", "is_closed": false, "url": "https://www.yelp.com/biz/tamilnadu-cafe-jersey-city-2?adjust_creative=9gNmiWYX8uTbFBeTTvJMdA&utm_campaign=yelp_api_v3&utm_medium=api_v3_business_search&utm_source=9gNmiWYX8uTbFBeTTvJMdA", "review_count": 6, "categories": [{"alias": "indpak", "title": "Indian"}], "rating": 3.0, "coordinates": {"latitude": 40.745984324531875, "longitude": -74.04910679999999}, "transactions": ["delivery"], "location": {"address1": "324 Central Ave", "address2": null, "address3": null, "city": "Jersey City", "zip_code": "07307", "country": "US", "state": "NJ", "display_address": ["324 Central Ave", "Jersey City, NJ 07307"]}, "phone": "+12018395055", "display_phone": "(201) 839-5055", "distance": 6858.043856212032}, {"id": "CuzebMZlGyC1-2Uf-nEiVA", "alias": "blueprint-cafe-lounge-newark", "name": "Blueprint Cafe Lounge", "image_url": "https://s3-media2.fl.yelpcdn.com/bphoto/nd-Nab1wJTh7tvHxWeVVXw/o.jpg", "is_closed": false, "url": "https://www.yelp.com/biz/blueprint-cafe-lounge-newark?adjust_creative=9gNmiWYX8uTbFBeTTvJMdA&utm_campaign=yelp_api_v3&utm_medium=api_v3_business_search&utm_source=9gNmiWYX8uTbFBeTTvJMdA", "review_count": 165, "categories": [{"alias": "cafes", "title": "Cafes"}, {"alias": "coffee", "title": "Coffee & Tea"}, {"alias": "vegan", "title": "Vegan"}], "rating": 4.5, "coordinates": {"latitude": 40.7342871794987, "longitude": -74.1347641466091}, "transactions": ["delivery", "pickup"], "price": "$$", "location": {"address1": "369 Raymond Blvd", "address2": "", "address3": null, "city": "Newark", "zip_code": "07105", "country": "US", "state": "NJ", "display_address": ["369 Raymond Blvd", "Newark, NJ 07105"]}, "phone": "+19737320421", "display_phone": "(973) 732-0421", "distance": 14188.350653078869}, {"id": "3DVKbi5cSLMlmph43RF_kA", "alias": "luannes-wild-ginger-all-asian-vegan-brooklyn", "name": "LuAnne's Wild Ginger All-Asian Vegan", "image_url": "https://s3-media1.fl.yelpcdn.com/bphoto/kbgnPaAF9XIsPXGSOdZBvQ/o.jpg", "is_closed": false, "url": "https://www.yelp.com/biz/luannes-wild-ginger-all-asian-vegan-brooklyn?adjust_creative=9gNmiWYX8uTbFBeTTvJMdA&utm_campaign=yelp_api_v3&utm_medium=api_v3_business_search&utm_source=9gNmiWYX8uTbFBeTTvJMdA", "review_count": 384, "categories": [{"alias": "asianfusion", "title": "Asian Fusion"}, {"alias": "vegan", "title": "Vegan"}], "rating": 4.0, "coordinates": {"latitude": 40.687936, "longitude": -73.989925}, "transactions": ["delivery", "pickup"], "price": "$$", "location": {"address1": "112 Smith St", "address2": "", "address3": "", "city": "Brooklyn", "zip_code": "11201", "country": "US", "state": "NY", "display_address": ["112 Smith St", "Brooklyn, NY 11201"]}, "phone": "+17188583880", "display_phone": "(718) 858-3880", "distance": 8103.210262809242}, {"id": "85123ck6ZQF5-4rTQbDHjA", "alias": "hurry-and-tasty-curry-new-york", "name": "Hurry & Tasty Curry", "image_url": "", "is_closed": false, "url": "https://www.yelp.com/biz/hurry-and-tasty-curry-new-york?adjust_creative=9gNmiWYX8uTbFBeTTvJMdA&utm_campaign=yelp_api_v3&utm_medium=api_v3_business_search&utm_source=9gNmiWYX8uTbFBeTTvJMdA", "review_count": 2, "categories": [{"alias": "indpak", "title": "Indian"}, {"alias": "pakistani", "title": "Pakistani"}], "rating": 1.0, "coordinates": {"latitude": 40.7532799, "longitude": -73.97418}, "transactions": [], "price": "$", "location": {"address1": "133 E 45th St", "address2": "", "address3": "", "city": "New York", "zip_code": "10017", "country": "US", "state": "NY", "display_address": ["133 E 45th St", "New York, NY 10017"]}, "phone": "+12126827962", "display_phone": "(212) 682-7962", "distance": 756.1967713763755}, {"id": "sOu_0B7CgxYEzwagOh27Tw", "alias": "desi-kitchen-harrison", "name": "Desi Kitchen", "image_url": "https://s3-media2.fl.yelpcdn.com/bphoto/R-Hjiiic25NY7afTROdCRQ/o.jpg", "is_closed": false, "url": "https://www.yelp.com/biz/desi-kitchen-harrison?adjust_creative=9gNmiWYX8uTbFBeTTvJMdA&utm_campaign=yelp_api_v3&utm_medium=api_v3_business_search&utm_source=9gNmiWYX8uTbFBeTTvJMdA", "review_count": 67, "categories": [{"alias": "indpak", "title": "Indian"}], "rating": 3.5, "coordinates": {"latitude": 40.74656, "longitude": -74.15762}, "transactions": ["delivery", "pickup"], "price": "$$", "location": {"address1": "310 Harrison Ave", "address2": "", "address3": null, "city": "Harrison", "zip_code": "07029", "country": "US", "state": "NJ", "display_address": ["310 Harrison Ave", "Harrison, NJ 07029"]}, "phone": "+19734854800", "display_phone": "(973) 485-4800", "distance": 15904.243712847509}, {"id": "YAapZoQK_raDPKWI97d8Tg", "alias": "tiikkarrito-new-york", "name": "Tiikkarrito", "image_url": "https://s3-media4.fl.yelpcdn.com/bphoto/MP1LKRuwgurskfDGVOfKEQ/o.jpg", "is_closed": false, "url": "https://www.yelp.com/biz/tiikkarrito-new-york?adjust_creative=9gNmiWYX8uTbFBeTTvJMdA&utm_campaign=yelp_api_v3&utm_medium=api_v3_business_search&utm_source=9gNmiWYX8uTbFBeTTvJMdA", "review_count": 1, "categories": [{"alias": "mexican", "title": "Mexican"}, {"alias": "indpak", "title": "Indian"}], "rating": 4.0, "coordinates": {"latitude": 40.70912, "longitude": -74.00578}, "transactions": ["delivery", "pickup"], "location": {"address1": "88 Fulton St", "address2": null, "address3": "", "city": "New York", "zip_code": "10038", "country": "US", "state": "NY", "display_address": ["88 Fulton St", "New York, NY 10038"]}, "phone": "+15189520790", "display_phone": "(518) 952-0790", "distance": 6345.125151666569}, {"id": "lTKwlr9_vWjNDPbt4I7bog", "alias": "chaska-fine-indian-cuisine-jersey-city", "name": "Chaska Fine Indian Cuisine", "image_url": "https://s3-media1.fl.yelpcdn.com/bphoto/3gLp--qYuAOYzQtVasEt9g/o.jpg", "is_closed": false, "url": "https://www.yelp.com/biz/chaska-fine-indian-cuisine-jersey-city?adjust_creative=9gNmiWYX8uTbFBeTTvJMdA&utm_campaign=yelp_api_v3&utm_medium=api_v3_business_search&utm_source=9gNmiWYX8uTbFBeTTvJMdA", "review_count": 132, "categories": [{"alias": "indpak", "title": "Indian"}, {"alias": "seafood", "title": "Seafood"}, {"alias": "chickenshop", "title": "Chicken Shop"}], "rating": 3.5, "coordinates": {"latitude": 40.73584402591248, "longitude": -74.066108}, "transactions": ["delivery", "pickup"], "price": "$$", "location": {"address1": "826 Newark Ave", "address2": "", "address3": "", "city": "Jersey City", "zip_code": "07306", "country": "US", "state": "NJ", "display_address": ["826 Newark Ave", "Jersey City, NJ 07306"]}, "phone": "+12016539292", "display_phone": "(201) 653-9292", "distance": 8535.846488600715}, {"id": "rzE_duqZUMHwBnHJe1BauQ", "alias": "ferozas-bronx", "name": "Feroza's", "image_url": "https://s3-media4.fl.yelpcdn.com/bphoto/AjaocTBPomhohLlu5sFmbA/o.jpg", "is_closed": false, "url": "https://www.yelp.com/biz/ferozas-bronx?adjust_creative=9gNmiWYX8uTbFBeTTvJMdA&utm_campaign=yelp_api_v3&utm_medium=api_v3_business_search&utm_source=9gNmiWYX8uTbFBeTTvJMdA", "review_count": 129, "categories": [{"alias": "trinidadian", "title": "Trinidadian"}], "rating": 4.0, "coordinates": {"latitude": 40.8712876, "longitude": -73.8664501}, "transactions": [], "price": "$", "location": {"address1": "716 Burke Ave", "address2": "", "address3": "", "city": "Bronx", "zip_code": "10467", "country": "US", "state": "NY", "display_address": ["716 Burke Ave", "Bronx, NY 10467"]}, "phone": "+17184059081", "display_phone": "(718) 405-9081", "distance": 15178.90545110289}, {"id": "coQAQmIKG9dBPA6-RHqJag", "alias": "wan-waan-new-york-2", "name": "Wan Waan", "image_url": "https://s3-media1.fl.yelpcdn.com/bphoto/GvglowD4t7LcZp6ujCay9A/o.jpg", "is_closed": false, "url": "https://www.yelp.com/biz/wan-waan-new-york-2?adjust_creative=9gNmiWYX8uTbFBeTTvJMdA&utm_campaign=yelp_api_v3&utm_medium=api_v3_business_search&utm_source=9gNmiWYX8uTbFBeTTvJMdA", "review_count": 167, "categories": [{"alias": "thai", "title": "Thai"}, {"alias": "seafood", "title": "Seafood"}, {"alias": "vegetarian", "title": "Vegetarian"}], "rating": 4.0, "coordinates": {"latitude": 40.74346, "longitude": -73.99947}, "transactions": ["restaurant_reservation", "delivery", "pickup"], "price": "$$", "location": {"address1": "200 8th Ave", "address2": "", "address3": null, "city": "New York", "zip_code": "10011", "country": "US", "state": "NY", "display_address": ["200 8th Ave", "New York, NY 10011"]}, "phone": "+16465908994", "display_phone": "(646) 590-8994", "distance": 3066.0736689463297}, {"id": "wfJCzfotoMELb74z4lITOA", "alias": "pet-shop-jersey-city-3", "name": "Pet Shop", "image_url": "https://s3-media1.fl.yelpcdn.com/bphoto/exNHmsxTVkQ3JN-durP6Yg/o.jpg", "is_closed": false, "url": "https://www.yelp.com/biz/pet-shop-jersey-city-3?adjust_creative=9gNmiWYX8uTbFBeTTvJMdA&utm_campaign=yelp_api_v3&utm_medium=api_v3_business_search&utm_source=9gNmiWYX8uTbFBeTTvJMdA", "review_count": 279, "categories": [{"alias": "bars", "title": "Bars"}, {"alias": "vegetarian", "title": "Vegetarian"}, {"alias": "vegan", "title": "Vegan"}], "rating": 4.0, "coordinates": {"latitude": 40.72123, "longitude": -74.04592}, "transactions": ["delivery", "pickup"], "price": "$$", "location": {"address1": "193 Newark Ave", "address2": null, "address3": "", "city": "Jersey City", "zip_code": "07302", "country": "US", "state": "NJ", "display_address": ["193 Newark Ave", "Jersey City, NJ 07302"]}, "phone": "+12019842170", "display_phone": "(201) 984-2170", "distance": 7693.087970503123}, {"id": "zUs0dYx8zPKTkFiLdQKf_Q", "alias": "punjabi-kabab-and-gyro-south-richmond-hill", "name": "Punjabi Kabab and Gyro", "image_url": "https://s3-media3.fl.yelpcdn.com/bphoto/cZt-_8qYh2MRSmuqaZ8iqA/o.jpg", "is_closed": false, "url": "https://www.yelp.com/biz/punjabi-kabab-and-gyro-south-richmond-hill?adjust_creative=9gNmiWYX8uTbFBeTTvJMdA&utm_campaign=yelp_api_v3&utm_medium=api_v3_business_search&utm_source=9gNmiWYX8uTbFBeTTvJMdA", "review_count": 76, "categories": [{"alias": "indpak", "title": "Indian"}, {"alias": "pakistani", "title": "Pakistani"}, {"alias": "greek", "title": "Greek"}], "rating": 4.0, "coordinates": {"latitude": 40.6874110142563, "longitude": -73.835311942224}, "transactions": ["delivery", "pickup"], "price": "$$", "location": {"address1": "108-03 101st Ave", "address2": "", "address3": "", "city": "South Richmond Hill", "zip_code": "11419", "country": "US", "state": "NY", "display_address": ["108-03 101st Ave", "South Richmond Hill, NY 11419"]}, "phone": "+17187099919", "display_phone": "(718) 709-9919", "distance": 13845.295971863961}, {"id": "eVZGBIWAmQxiTwVYA0pjWA", "alias": "little-gujrat-deli-new-york", "name": "Little Gujrat Deli", "image_url": "", "is_closed": false, "url": "https://www.yelp.com/biz/little-gujrat-deli-new-york?adjust_creative=9gNmiWYX8uTbFBeTTvJMdA&utm_campaign=yelp_api_v3&utm_medium=api_v3_business_search&utm_source=9gNmiWYX8uTbFBeTTvJMdA", "review_count": 5, "categories": [{"alias": "halal", "title": "Halal"}, {"alias": "indpak", "title": "Indian"}], "rating": 3.0, "coordinates": {"latitude": 40.799697, "longitude": -73.962936}, "transactions": [], "price": "$", "location": {"address1": "946 Columbus Ave", "address2": "", "address3": "", "city": "New York", "zip_code": "10025", "country": "US", "state": "NY", "display_address": ["946 Columbus Ave", "New York, NY 10025"]}, "phone": "+12128662937", "display_phone": "(212) 866-2937", "distance": 4537.899094820336}, {"id": "yFb9huoWA2nHyh5skC2h1g", "alias": "yummy-halal-restaurant-brooklyn", "name": "Yummy Halal Restaurant", "image_url": "https://s3-media2.fl.yelpcdn.com/bphoto/5jHwb3FUO6fEhAMQUj7Bfg/o.jpg", "is_closed": false, "url": "https://www.yelp.com/biz/yummy-halal-restaurant-brooklyn?adjust_creative=9gNmiWYX8uTbFBeTTvJMdA&utm_campaign=yelp_api_v3&utm_medium=api_v3_business_search&utm_source=9gNmiWYX8uTbFBeTTvJMdA", "review_count": 1, "categories": [{"alias": "sandwiches", "title": "Sandwiches"}, {"alias": "bangladeshi", "title": "Bangladeshi"}, {"alias": "breakfast_brunch", "title": "Breakfast & Brunch"}], "rating": 5.0, "coordinates": {"latitude": 40.6808213658429, "longitude": -73.9498571}, "transactions": ["delivery", "pickup"], "location": {"address1": "524 B Nostrand Ave", "address2": "", "address3": null, "city": "Brooklyn", "zip_code": "11216", "country": "US", "state": "NY", "display_address": ["524 B Nostrand Ave", "Brooklyn, NY 11216"]}, "phone": "+13473654497", "display_phone": "(347) 365-4497", "distance": 8869.52342344404}, {"id": "p7Dj6-OEWfFTP_o_MsJyxw", "alias": "roti-in-a-box-new-york", "name": "Roti in a Box", "image_url": "", "is_closed": false, "url": "https://www.yelp.com/biz/roti-in-a-box-new-york?adjust_creative=9gNmiWYX8uTbFBeTTvJMdA&utm_campaign=yelp_api_v3&utm_medium=api_v3_business_search&utm_source=9gNmiWYX8uTbFBeTTvJMdA", "review_count": 1, "categories": [{"alias": "indpak", "title": "Indian"}], "rating": 4.0, "coordinates": {"latitude": 40.73621, "longitude": -73.98528}, "transactions": ["delivery", "pickup"], "location": {"address1": "216 3rd Ave", "address2": "", "address3": null, "city": "New York", "zip_code": "10003", "country": "US", "state": "NY", "display_address": ["216 3rd Ave", "New York, NY 10003"]}, "phone": "+17182606455", "display_phone": "(718) 260-6455", "distance": 2874.7597277113678}, {"id": "uZ_Ht4U1dAdUrdUNdoVHOg", "alias": "a8-pan-asian-vegan-cuisine-brooklyn-2", "name": "A8 Pan Asian Vegan Cuisine", "image_url": "https://s3-media4.fl.yelpcdn.com/bphoto/FKwyHj8e05rOu3pP1bzEmw/o.jpg", "is_closed": false, "url": "https://www.yelp.com/biz/a8-pan-asian-vegan-cuisine-brooklyn-2?adjust_creative=9gNmiWYX8uTbFBeTTvJMdA&utm_campaign=yelp_api_v3&utm_medium=api_v3_business_search&utm_source=9gNmiWYX8uTbFBeTTvJMdA", "review_count": 28, "categories": [{"alias": "panasian", "title": "Pan Asian"}, {"alias": "vegetarian", "title": "Vegetarian"}, {"alias": "vegan", "title": "Vegan"}], "rating": 4.0, "coordinates": {"latitude": 40.65854, "longitude": -73.98219}, "transactions": ["delivery", "pickup"], "location": {"address1": "268 Prospect Park W", "address2": "Ste R", "address3": null, "city": "Brooklyn", "zip_code": "11215", "country": "US", "state": "NY", "display_address": ["268 Prospect Park W", "Ste R", "Brooklyn, NY 11215"]}, "phone": "+17186222088", "display_phone": "(718) 622-2088", "distance": 11238.99251337435}, {"id": "Yj8Tpy8tVf-fpct6_EUIhQ", "alias": "burger-n-grill-new-york-2", "name": "Burger N Grill", "image_url": "https://s3-media1.fl.yelpcdn.com/bphoto/qc-kLZ72SyM7fkrRqt8w8w/o.jpg", "is_closed": false, "url": "https://www.yelp.com/biz/burger-n-grill-new-york-2?adjust_creative=9gNmiWYX8uTbFBeTTvJMdA&utm_campaign=yelp_api_v3&utm_medium=api_v3_business_search&utm_source=9gNmiWYX8uTbFBeTTvJMdA", "review_count": 7, "categories": [{"alias": "indpak", "title": "Indian"}, {"alias": "pakistani", "title": "Pakistani"}, {"alias": "bangladeshi", "title": "Bangladeshi"}], "rating": 4.5, "coordinates": {"latitude": 40.71561, "longitude": -74.00762}, "transactions": ["delivery", "pickup"], "location": {"address1": "176 Church St", "address2": "", "address3": null, "city": "New York", "zip_code": "10013", "country": "US", "state": "NY", "display_address": ["176 Church St", "New York, NY 10013"]}, "phone": "+16469985998", "display_phone": "(646) 998-5998", "distance": 5808.71859605268}, {"id": "eRBcBaXw3TjQE9CfQqKJzA", "alias": "papa-halal-chicken-corporation-staten-island-2", "name": "Papa Halal Chicken Corporation", "image_url": "https://s3-media2.fl.yelpcdn.com/bphoto/HNwoNm_CpZNbOUKAYOAq8A/o.jpg", "is_closed": false, "url": "https://www.yelp.com/biz/papa-halal-chicken-corporation-staten-island-2?adjust_creative=9gNmiWYX8uTbFBeTTvJMdA&utm_campaign=yelp_api_v3&utm_medium=api_v3_business_search&utm_source=9gNmiWYX8uTbFBeTTvJMdA", "review_count": 25, "categories": [{"alias": "halal", "title": "Halal"}], "rating": 3.5, "coordinates": {"latitude": 40.62523, "longitude": -74.14849}, "transactions": ["delivery", "pickup"], "price": "$", "location": {"address1": "1787 Forest Ave", "address2": null, "address3": null, "city": "Staten Island", "zip_code": "10303", "country": "US", "state": "NY", "display_address": ["1787 Forest Ave", "Staten Island, NY 10303"]}, "phone": "+17187272201", "display_phone": "(718) 727-2201", "distance": 21198.875044050168}, {"id": "YTzWgctWFVyw_07NPTnDNA", "alias": "firangi-paani-rochelle-park-4", "name": "Firangi Paani", "image_url": "", "is_closed": false, "url": "https://www.yelp.com/biz/firangi-paani-rochelle-park-4?adjust_creative=9gNmiWYX8uTbFBeTTvJMdA&utm_campaign=yelp_api_v3&utm_medium=api_v3_business_search&utm_source=9gNmiWYX8uTbFBeTTvJMdA", "review_count": 13, "categories": [{"alias": "indpak", "title": "Indian"}], "rating": 3.0, "coordinates": {"latitude": 40.9052207, "longitude": -74.0714593}, "transactions": [], "price": "$$", "location": {"address1": "194 State Rt 17 N", "address2": "", "address3": "", "city": "Rochelle Park", "zip_code": "07662", "country": "US", "state": "NJ", "display_address": ["194 State Rt 17 N", "Rochelle Park, NJ 07662"]}, "phone": "+12018202828", "display_phone": "(201) 820-2828", "distance": 18368.030005680255}, {"id": "xdplhwoGoCykFkAhkcNlzg", "alias": "lucky-dhaba-queens", "name": "Lucky Dhaba", "image_url": "https://s3-media2.fl.yelpcdn.com/bphoto/PCVgR0bNN0_uPOkFxpXoaw/o.jpg", "is_closed": false, "url": "https://www.yelp.com/biz/lucky-dhaba-queens?adjust_creative=9gNmiWYX8uTbFBeTTvJMdA&utm_campaign=yelp_api_v3&utm_medium=api_v3_business_search&utm_source=9gNmiWYX8uTbFBeTTvJMdA", "review_count": 1, "categories": [{"alias": "indpak", "title": "Indian"}, {"alias": "vegetarian", "title": "Vegetarian"}], "rating": 5.0, "coordinates": {"latitude": 40.698162921247025, "longitude": -73.834513}, "transactions": ["delivery", "pickup"], "location": {"address1": "114-06 Jamaica Ave", "address2": "", "address3": null, "city": "Queens", "zip_code": "11418", "country": "US", "state": "NY", "display_address": ["114-06 Jamaica Ave", "Queens, NY 11418"]}, "phone": "+17184806030", "display_phone": "(718) 480-6030", "distance": 13249.462803262091}, {"id": "eCv-ql7geZLYQAvltJAklw", "alias": "spice-up-jersey-city", "name": "Spice Up", "image_url": "", "is_closed": false, "url": "https://www.yelp.com/biz/spice-up-jersey-city?adjust_creative=9gNmiWYX8uTbFBeTTvJMdA&utm_campaign=yelp_api_v3&utm_medium=api_v3_business_search&utm_source=9gNmiWYX8uTbFBeTTvJMdA", "review_count": 2, "categories": [{"alias": "indpak", "title": "Indian"}], "rating": 3.5, "coordinates": {"latitude": 40.73503, "longitude": -74.06131}, "transactions": ["delivery", "pickup"], "location": {"address1": "713 Newark Ave", "address2": null, "address3": "", "city": "Jersey City", "zip_code": "07306", "country": "US", "state": "NJ", "display_address": ["713 Newark Ave", "Jersey City, NJ 07306"]}, "phone": "+12013603062", "display_phone": "(201) 360-3062", "distance": 8183.161954912118}, {"id": "K9xO8xYvvpEwgsdonKplcA", "alias": "red-panda-restaurant-woodside", "name": "Red Panda Restaurant", "image_url": "https://s3-media3.fl.yelpcdn.com/bphoto/CjYQjHhR45HByfKeFVMEvg/o.jpg", "is_closed": false, "url": "https://www.yelp.com/biz/red-panda-restaurant-woodside?adjust_creative=9gNmiWYX8uTbFBeTTvJMdA&utm_campaign=yelp_api_v3&utm_medium=api_v3_business_search&utm_source=9gNmiWYX8uTbFBeTTvJMdA", "review_count": 41, "categories": [{"alias": "himalayan", "title": "Himalayan/Nepalese"}, {"alias": "indpak", "title": "Indian"}], "rating": 4.0, "coordinates": {"latitude": 40.74318, "longitude": -73.89683}, "transactions": ["delivery", "pickup"], "price": "$", "location": {"address1": "67-21 Woodside Ave", "address2": "", "address3": null, "city": "Woodside", "zip_code": "11377", "country": "US", "state": "NY", "display_address": ["67-21 Woodside Ave", "Woodside, NY 11377"]}, "phone": "+17186852933", "display_phone": "(718) 685-2933", "distance": 6381.089717079512}, {"id": "bRPq-Nmct5bOuOtsu8fC7Q", "alias": "smac-new-york", "name": "S'MAC", "image_url": "https://s3-media3.fl.yelpcdn.com/bphoto/v0WNAlbgqS0IN3NVw98tSw/o.jpg", "is_closed": false, "url": "https://www.yelp.com/biz/smac-new-york?adjust_creative=9gNmiWYX8uTbFBeTTvJMdA&utm_campaign=yelp_api_v3&utm_medium=api_v3_business_search&utm_source=9gNmiWYX8uTbFBeTTvJMdA", "review_count": 2337, "categories": [{"alias": "tradamerican", "title": "American (Traditional)"}, {"alias": "gluten_free", "title": "Gluten-Free"}, {"alias": "vegetarian", "title": "Vegetarian"}], "rating": 3.5, "coordinates": {"latitude": 40.730212, "longitude": -73.983724}, "transactions": ["delivery", "pickup"], "price": "$$", "location": {"address1": "197 1st Ave", "address2": "", "address3": "", "city": "New York", "zip_code": "10003", "country": "US", "state": "NY", "display_address": ["197 1st Ave", "New York, NY 10003"]}, "phone": "+12123587912", "display_phone": "(212) 358-7912", "distance": 3434.039993517147}, {"id": "6mcCqs4Eh4g_Sd2EdF3SRA", "alias": "delhi-heights-brooklyn-2", "name": "Delhi Heights", "image_url": "https://s3-media1.fl.yelpcdn.com/bphoto/5M2kMBmhSgb2i_MfLAigcg/o.jpg", "is_closed": false, "url": "https://www.yelp.com/biz/delhi-heights-brooklyn-2?adjust_creative=9gNmiWYX8uTbFBeTTvJMdA&utm_campaign=yelp_api_v3&utm_medium=api_v3_business_search&utm_source=9gNmiWYX8uTbFBeTTvJMdA", "review_count": 1, "categories": [{"alias": "fooddeliveryservices", "title": "Food Delivery Services"}, {"alias": "indpak", "title": "Indian"}], "rating": 4.0, "coordinates": {"latitude": 40.68274688720703, "longitude": -73.97818756103516}, "transactions": [], "location": {"address1": null, "address2": null, "address3": null, "city": "Brooklyn", "zip_code": "11217", "country": "US", "state": "NY", "display_address": ["Brooklyn, NY 11217"]}, "phone": "+17188759200", "display_phone": "(718) 875-9200", "distance": 8663.563191988966}, {"id": "s4pRTGVcKMfybxpyKu4KzA", "alias": "royal-india-palace-south-richmond-hill", "name": "Royal India Palace", "image_url": "https://s3-media4.fl.yelpcdn.com/bphoto/e5N6xp5kdhjLp2jnRW1T0Q/o.jpg", "is_closed": false, "url": "https://www.yelp.com/biz/royal-india-palace-south-richmond-hill?adjust_creative=9gNmiWYX8uTbFBeTTvJMdA&utm_campaign=yelp_api_v3&utm_medium=api_v3_business_search&utm_source=9gNmiWYX8uTbFBeTTvJMdA", "review_count": 65, "categories": [{"alias": "indpak", "title": "Indian"}, {"alias": "venues", "title": "Venues & Event Spaces"}], "rating": 3.5, "coordinates": {"latitude": 40.69362, "longitude": -73.82837}, "transactions": ["delivery", "pickup"], "price": "$$", "location": {"address1": "11806 Atlantic Ave", "address2": "", "address3": "", "city": "South Richmond Hill", "zip_code": "11419", "country": "US", "state": "NY", "display_address": ["11806 Atlantic Ave", "South Richmond Hill, NY 11419"]}, "phone": "+17188467600", "display_phone": "(718) 846-7600", "distance": 13948.64482162016}, {"id": "BEuZGvNlbM4tXq7YICyM6w", "alias": "luannes-wild-ginger-all-asian-vegan-new-york", "name": "LuAnne's Wild Ginger All-Asian Vegan", "image_url": "https://s3-media4.fl.yelpcdn.com/bphoto/e0Kg1tJ_2DzAIbMooVQxxw/o.jpg", "is_closed": false, "url": "https://www.yelp.com/biz/luannes-wild-ginger-all-asian-vegan-new-york?adjust_creative=9gNmiWYX8uTbFBeTTvJMdA&utm_campaign=yelp_api_v3&utm_medium=api_v3_business_search&utm_source=9gNmiWYX8uTbFBeTTvJMdA", "review_count": 684, "categories": [{"alias": "vegan", "title": "Vegan"}, {"alias": "panasian", "title": "Pan Asian"}, {"alias": "kosher", "title": "Kosher"}], "rating": 4.0, "coordinates": {"latitude": 40.7204631, "longitude": -73.9964956}, "transactions": ["delivery", "pickup"], "price": "$$", "location": {"address1": "380 Broome St", "address2": null, "address3": "", "city": "New York", "zip_code": "10013", "country": "US", "state": "NY", "display_address": ["380 Broome St", "New York, NY 10013"]}, "phone": "+12129661883", "display_phone": "(212) 966-1883", "distance": 4865.540699105092}, {"id": "VWx0W_qQlQ5H6FuD055J6w", "alias": "cafe-amore-at-little-ferry-little-ferry", "name": "Cafe Amore at Little Ferry", "image_url": "https://s3-media1.fl.yelpcdn.com/bphoto/dtasRUGtZPGJvjyulCCQmw/o.jpg", "is_closed": false, "url": "https://www.yelp.com/biz/cafe-amore-at-little-ferry-little-ferry?adjust_creative=9gNmiWYX8uTbFBeTTvJMdA&utm_campaign=yelp_api_v3&utm_medium=api_v3_business_search&utm_source=9gNmiWYX8uTbFBeTTvJMdA", "review_count": 4, "categories": [{"alias": "burgers", "title": "Burgers"}, {"alias": "tradamerican", "title": "American (Traditional)"}, {"alias": "buffets", "title": "Buffets"}], "rating": 4.0, "coordinates": {"latitude": 40.85136, "longitude": -74.04064}, "transactions": [], "location": {"address1": "187 Main St", "address2": null, "address3": "", "city": "Little Ferry", "zip_code": "07643", "country": "US", "state": "NJ", "display_address": ["187 Main St", "Little Ferry, NJ 07643"]}, "phone": "+12016410100", "display_phone": "(201) 641-0100", "distance": 11876.679957068214}, {"id": "bVkia681mgwsvAe0TckVbQ", "alias": "golden-punjab-south-richmond-hill", "name": "Golden Punjab", "image_url": "https://s3-media3.fl.yelpcdn.com/bphoto/EVSnj2W0fFKpP1XUr_XcVA/o.jpg", "is_closed": false, "url": "https://www.yelp.com/biz/golden-punjab-south-richmond-hill?adjust_creative=9gNmiWYX8uTbFBeTTvJMdA&utm_campaign=yelp_api_v3&utm_medium=api_v3_business_search&utm_source=9gNmiWYX8uTbFBeTTvJMdA", "review_count": 20, "categories": [{"alias": "indpak", "title": "Indian"}, {"alias": "pakistani", "title": "Pakistani"}], "rating": 3.5, "coordinates": {"latitude": 40.692402, "longitude": -73.816877}, "transactions": ["delivery", "pickup"], "price": "$", "location": {"address1": "13002 101st St", "address2": "", "address3": "", "city": "South Richmond Hill", "zip_code": "11419", "country": "US", "state": "NY", "display_address": ["13002 101st St", "South Richmond Hill, NY 11419"]}, "phone": "+17188491820", "display_phone": "(718) 849-1820", "distance": 14855.934611337714}, {"id": "dTXVjTsTYmDWWsF-Cy1tGQ", "alias": "alnoor-jersey-city", "name": "Alnoor", "image_url": "https://s3-media1.fl.yelpcdn.com/bphoto/O71LdsLniznmM4UQektlqw/o.jpg", "is_closed": false, "url": "https://www.yelp.com/biz/alnoor-jersey-city?adjust_creative=9gNmiWYX8uTbFBeTTvJMdA&utm_campaign=yelp_api_v3&utm_medium=api_v3_business_search&utm_source=9gNmiWYX8uTbFBeTTvJMdA", "review_count": 22, "categories": [{"alias": "delis", "title": "Delis"}, {"alias": "sandwiches", "title": "Sandwiches"}, {"alias": "halal", "title": "Halal"}], "rating": 4.0, "coordinates": {"latitude": 40.72675, "longitude": -74.07624}, "transactions": ["delivery"], "price": "$", "location": {"address1": "772 W Side Ave", "address2": null, "address3": null, "city": "Jersey City", "zip_code": "07306", "country": "US", "state": "NJ", "display_address": ["772 W Side Ave", "Jersey City, NJ 07306"]}, "phone": "+12013240050", "display_phone": "(201) 324-0050", "distance": 9688.895235236032}, {"id": "R7PHDW6wKzYHOOh4f6MrzA", "alias": "pakiza-restaurant-brooklyn", "name": "Pakiza Restaurant", "image_url": "https://s3-media1.fl.yelpcdn.com/bphoto/FTqGqWySQfI--OML0iXKmw/o.jpg", "is_closed": false, "url": "https://www.yelp.com/biz/pakiza-restaurant-brooklyn?adjust_creative=9gNmiWYX8uTbFBeTTvJMdA&utm_campaign=yelp_api_v3&utm_medium=api_v3_business_search&utm_source=9gNmiWYX8uTbFBeTTvJMdA", "review_count": 36, "categories": [{"alias": "halal", "title": "Halal"}, {"alias": "pakistani", "title": "Pakistani"}, {"alias": "coffee", "title": "Coffee & Tea"}], "rating": 3.0, "coordinates": {"latitude": 40.63244, "longitude": -73.96702}, "transactions": ["delivery", "pickup"], "price": "$", "location": {"address1": "1032 Coney Island Ave", "address2": "", "address3": "", "city": "Brooklyn", "zip_code": "11230", "country": "US", "state": "NY", "display_address": ["1032 Coney Island Ave", "Brooklyn, NY 11230"]}, "phone": "+17184345596", "display_phone": "(718) 434-5596", "distance": 14097.117408550193}, {"id": "-jSxoTeK6DXEqtEhlj2YFw", "alias": "faiths-halal-food-manhattan", "name": "Faith's Halal Food", "image_url": "https://s3-media2.fl.yelpcdn.com/bphoto/v7jYBnT874n3qy45b6-T2A/o.jpg", "is_closed": false, "url": "https://www.yelp.com/biz/faiths-halal-food-manhattan?adjust_creative=9gNmiWYX8uTbFBeTTvJMdA&utm_campaign=yelp_api_v3&utm_medium=api_v3_business_search&utm_source=9gNmiWYX8uTbFBeTTvJMdA", "review_count": 3, "categories": [{"alias": "halal", "title": "Halal"}, {"alias": "foodstands", "title": "Food Stands"}], "rating": 4.0, "coordinates": {"latitude": 40.7533527777398, "longitude": -73.9900875091553}, "transactions": [], "price": "$", "location": {"address1": "7TH And 8th Ave", "address2": "", "address3": "33rd St", "city": "Manhattan", "zip_code": "10001", "country": "US", "state": "NY", "display_address": ["7TH And 8th Ave", "33rd St", "Manhattan, NY 10001"]}, "phone": "", "display_phone": "", "distance": 1845.1348765203436}], "total": 902, "region": {"center": {"longitude": -73.96957397460938, "latitude": 40.75917470627005}}}