{"businesses": [{"id": "osLdS6WQ9wUV8iSmR5NqJQ", "alias": "dunya-kabab-house-brooklyn-2", "name": "Dunya Kabab House", "image_url": "https://s3-media1.fl.yelpcdn.com/bphoto/rHiu9YTZLDHoqrSYqxboow/o.jpg", "is_closed": false, "url": "https://www.yelp.com/biz/dunya-kabab-house-brooklyn-2?adjust_creative=9gNmiWYX8uTbFBeTTvJMdA&utm_campaign=yelp_api_v3&utm_medium=api_v3_business_search&utm_source=9gNmiWYX8uTbFBeTTvJMdA", "review_count": 35, "categories": [{"alias": "kebab", "title": "Kebab"}], "rating": 4.5, "coordinates": {"latitude": 40.64053, "longitude": -73.96936}, "transactions": ["pickup", "delivery"], "price": "$$", "location": {"address1": "696 Coney Island Ave", "address2": null, "address3": "", "city": "Brooklyn", "zip_code": "11218", "country": "US", "state": "NY", "display_address": ["696 Coney Island Ave", "Brooklyn, NY 11218"]}, "phone": "+17184838451", "display_phone": "(718) 483-8451", "distance": 13190.106688734451}, {"id": "OwBn_1YsnV6v8lR86YjghQ", "alias": "true-flavours-restaurant-and-roti-shop-jamaica", "name": "True Flavours Restaurant & Roti Shop", "image_url": "https://s3-media2.fl.yelpcdn.com/bphoto/-WUWDmWFu2xQfHDRMehYoQ/o.jpg", "is_closed": false, "url": "https://www.yelp.com/biz/true-flavours-restaurant-and-roti-shop-jamaica?adjust_creative=9gNmiWYX8uTbFBeTTvJMdA&utm_campaign=yelp_api_v3&utm_medium=api_v3_business_search&utm_source=9gNmiWYX8uTbFBeTTvJMdA", "review_count": 12, "categories": [{"alias": "indpak", "title": "Indian"}], "rating": 4.5, "coordinates": {"latitude": 40.673985, "longitude": -73.800117}, "transactions": ["pickup", "delivery"], "location": {"address1": "14016 Rockaway Blvd", "address2": null, "address3": null, "city": "Jamaica", "zip_code": "11436", "country": "US", "state": "NY", "display_address": ["14016 Rockaway Blvd", "Jamaica, NY 11436"]}, "phone": "+13473924303", "display_phone": "(347) 392-4303", "distance": 17132.38109703149}, {"id": "cP7vkHiDU0emIPrEexv5vA", "alias": "sammys-halal-food-jackson-heights", "name": "Sammy's Halal Food", "image_url": "https://s3-media4.fl.yelpcdn.com/bphoto/blfQ2JsNrj_ZUBUVVdkeBA/o.jpg", "is_closed": false, "url": "https://www.yelp.com/biz/sammys-halal-food-jackson-heights?adjust_creative=9gNmiWYX8uTbFBeTTvJMdA&utm_campaign=yelp_api_v3&utm_medium=api_v3_business_search&utm_source=9gNmiWYX8uTbFBeTTvJMdA", "review_count": 455, "categories": [{"alias": "halal", "title": "Halal"}, {"alias": "foodtrucks", "title": "Food Trucks"}], "rating": 4.0, "coordinates": {"latitude": 40.7471944, "longitude": -73.8925311}, "transactions": ["pickup"], "price": "$", "location": {"address1": "73rd St And Broadway", "address2": "", "address3": "", "city": "Jackson Heights", "zip_code": "11372", "country": "US", "state": "NY", "display_address": ["73rd St And Broadway", "Jackson Heights, NY 11372"]}, "phone": "+17187758369", "display_phone": "(718) 775-8369", "distance": 6624.0005871913545}, {"id": "Tl3-184IK6tovU5IvO-lNQ", "alias": "dynasty-buffet-saddle-brook", "name": "Dynasty Buffet", "image_url": "https://s3-media3.fl.yelpcdn.com/bphoto/9F7qNA05aKjmul4TlOzLvg/o.jpg", "is_closed": false, "url": "https://www.yelp.com/biz/dynasty-buffet-saddle-brook?adjust_creative=9gNmiWYX8uTbFBeTTvJMdA&utm_campaign=yelp_api_v3&utm_medium=api_v3_business_search&utm_source=9gNmiWYX8uTbFBeTTvJMdA", "review_count": 276, "categories": [{"alias": "buffets", "title": "Buffets"}, {"alias": "sushi", "title": "Sushi Bars"}, {"alias": "seafood", "title": "Seafood"}], "rating": 3.0, "coordinates": {"latitude": 40.897122993376485, "longitude": -74.0952471275593}, "transactions": ["pickup", "delivery"], "price": "$$", "location": {"address1": "383 Market St", "address2": "", "address3": "", "city": "Saddle Brook", "zip_code": "07663", "country": "US", "state": "NJ", "display_address": ["383 Market St", "Saddle Brook, NJ 07663"]}, "phone": "+12012261388", "display_phone": "(201) 226-1388", "distance": 18630.52489586488}, {"id": "TFE8EAjOqkrHYM9jH6De0A", "alias": "namaste-tashi-delek-jackson-heights", "name": "Namaste Tashi Delek", "image_url": "https://s3-media3.fl.yelpcdn.com/bphoto/xCcBTEomWy8dMCgCpfEJAA/o.jpg", "is_closed": false, "url": "https://www.yelp.com/biz/namaste-tashi-delek-jackson-heights?adjust_creative=9gNmiWYX8uTbFBeTTvJMdA&utm_campaign=yelp_api_v3&utm_medium=api_v3_business_search&utm_source=9gNmiWYX8uTbFBeTTvJMdA", "review_count": 47, "categories": [{"alias": "himalayan", "title": "Himalayan/Nepalese"}, {"alias": "halal", "title": "Halal"}, {"alias": "chinese", "title": "Chinese"}], "rating": 3.5, "coordinates": {"latitude": 40.7470984, "longitude": -73.8917629}, "transactions": [], "price": "$", "location": {"address1": "37-66 74th St", "address2": "", "address3": "", "city": "Jackson Heights", "zip_code": "11372", "country": "US", "state": "NY", "display_address": ["37-66 74th St", "Jackson Heights, NY 11372"]}, "phone": "+16462039938", "display_phone": "(646) 203-9938", "distance": 6690.427378714312}, {"id": "JX5QkNfMd-jP-Nz5iQ_QeA", "alias": "thai-nara-halal-restaurant-woodside", "name": "Thai Nara Halal Restaurant", "image_url": "https://s3-media4.fl.yelpcdn.com/bphoto/OklqHpagk2KdMmSYFqj_Xg/o.jpg", "is_closed": false, "url": "https://www.yelp.com/biz/thai-nara-halal-restaurant-woodside?adjust_creative=9gNmiWYX8uTbFBeTTvJMdA&utm_campaign=yelp_api_v3&utm_medium=api_v3_business_search&utm_source=9gNmiWYX8uTbFBeTTvJMdA", "review_count": 74, "categories": [{"alias": "thai", "title": "Thai"}, {"alias": "halal", "title": "Halal"}, {"alias": "malaysian", "title": "Malaysian"}], "rating": 4.5, "coordinates": {"latitude": 40.75011, "longitude": -73.89848}, "transactions": ["pickup", "delivery"], "price": "$$", "location": {"address1": "64-02 35th Ave", "address2": null, "address3": "", "city": "Woodside", "zip_code": "11377", "country": "US", "state": "NY", "display_address": ["64-02 35th Ave", "Woodside, NY 11377"]}, "phone": "+17186068842", "display_phone": "(718) 606-8842", "distance": 6072.54403101505}, {"id": "ahKL-52Ogn7iPFjhQbbb3w", "alias": "carifesta-restaurant-bronx", "name": "Carifesta Restaurant", "image_url": "https://s3-media2.fl.yelpcdn.com/bphoto/I5LZPgCICPrDVfO49jIG8g/o.jpg", "is_closed": false, "url": "https://www.yelp.com/biz/carifesta-restaurant-bronx?adjust_creative=9gNmiWYX8uTbFBeTTvJMdA&utm_campaign=yelp_api_v3&utm_medium=api_v3_business_search&utm_source=9gNmiWYX8uTbFBeTTvJMdA", "review_count": 21, "categories": [{"alias": "halal", "title": "Halal"}, {"alias": "caribbean", "title": "Caribbean"}], "rating": 4.0, "coordinates": {"latitude": 40.89485, "longitude": -73.8568}, "transactions": ["pickup", "delivery"], "price": "$", "location": {"address1": "4251 White Plains Rd", "address2": "", "address3": "", "city": "Bronx", "zip_code": "10466", "country": "US", "state": "NY", "display_address": ["4251 White Plains Rd", "Bronx, NY 10466"]}, "phone": "+17183252261", "display_phone": "(718) 325-2261", "distance": 17817.256664460798}, {"id": "7d9M58Bi4ZzgZZjLjvrzUQ", "alias": "lasani-afghani-restaurant-jersey-city", "name": "Lasani Afghani Restaurant", "image_url": "https://s3-media2.fl.yelpcdn.com/bphoto/KRKzvStn-QbTR_ooH6eBxw/o.jpg", "is_closed": false, "url": "https://www.yelp.com/biz/lasani-afghani-restaurant-jersey-city?adjust_creative=9gNmiWYX8uTbFBeTTvJMdA&utm_campaign=yelp_api_v3&utm_medium=api_v3_business_search&utm_source=9gNmiWYX8uTbFBeTTvJMdA", "review_count": 25, "categories": [{"alias": "afghani", "title": "Afghan"}, {"alias": "pakistani", "title": "Pakistani"}], "rating": 4.0, "coordinates": {"latitude": 40.72308, "longitude": -74.06084}, "transactions": ["pickup", "delivery"], "price": "$$", "location": {"address1": "580 Montgomery St", "address2": "", "address3": "", "city": "Jersey City", "zip_code": "07302", "country": "US", "state": "NJ", "display_address": ["580 Montgomery St", "Jersey City, NJ 07302"]}, "phone": "+12013337400", "display_phone": "(201) 333-7400", "distance": 8660.405791007111}, {"id": "AKaO-EaJ8EgUnx5EPZ8N4g", "alias": "alis-original-roti-shop-brooklyn", "name": "Ali's Original Roti Shop", "image_url": "https://s3-media2.fl.yelpcdn.com/bphoto/HxhsFTPeSZeqM5Ql1TsoTA/o.jpg", "is_closed": false, "url": "https://www.yelp.com/biz/alis-original-roti-shop-brooklyn?adjust_creative=9gNmiWYX8uTbFBeTTvJMdA&utm_campaign=yelp_api_v3&utm_medium=api_v3_business_search&utm_source=9gNmiWYX8uTbFBeTTvJMdA", "review_count": 176, "categories": [{"alias": "caribbean", "title": "Caribbean"}, {"alias": "indpak", "title": "Indian"}], "rating": 3.5, "coordinates": {"latitude": 40.6665, "longitude": -73.9312}, "transactions": ["pickup", "delivery"], "price": "$", "location": {"address1": "337 Utica Ave", "address2": "", "address3": "", "city": "Brooklyn", "zip_code": "11213", "country": "US", "state": "NY", "display_address": ["337 Utica Ave", "Brooklyn, NY 11213"]}, "phone": "+17187787329", "display_phone": "(718) 778-7329", "distance": 10807.970812240264}, {"id": "VSXqjPL4cgKBB80yD0g9pg", "alias": "halal-diner-jamaica", "name": "Halal Diner", "image_url": "https://s3-media3.fl.yelpcdn.com/bphoto/qSrZ6odODqSw4xdXpOJEXw/o.jpg", "is_closed": false, "url": "https://www.yelp.com/biz/halal-diner-jamaica?adjust_creative=9gNmiWYX8uTbFBeTTvJMdA&utm_campaign=yelp_api_v3&utm_medium=api_v3_business_search&utm_source=9gNmiWYX8uTbFBeTTvJMdA", "review_count": 34, "categories": [{"alias": "halal", "title": "Halal"}, {"alias": "bangladeshi", "title": "Bangladeshi"}], "rating": 4.0, "coordinates": {"latitude": 40.7128215467023, "longitude": -73.8065631792932}, "transactions": ["pickup", "delivery"], "location": {"address1": "84-47 Parsons Blvd", "address2": "", "address3": null, "city": "Jamaica", "zip_code": "11432", "country": "US", "state": "NY", "display_address": ["84-47 Parsons Blvd", "Jamaica, NY 11432"]}, "phone": "+17186746969", "display_phone": "(718) 674-6969", "distance": 14667.716614333032}, {"id": "EGUPGM2TuwMMFi3vifYEVA", "alias": "ginger-house-brooklyn-3", "name": "Ginger House", "image_url": "https://s3-media4.fl.yelpcdn.com/bphoto/9mzQwcXpaJafjUf2GkoPog/o.jpg", "is_closed": false, "url": "https://www.yelp.com/biz/ginger-house-brooklyn-3?adjust_creative=9gNmiWYX8uTbFBeTTvJMdA&utm_campaign=yelp_api_v3&utm_medium=api_v3_business_search&utm_source=9gNmiWYX8uTbFBeTTvJMdA", "review_count": 147, "categories": [{"alias": "vegetarian", "title": "Vegetarian"}, {"alias": "asianfusion", "title": "Asian Fusion"}, {"alias": "vegan", "title": "Vegan"}], "rating": 4.0, "coordinates": {"latitude": 40.6357, "longitude": -73.97555}, "transactions": ["pickup", "delivery"], "price": "$$", "location": {"address1": "310 Ditmas Ave", "address2": "", "address3": "", "city": "Brooklyn", "zip_code": "11218", "country": "US", "state": "NY", "display_address": ["310 Ditmas Ave", "Brooklyn, NY 11218"]}, "phone": "+17186332077", "display_phone": "(718) 633-2077", "distance": 13747.090694908919}, {"id": "cEB3DcrN7xDyXiswWNe47Q", "alias": "halal-munchies-fresh-meadows", "name": "Halal Munchies", "image_url": "https://s3-media4.fl.yelpcdn.com/bphoto/z-QqkNGzHJbw9EPWacsLvA/o.jpg", "is_closed": false, "url": "https://www.yelp.com/biz/halal-munchies-fresh-meadows?adjust_creative=9gNmiWYX8uTbFBeTTvJMdA&utm_campaign=yelp_api_v3&utm_medium=api_v3_business_search&utm_source=9gNmiWYX8uTbFBeTTvJMdA", "review_count": 261, "categories": [{"alias": "halal", "title": "Halal"}, {"alias": "hotdogs", "title": "Fast Food"}], "rating": 4.0, "coordinates": {"latitude": 40.7325914, "longitude": -73.804631}, "transactions": ["pickup", "delivery"], "price": "$$", "location": {"address1": "69-21 164th St", "address2": "", "address3": null, "city": "Fresh Meadows", "zip_code": "11365", "country": "US", "state": "NY", "display_address": ["69-21 164th St", "Fresh Meadows, NY 11365"]}, "phone": "+17183800100", "display_phone": "(718) 380-0100", "distance": 14206.134918534905}, {"id": "ciIihWqiw5z8qwWlJBp5NA", "alias": "wolf-and-lamb-steakhouse-new-york", "name": "Wolf & Lamb Steakhouse", "image_url": "https://s3-media3.fl.yelpcdn.com/bphoto/OdDJ40RiIXyOs6ZyLlbYVw/o.jpg", "is_closed": false, "url": "https://www.yelp.com/biz/wolf-and-lamb-steakhouse-new-york?adjust_creative=9gNmiWYX8uTbFBeTTvJMdA&utm_campaign=yelp_api_v3&utm_medium=api_v3_business_search&utm_source=9gNmiWYX8uTbFBeTTvJMdA", "review_count": 203, "categories": [{"alias": "steak", "title": "Steakhouses"}, {"alias": "kosher", "title": "Kosher"}, {"alias": "tradamerican", "title": "American (Traditional)"}], "rating": 3.5, "coordinates": {"latitude": 40.75674, "longitude": -73.97712}, "transactions": ["pickup", "delivery"], "price": "$$$", "location": {"address1": "16 E 48th St", "address2": "", "address3": "", "city": "New York", "zip_code": "10017", "country": "US", "state": "NY", "display_address": ["16 E 48th St", "New York, NY 10017"]}, "phone": "+12123171950", "display_phone": "(212) 317-1950", "distance": 700.7527883569009}, {"id": "Ojv8W7iybJhoztD5iGksgQ", "alias": "radhuni-sweets-and-restaurant-brooklyn", "name": "Radhuni Sweets & Restaurant", "image_url": "https://s3-media3.fl.yelpcdn.com/bphoto/1sf2UDOrYgb3tEKkDavLAg/o.jpg", "is_closed": false, "url": "https://www.yelp.com/biz/radhuni-sweets-and-restaurant-brooklyn?adjust_creative=9gNmiWYX8uTbFBeTTvJMdA&utm_campaign=yelp_api_v3&utm_medium=api_v3_business_search&utm_source=9gNmiWYX8uTbFBeTTvJMdA", "review_count": 14, "categories": [{"alias": "bangladeshi", "title": "Bangladeshi"}], "rating": 3.5, "coordinates": {"latitude": 40.6424029038192, "longitude": -73.9790200442076}, "transactions": ["delivery"], "price": "$", "location": {"address1": "483 McDonald Ave", "address2": "", "address3": "", "city": "Brooklyn", "zip_code": "11218", "country": "US", "state": "NY", "display_address": ["483 McDonald Ave", "Brooklyn, NY 11218"]}, "phone": "+17189720072", "display_phone": "(718) 972-0072", "distance": 13008.812143735651}, {"id": "O-VPSZK6QAuJPyJgTP3w7g", "alias": "juicy-platters-hackensack-hackensack", "name": "Juicy Platters - Hackensack", "image_url": "https://s3-media1.fl.yelpcdn.com/bphoto/k3eni6nIhTOo_73NUEUnRw/o.jpg", "is_closed": false, "url": "https://www.yelp.com/biz/juicy-platters-hackensack-hackensack?adjust_creative=9gNmiWYX8uTbFBeTTvJMdA&utm_campaign=yelp_api_v3&utm_medium=api_v3_business_search&utm_source=9gNmiWYX8uTbFBeTTvJMdA", "review_count": 287, "categories": [{"alias": "halal", "title": "Halal"}, {"alias": "mediterranean", "title": "Mediterranean"}], "rating": 4.5, "coordinates": {"latitude": 40.876559, "longitude": -74.065607}, "transactions": ["pickup", "delivery"], "price": "$", "location": {"address1": "370 W Pleasantview Ave", "address2": null, "address3": "", "city": "Hackensack", "zip_code": "07601", "country": "US", "state": "NJ", "display_address": ["370 W Pleasantview Ave", "Hackensack, NJ 07601"]}, "phone": "+12017309700", "display_phone": "(201) 730-9700", "distance": 15351.732531106605}, {"id": "KDr72efaFAcQXccdA4yoaw", "alias": "cas-west-indian-and-american-restaurant-brooklyn", "name": "Cas West Indian & American Restaurant", "image_url": "https://s3-media3.fl.yelpcdn.com/bphoto/o8P16d3JFPceWIrTfVshaQ/o.jpg", "is_closed": false, "url": "https://www.yelp.com/biz/cas-west-indian-and-american-restaurant-brooklyn?adjust_creative=9gNmiWYX8uTbFBeTTvJMdA&utm_campaign=yelp_api_v3&utm_medium=api_v3_business_search&utm_source=9gNmiWYX8uTbFBeTTvJMdA", "review_count": 28, "categories": [{"alias": "caribbean", "title": "Caribbean"}, {"alias": "indpak", "title": "Indian"}], "rating": 4.0, "coordinates": {"latitude": 40.67525, "longitude": -73.94136}, "transactions": ["delivery"], "price": "$", "location": {"address1": "135 Kingston Ave", "address2": "", "address3": "", "city": "Brooklyn", "zip_code": "11213", "country": "US", "state": "NY", "display_address": ["135 Kingston Ave", "Brooklyn, NY 11213"]}, "phone": "+17188041075", "display_phone": "(718) 804-1075", "distance": 9629.586976703975}, {"id": "7ODapIfgerSKkAjKR0a2xw", "alias": "juice-press-new-york-2", "name": "Juice Press", "image_url": "https://s3-media2.fl.yelpcdn.com/bphoto/Dsuxr7plJchFaLsROX4RYw/o.jpg", "is_closed": false, "url": "https://www.yelp.com/biz/juice-press-new-york-2?adjust_creative=9gNmiWYX8uTbFBeTTvJMdA&utm_campaign=yelp_api_v3&utm_medium=api_v3_business_search&utm_source=9gNmiWYX8uTbFBeTTvJMdA", "review_count": 81, "categories": [{"alias": "juicebars", "title": "Juice Bars & Smoothies"}, {"alias": "vegan", "title": "Vegan"}, {"alias": "healthmarkets", "title": "Health Markets"}], "rating": 3.0, "coordinates": {"latitude": 40.7390551781704, "longitude": -74.0025544166565}, "transactions": ["pickup", "delivery"], "price": "$$$", "location": {"address1": "122 Greenwich Ave", "address2": "", "address3": "", "city": "New York", "zip_code": "10014", "country": "US", "state": "NY", "display_address": ["122 Greenwich Ave", "New York, NY 10014"]}, "phone": "+16469011316", "display_phone": "(646) 901-1316", "distance": 3567.003178056591}, {"id": "_ztYFP1H6uJmR-9cVLDU5w", "alias": "madina-restaurant-and-sweets-brooklyn-2", "name": "Madina Restaurant & Sweets", "image_url": "https://s3-media3.fl.yelpcdn.com/bphoto/Qu7huB2abTjZ0srwgz0j_Q/o.jpg", "is_closed": false, "url": "https://www.yelp.com/biz/madina-restaurant-and-sweets-brooklyn-2?adjust_creative=9gNmiWYX8uTbFBeTTvJMdA&utm_campaign=yelp_api_v3&utm_medium=api_v3_business_search&utm_source=9gNmiWYX8uTbFBeTTvJMdA", "review_count": 82, "categories": [{"alias": "indpak", "title": "Indian"}, {"alias": "pakistani", "title": "Pakistani"}, {"alias": "bangladeshi", "title": "Bangladeshi"}], "rating": 3.0, "coordinates": {"latitude": 40.6435699, "longitude": -73.96981}, "transactions": ["delivery", "pickup"], "price": "$", "location": {"address1": "563 Coney Island Ave", "address2": "", "address3": "", "city": "Brooklyn", "zip_code": "11218", "country": "US", "state": "NY", "display_address": ["563 Coney Island Ave", "Brooklyn, NY 11218"]}, "phone": "+17184693535", "display_phone": "(718) 469-3535", "distance": 12850.178053582142}, {"id": "R2VSWR_2bNhfchNqdgQR2g", "alias": "abir-halal-restaurant-brooklyn", "name": "Abir Halal Restaurant", "image_url": "https://s3-media3.fl.yelpcdn.com/bphoto/fgwS2kXzCRPFgvH5meGfIw/o.jpg", "is_closed": false, "url": "https://www.yelp.com/biz/abir-halal-restaurant-brooklyn?adjust_creative=9gNmiWYX8uTbFBeTTvJMdA&utm_campaign=yelp_api_v3&utm_medium=api_v3_business_search&utm_source=9gNmiWYX8uTbFBeTTvJMdA", "review_count": 14, "categories": [{"alias": "halal", "title": "Halal"}, {"alias": "indpak", "title": "Indian"}, {"alias": "seafood", "title": "Seafood"}], "rating": 3.5, "coordinates": {"latitude": 40.6808, "longitude": -73.94981}, "transactions": ["pickup", "delivery"], "price": "$", "location": {"address1": "526 Nostrand Ave", "address2": "", "address3": "", "city": "Brooklyn", "zip_code": "11216", "country": "US", "state": "NY", "display_address": ["526 Nostrand Ave", "Brooklyn, NY 11216"]}, "phone": "+17187896181", "display_phone": "(718) 789-6181", "distance": 8870.65724896542}, {"id": "JdNzj7EGQLC9eqqw3SYBPg", "alias": "organic-grill-new-york-2", "name": "Organic Grill", "image_url": "https://s3-media1.fl.yelpcdn.com/bphoto/Cd4VTHmbti0vHqNPpw9u8w/o.jpg", "is_closed": false, "url": "https://www.yelp.com/biz/organic-grill-new-york-2?adjust_creative=9gNmiWYX8uTbFBeTTvJMdA&utm_campaign=yelp_api_v3&utm_medium=api_v3_business_search&utm_source=9gNmiWYX8uTbFBeTTvJMdA", "review_count": 490, "categories": [{"alias": "vegan", "title": "Vegan"}, {"alias": "gluten_free", "title": "Gluten-Free"}, {"alias": "kosher", "title": "Kosher"}], "rating": 4.0, "coordinates": {"latitude": 40.73088285012182, "longitude": -74.00079123783922}, "transactions": ["pickup", "delivery"], "price": "$$", "location": {"address1": "133 W 3rd St", "address2": "", "address3": "", "city": "New York", "zip_code": "10012", "country": "US", "state": "NY", "display_address": ["133 W 3rd St", "New York, NY 10012"]}, "phone": "+12124777177", "display_phone": "(212) 477-7177", "distance": 4100.349491713828}, {"id": "87WfLan3_7K_OYPYd5zUIA", "alias": "la-shuk-new-york-2", "name": "La Shuk", "image_url": "https://s3-media4.fl.yelpcdn.com/bphoto/C4U5wQwhSN66HZ3sjgGoZw/o.jpg", "is_closed": false, "url": "https://www.yelp.com/biz/la-shuk-new-york-2?adjust_creative=9gNmiWYX8uTbFBeTTvJMdA&utm_campaign=yelp_api_v3&utm_medium=api_v3_business_search&utm_source=9gNmiWYX8uTbFBeTTvJMdA", "review_count": 424, "categories": [{"alias": "moroccan", "title": "Moroccan"}, {"alias": "breakfast_brunch", "title": "Breakfast & Brunch"}, {"alias": "halal", "title": "Halal"}], "rating": 4.5, "coordinates": {"latitude": 40.788612, "longitude": -73.948737}, "transactions": ["pickup", "delivery"], "price": "$$", "location": {"address1": "1569 Lexington Ave", "address2": null, "address3": "", "city": "New York", "zip_code": "10029", "country": "US", "state": "NY", "display_address": ["1569 Lexington Ave", "New York, NY 10029"]}, "phone": "+19174092922", "display_phone": "(917) 409-2922", "distance": 3714.930715042705}, {"id": "KeVQTRyG41doVE3YVsV7Pw", "alias": "rajbhog-sweets-and-snacks-jersey-city", "name": "Rajbhog Sweets and Snacks", "image_url": "https://s3-media4.fl.yelpcdn.com/bphoto/NcM3XJMR5yZA7syRKb4gRA/o.jpg", "is_closed": false, "url": "https://www.yelp.com/biz/rajbhog-sweets-and-snacks-jersey-city?adjust_creative=9gNmiWYX8uTbFBeTTvJMdA&utm_campaign=yelp_api_v3&utm_medium=api_v3_business_search&utm_source=9gNmiWYX8uTbFBeTTvJMdA", "review_count": 108, "categories": [{"alias": "indpak", "title": "Indian"}], "rating": 2.5, "coordinates": {"latitude": 40.73588, "longitude": -74.06544}, "transactions": ["delivery"], "price": "$", "location": {"address1": "812 Newark Ave", "address2": "", "address3": "", "city": "Jersey City", "zip_code": "07306", "country": "US", "state": "NJ", "display_address": ["812 Newark Ave", "Jersey City, NJ 07306"]}, "phone": "+12016566660", "display_phone": "(201) 656-6660", "distance": 8489.224415603961}, {"id": "F3mRjSCTKlA1qj7OiRikiQ", "alias": "choten-nawab-new-york", "name": "Choten Nawab", "image_url": "", "is_closed": false, "url": "https://www.yelp.com/biz/choten-nawab-new-york?adjust_creative=9gNmiWYX8uTbFBeTTvJMdA&utm_campaign=yelp_api_v3&utm_medium=api_v3_business_search&utm_source=9gNmiWYX8uTbFBeTTvJMdA", "review_count": 2, "categories": [{"alias": "indpak", "title": "Indian"}], "rating": 2.5, "coordinates": {"latitude": 40.7424964904785, "longitude": -73.9823989868164}, "transactions": [], "location": {"address1": "150-154 Lexington Ave", "address2": "", "address3": "", "city": "New York", "zip_code": "10016", "country": "US", "state": "NY", "display_address": ["150-154 Lexington Ave", "New York, NY 10016"]}, "phone": "", "display_phone": "", "distance": 2146.2523896206785}, {"id": "WcTJzuVYTWHd0hvdAWO5Nw", "alias": "golden-terrace-richmond-hill", "name": "Golden Terrace", "image_url": "https://s3-media3.fl.yelpcdn.com/bphoto/AyDA9McK7WkwPlxryr5EpQ/o.jpg", "is_closed": false, "url": "https://www.yelp.com/biz/golden-terrace-richmond-hill?adjust_creative=9gNmiWYX8uTbFBeTTvJMdA&utm_campaign=yelp_api_v3&utm_medium=api_v3_business_search&utm_source=9gNmiWYX8uTbFBeTTvJMdA", "review_count": 22, "categories": [{"alias": "indpak", "title": "Indian"}, {"alias": "vegetarian", "title": "Vegetarian"}], "rating": 3.0, "coordinates": {"latitude": 40.694809, "longitude": -73.8265228}, "transactions": ["pickup", "delivery"], "price": "$$", "location": {"address1": "120-23 Atlantic Ave", "address2": null, "address3": "", "city": "Richmond Hill", "zip_code": "11418", "country": "US", "state": "NY", "display_address": ["120-23 Atlantic Ave", "Richmond Hill, NY 11418"]}, "phone": "+17185540405", "display_phone": "(718) 554-0405", "distance": 14037.676674576403}, {"id": "WtaM26GHmDBiUpVB4lnl2w", "alias": "the-roti-shack-brooklyn", "name": "The Roti Shack", "image_url": "https://s3-media3.fl.yelpcdn.com/bphoto/KeZV9jTsJ6XqilLkLaijZA/o.jpg", "is_closed": false, "url": "https://www.yelp.com/biz/the-roti-shack-brooklyn?adjust_creative=9gNmiWYX8uTbFBeTTvJMdA&utm_campaign=yelp_api_v3&utm_medium=api_v3_business_search&utm_source=9gNmiWYX8uTbFBeTTvJMdA", "review_count": 1, "categories": [{"alias": "indpak", "title": "Indian"}], "rating": 4.0, "coordinates": {"latitude": 40.679361, "longitude": -73.887147}, "transactions": [], "location": {"address1": "2915 Fulton St", "address2": null, "address3": null, "city": "Brooklyn", "zip_code": "11207", "country": "US", "state": "NY", "display_address": ["2915 Fulton St", "Brooklyn, NY 11207"]}, "phone": "+17189287040", "display_phone": "(718) 928-7040", "distance": 11274.96053685098}, {"id": "XipQLDbyTl5tsLlyzAWzug", "alias": "jajaja-mexicana-new-york-2", "name": "Jajaja Mexicana", "image_url": "https://s3-media1.fl.yelpcdn.com/bphoto/V7cg4o7sJjo94-M7BrILMQ/o.jpg", "is_closed": false, "url": "https://www.yelp.com/biz/jajaja-mexicana-new-york-2?adjust_creative=9gNmiWYX8uTbFBeTTvJMdA&utm_campaign=yelp_api_v3&utm_medium=api_v3_business_search&utm_source=9gNmiWYX8uTbFBeTTvJMdA", "review_count": 1170, "categories": [{"alias": "mexican", "title": "Mexican"}, {"alias": "vegan", "title": "Vegan"}, {"alias": "bars", "title": "Bars"}], "rating": 4.5, "coordinates": {"latitude": 40.71419, "longitude": -73.99041}, "transactions": ["pickup", "delivery"], "price": "$$", "location": {"address1": "162 E Broadway", "address2": "", "address3": null, "city": "New York", "zip_code": "10002", "country": "US", "state": "NY", "display_address": ["162 E Broadway", "New York, NY 10002"]}, "phone": "+16468835453", "display_phone": "(646) 883-5453", "distance": 5299.423720694782}, {"id": "jKCSGAMyS0KIcS-vKpEuaA", "alias": "sammys-halal-food-new-york", "name": "Sammy's Halal Food", "image_url": "https://s3-media3.fl.yelpcdn.com/bphoto/RohIVTG29zszPKua82Z-2w/o.jpg", "is_closed": false, "url": "https://www.yelp.com/biz/sammys-halal-food-new-york?adjust_creative=9gNmiWYX8uTbFBeTTvJMdA&utm_campaign=yelp_api_v3&utm_medium=api_v3_business_search&utm_source=9gNmiWYX8uTbFBeTTvJMdA", "review_count": 127, "categories": [{"alias": "foodstands", "title": "Food Stands"}, {"alias": "mideastern", "title": "Middle Eastern"}, {"alias": "halal", "title": "Halal"}], "rating": 4.0, "coordinates": {"latitude": 40.73181469548427, "longitude": -74.00074109696479}, "transactions": ["delivery", "pickup"], "price": "$", "location": {"address1": "NE Corner 6th Ave W 4th St", "address2": "", "address3": "", "city": "New York", "zip_code": "10012", "country": "US", "state": "NY", "display_address": ["NE Corner 6th Ave W 4th St", "New York, NY 10012"]}, "phone": "+13478611902", "display_phone": "(347) 861-1902", "distance": 4018.628046301641}, {"id": "ZC6md0z2Uy6qJLZTaMFiKA", "alias": "pizza-party-time-ridgefield", "name": "Pizza Party Time", "image_url": "https://s3-media2.fl.yelpcdn.com/bphoto/Z253R-x0u9ghy6gtmSLkHw/o.jpg", "is_closed": false, "url": "https://www.yelp.com/biz/pizza-party-time-ridgefield?adjust_creative=9gNmiWYX8uTbFBeTTvJMdA&utm_campaign=yelp_api_v3&utm_medium=api_v3_business_search&utm_source=9gNmiWYX8uTbFBeTTvJMdA", "review_count": 51, "categories": [{"alias": "halal", "title": "Halal"}, {"alias": "pizza", "title": "Pizza"}, {"alias": "burgers", "title": "Burgers"}], "rating": 2.5, "coordinates": {"latitude": 40.8333954960108, "longitude": -74.0102194994688}, "transactions": ["pickup", "delivery"], "price": "$$", "location": {"address1": "599 Broad Ave", "address2": "", "address3": "", "city": "Ridgefield", "zip_code": "07657", "country": "US", "state": "NJ", "display_address": ["599 Broad Ave", "Ridgefield, NJ 07657"]}, "phone": "+12019432071", "display_phone": "(201) 943-2071", "distance": 9003.292436128098}, {"id": "KxyH5zvTyXawl17lHjA4SQ", "alias": "beyond-sushi-new-york-5", "name": "Beyond Sushi", "image_url": "https://s3-media4.fl.yelpcdn.com/bphoto/goQzfBqP_U7QqCs01IPqnA/o.jpg", "is_closed": false, "url": "https://www.yelp.com/biz/beyond-sushi-new-york-5?adjust_creative=9gNmiWYX8uTbFBeTTvJMdA&utm_campaign=yelp_api_v3&utm_medium=api_v3_business_search&utm_source=9gNmiWYX8uTbFBeTTvJMdA", "review_count": 684, "categories": [{"alias": "vegan", "title": "Vegan"}, {"alias": "vegetarian", "title": "Vegetarian"}, {"alias": "gluten_free", "title": "Gluten-Free"}], "rating": 4.5, "coordinates": {"latitude": 40.75247, "longitude": -73.98845}, "transactions": ["pickup", "delivery"], "price": "$$", "location": {"address1": "134 West 37th St", "address2": null, "address3": "", "city": "New York", "zip_code": "10018", "country": "US", "state": "NY", "display_address": ["134 West 37th St", "New York, NY 10018"]}, "phone": "+12125640869", "display_phone": "(212) 564-0869", "distance": 1769.2843546564297}, {"id": "5xk_sMKB5S-uo_6mgJqA9A", "alias": "sagar-restaurant-jamaica", "name": "Sagar Restaurant", "image_url": "https://s3-media2.fl.yelpcdn.com/bphoto/kUoV-p2wQ448d0ftIJ-CqQ/o.jpg", "is_closed": false, "url": "https://www.yelp.com/biz/sagar-restaurant-jamaica?adjust_creative=9gNmiWYX8uTbFBeTTvJMdA&utm_campaign=yelp_api_v3&utm_medium=api_v3_business_search&utm_source=9gNmiWYX8uTbFBeTTvJMdA", "review_count": 118, "categories": [{"alias": "indpak", "title": "Indian"}, {"alias": "pakistani", "title": "Pakistani"}, {"alias": "bangladeshi", "title": "Bangladeshi"}], "rating": 3.5, "coordinates": {"latitude": 40.71173, "longitude": -73.79021}, "transactions": ["pickup", "delivery"], "price": "$", "location": {"address1": "168-25B Hillside Ave", "address2": "", "address3": "", "city": "Jamaica", "zip_code": "11432", "country": "US", "state": "NY", "display_address": ["168-25B Hillside Ave", "Jamaica, NY 11432"]}, "phone": "+17182985696", "display_phone": "(718) 298-5696", "distance": 15739.28374865818}, {"id": "KagmtEnikPmbf0In5Kgkuw", "alias": "mezbani-sweets-and-restaurant-brooklyn", "name": "Mezbani Sweets & Restaurant", "image_url": "", "is_closed": false, "url": "https://www.yelp.com/biz/mezbani-sweets-and-restaurant-brooklyn?adjust_creative=9gNmiWYX8uTbFBeTTvJMdA&utm_campaign=yelp_api_v3&utm_medium=api_v3_business_search&utm_source=9gNmiWYX8uTbFBeTTvJMdA", "review_count": 3, "categories": [{"alias": "indpak", "title": "Indian"}], "rating": 2.5, "coordinates": {"latitude": 40.64261, "longitude": -73.97916}, "transactions": ["pickup", "delivery"], "location": {"address1": "473 McDonald Ave", "address2": null, "address3": "", "city": "Brooklyn", "zip_code": "11218", "country": "US", "state": "NY", "display_address": ["473 McDonald Ave", "Brooklyn, NY 11218"]}, "phone": "+16462904306", "display_phone": "(646) 290-4306", "distance": 12987.225588424064}, {"id": "TB9jN3Fe-JHjyjYWmIQ_EA", "alias": "kabab-and-curry-cafe-jackson-heights", "name": "Kabab & Curry Cafe", "image_url": "https://s3-media2.fl.yelpcdn.com/bphoto/o7zNRQfDoX4i7lC5PY54gw/o.jpg", "is_closed": false, "url": "https://www.yelp.com/biz/kabab-and-curry-cafe-jackson-heights?adjust_creative=9gNmiWYX8uTbFBeTTvJMdA&utm_campaign=yelp_api_v3&utm_medium=api_v3_business_search&utm_source=9gNmiWYX8uTbFBeTTvJMdA", "review_count": 1, "categories": [{"alias": "indpak", "title": "Indian"}, {"alias": "halal", "title": "Halal"}], "rating": 4.0, "coordinates": {"latitude": 40.7477283924279, "longitude": -73.8914734125137}, "transactions": [], "location": {"address1": "37-49 74th St", "address2": "", "address3": "", "city": "Jackson Heights", "zip_code": "11372", "country": "US", "state": "NY", "display_address": ["37-49 74th St", "Jackson Heights, NY 11372"]}, "phone": "", "display_phone": "", "distance": 6700.628448803738}, {"id": "GN4-wXUXgfuMO4KHa76J5w", "alias": "addys-barbeque-astoria-2", "name": "Addy's Barbeque", "image_url": "https://s3-media1.fl.yelpcdn.com/bphoto/lrmyzLMNKctLiAdDnOOAKw/o.jpg", "is_closed": false, "url": "https://www.yelp.com/biz/addys-barbeque-astoria-2?adjust_creative=9gNmiWYX8uTbFBeTTvJMdA&utm_campaign=yelp_api_v3&utm_medium=api_v3_business_search&utm_source=9gNmiWYX8uTbFBeTTvJMdA", "review_count": 198, "categories": [{"alias": "halal", "title": "Halal"}, {"alias": "bbq", "title": "Barbeque"}, {"alias": "burgers", "title": "Burgers"}], "rating": 4.0, "coordinates": {"latitude": 40.76169, "longitude": -73.91708}, "transactions": ["pickup", "delivery"], "price": "$$", "location": {"address1": "30-94 Steinway St", "address2": null, "address3": "", "city": "Astoria", "zip_code": "11103", "country": "US", "state": "NY", "display_address": ["30-94 Steinway St", "Astoria, NY 11103"]}, "phone": "+17184339568", "display_phone": "(718) 433-9568", "distance": 4434.352632094622}, {"id": "1ygF7_9FSHLdKimdiS8xeA", "alias": "shaheen-sweets-jamaica-2", "name": "Shaheen Sweets", "image_url": "https://s3-media2.fl.yelpcdn.com/bphoto/XhpGYraYKr1g68A0zgqSKA/o.jpg", "is_closed": false, "url": "https://www.yelp.com/biz/shaheen-sweets-jamaica-2?adjust_creative=9gNmiWYX8uTbFBeTTvJMdA&utm_campaign=yelp_api_v3&utm_medium=api_v3_business_search&utm_source=9gNmiWYX8uTbFBeTTvJMdA", "review_count": 34, "categories": [{"alias": "bakeries", "title": "Bakeries"}, {"alias": "pakistani", "title": "Pakistani"}, {"alias": "indpak", "title": "Indian"}], "rating": 4.5, "coordinates": {"latitude": 40.7094341, "longitude": -73.7756475}, "transactions": ["delivery"], "location": {"address1": "184-13 Jamaica Ave", "address2": "", "address3": null, "city": "Jamaica", "zip_code": "11423", "country": "US", "state": "NY", "display_address": ["184-13 Jamaica Ave", "Jamaica, NY 11423"]}, "phone": "+18337424336", "display_phone": "(833) 742-4336", "distance": 17250.40058328026}, {"id": "HwvG1FXbVunyHOZCYZSblA", "alias": "geo-halal-meat-cash-and-carry-jersey-city", "name": "Geo Halal Meat Cash & Carry", "image_url": "https://s3-media2.fl.yelpcdn.com/bphoto/epFV2Gl0faMhPBhQrrVhVg/o.jpg", "is_closed": false, "url": "https://www.yelp.com/biz/geo-halal-meat-cash-and-carry-jersey-city?adjust_creative=9gNmiWYX8uTbFBeTTvJMdA&utm_campaign=yelp_api_v3&utm_medium=api_v3_business_search&utm_source=9gNmiWYX8uTbFBeTTvJMdA", "review_count": 7, "categories": [{"alias": "halal", "title": "Halal"}, {"alias": "pakistani", "title": "Pakistani"}], "rating": 3.5, "coordinates": {"latitude": 40.7355461120605, "longitude": -74.0709762573242}, "transactions": ["delivery"], "price": "$", "location": {"address1": "1059 W Side Ave", "address2": "", "address3": "", "city": "Jersey City", "zip_code": "07306", "country": "US", "state": "NJ", "display_address": ["1059 W Side Ave", "Jersey City, NJ 07306"]}, "phone": "+12013959600", "display_phone": "(201) 395-9600", "distance": 8935.16753252542}, {"id": "5YFgQpN3AnlLFG4m5fCvzA", "alias": "gulshan-terrace-woodside", "name": "Gulshan Terrace", "image_url": "https://s3-media3.fl.yelpcdn.com/bphoto/EA1PIc8jCZZvZMYuGUFyng/o.jpg", "is_closed": false, "url": "https://www.yelp.com/biz/gulshan-terrace-woodside?adjust_creative=9gNmiWYX8uTbFBeTTvJMdA&utm_campaign=yelp_api_v3&utm_medium=api_v3_business_search&utm_source=9gNmiWYX8uTbFBeTTvJMdA", "review_count": 3, "categories": [{"alias": "indpak", "title": "Indian"}, {"alias": "bangladeshi", "title": "Bangladeshi"}], "rating": 4.0, "coordinates": {"latitude": 40.7498753, "longitude": -73.9027518}, "transactions": [], "location": {"address1": "5915 37th Ave", "address2": "", "address3": "", "city": "Woodside", "zip_code": "11377", "country": "US", "state": "NY", "display_address": ["5915 37th Ave", "Woodside, NY 11377"]}, "phone": "+17184574577", "display_phone": "(718) 457-4577", "distance": 5722.732203062042}, {"id": "pzVUUB9bXZMK8KvRLOoUWg", "alias": "kiran-continental-indian-cuisine-new-york", "name": "Kiran Continental Indian Cuisine", "image_url": "", "is_closed": false, "url": "https://www.yelp.com/biz/kiran-continental-indian-cuisine-new-york?adjust_creative=9gNmiWYX8uTbFBeTTvJMdA&utm_campaign=yelp_api_v3&utm_medium=api_v3_business_search&utm_source=9gNmiWYX8uTbFBeTTvJMdA", "review_count": 1, "categories": [{"alias": "indpak", "title": "Indian"}], "rating": 3.0, "coordinates": {"latitude": 40.71463, "longitude": -74.00752}, "transactions": ["pickup", "delivery"], "price": "$$", "location": {"address1": "94 Chambers St", "address2": "", "address3": "", "city": "New York", "zip_code": "10007", "country": "US", "state": "NY", "display_address": ["94 Chambers St", "New York, NY 10007"]}, "phone": "+12127324893", "display_phone": "(212) 732-4893", "distance": 5900.671996167851}, {"id": "ePd-Nprv6zvw2b3uaocvQQ", "alias": "chat-and-juice-express-jersey-city-2", "name": "Chat and Juice Express", "image_url": "https://s3-media4.fl.yelpcdn.com/bphoto/ybDIacjHD2pDjeo6ghtyFQ/o.jpg", "is_closed": false, "url": "https://www.yelp.com/biz/chat-and-juice-express-jersey-city-2?adjust_creative=9gNmiWYX8uTbFBeTTvJMdA&utm_campaign=yelp_api_v3&utm_medium=api_v3_business_search&utm_source=9gNmiWYX8uTbFBeTTvJMdA", "review_count": 3, "categories": [{"alias": "indpak", "title": "Indian"}], "rating": 3.5, "coordinates": {"latitude": 40.73473, "longitude": -74.06296}, "transactions": ["pickup", "delivery"], "location": {"address1": "2978 John Fitzgerald Kennedy Blvd", "address2": "", "address3": null, "city": "Jersey City", "zip_code": "07306", "country": "US", "state": "NJ", "display_address": ["2978 John Fitzgerald Kennedy Blvd", "Jersey City, NJ 07306"]}, "phone": "", "display_phone": "", "distance": 8320.48954812538}, {"id": "GAEWqwtT_EXLA09y_2oYPQ", "alias": "rao-and-reddy-s-jersey-city", "name": "Rao and Reddy\u2019s", "image_url": "https://s3-media2.fl.yelpcdn.com/bphoto/npoJP_E0X2YdqdAqkjHRTQ/o.jpg", "is_closed": false, "url": "https://www.yelp.com/biz/rao-and-reddy-s-jersey-city?adjust_creative=9gNmiWYX8uTbFBeTTvJMdA&utm_campaign=yelp_api_v3&utm_medium=api_v3_business_search&utm_source=9gNmiWYX8uTbFBeTTvJMdA", "review_count": 1, "categories": [{"alias": "fooddeliveryservices", "title": "Food Delivery Services"}, {"alias": "chickenshop", "title": "Chicken Shop"}, {"alias": "indpak", "title": "Indian"}], "rating": 4.0, "coordinates": {"latitude": 40.735305, "longitude": -74.064154}, "transactions": ["pickup", "delivery"], "location": {"address1": "779 Newark Ave", "address2": null, "address3": null, "city": "Jersey City", "zip_code": "07306", "country": "US", "state": "NJ", "display_address": ["779 Newark Ave", "Jersey City, NJ 07306"]}, "phone": "+12014922247", "display_phone": "(201) 492-2247", "distance": 8396.977393717561}, {"id": "eT2rROrWDAr0auGYqQrp9A", "alias": "layali-beirut-cafe-restaurant-astoria", "name": "Layali Beirut Cafe Restaurant", "image_url": "https://s3-media3.fl.yelpcdn.com/bphoto/cOZHYRBodQ5FLC6tR2aozA/o.jpg", "is_closed": false, "url": "https://www.yelp.com/biz/layali-beirut-cafe-restaurant-astoria?adjust_creative=9gNmiWYX8uTbFBeTTvJMdA&utm_campaign=yelp_api_v3&utm_medium=api_v3_business_search&utm_source=9gNmiWYX8uTbFBeTTvJMdA", "review_count": 133, "categories": [{"alias": "hookah_bars", "title": "Hookah Bars"}, {"alias": "halal", "title": "Halal"}, {"alias": "lebanese", "title": "Lebanese"}], "rating": 3.5, "coordinates": {"latitude": 40.76658, "longitude": -73.9131}, "transactions": ["delivery"], "price": "$$", "location": {"address1": "25-60 Steinway St", "address2": null, "address3": "", "city": "Astoria", "zip_code": "11102", "country": "US", "state": "NY", "display_address": ["25-60 Steinway St", "Astoria, NY 11102"]}, "phone": "+17187211400", "display_phone": "(718) 721-1400", "distance": 4831.839008418656}, {"id": "XgI1wysexzC8enIrcae0wg", "alias": "cleanse-theory-kitchen-new-york", "name": "Cleanse Theory Kitchen", "image_url": "https://s3-media4.fl.yelpcdn.com/bphoto/GWbhrvqU2A7UeKcWlOn9Xw/o.jpg", "is_closed": false, "url": "https://www.yelp.com/biz/cleanse-theory-kitchen-new-york?adjust_creative=9gNmiWYX8uTbFBeTTvJMdA&utm_campaign=yelp_api_v3&utm_medium=api_v3_business_search&utm_source=9gNmiWYX8uTbFBeTTvJMdA", "review_count": 19, "categories": [{"alias": "comfortfood", "title": "Comfort Food"}, {"alias": "vegan", "title": "Vegan"}, {"alias": "gluten_free", "title": "Gluten-Free"}], "rating": 4.5, "coordinates": {"latitude": 40.7132824, "longitude": -73.9934821}, "transactions": ["pickup", "delivery"], "location": {"address1": "83 Henry St", "address2": null, "address3": null, "city": "New York", "zip_code": "10002", "country": "US", "state": "NY", "display_address": ["83 Henry St", "New York, NY 10002"]}, "phone": "+12122138266", "display_phone": "(212) 213-8266", "distance": 5486.179229407788}, {"id": "OQjI8bMxpnx-9WKzyGqfmg", "alias": "spicy-tibet-jackson-heights", "name": "Spicy Tibet", "image_url": "https://s3-media2.fl.yelpcdn.com/bphoto/8p5-bc8656qOjKMJDSd5HA/o.jpg", "is_closed": false, "url": "https://www.yelp.com/biz/spicy-tibet-jackson-heights?adjust_creative=9gNmiWYX8uTbFBeTTvJMdA&utm_campaign=yelp_api_v3&utm_medium=api_v3_business_search&utm_source=9gNmiWYX8uTbFBeTTvJMdA", "review_count": 90, "categories": [{"alias": "himalayan", "title": "Himalayan/Nepalese"}], "rating": 4.0, "coordinates": {"latitude": 40.7468366, "longitude": -73.8902328}, "transactions": ["delivery"], "price": "$", "location": {"address1": "75-04 Roosevelt Ave", "address2": "", "address3": "", "city": "Jackson Heights", "zip_code": "11372", "country": "US", "state": "NY", "display_address": ["75-04 Roosevelt Ave", "Jackson Heights, NY 11372"]}, "phone": "+17187797500", "display_phone": "(718) 779-7500", "distance": 6822.546259598411}, {"id": "WQsUxoxiK16qwTkj9swx_w", "alias": "south-asain-family-restaurant-jackson-heights", "name": "South Asain Family Restaurant", "image_url": "https://s3-media1.fl.yelpcdn.com/bphoto/mQWryPze9JGBvdaqdwy8_w/o.jpg", "is_closed": false, "url": "https://www.yelp.com/biz/south-asain-family-restaurant-jackson-heights?adjust_creative=9gNmiWYX8uTbFBeTTvJMdA&utm_campaign=yelp_api_v3&utm_medium=api_v3_business_search&utm_source=9gNmiWYX8uTbFBeTTvJMdA", "review_count": 1, "categories": [{"alias": "indpak", "title": "Indian"}], "rating": 3.0, "coordinates": {"latitude": 40.7489464, "longitude": -73.8905259}, "transactions": [], "location": {"address1": "75-18 37th Ave", "address2": null, "address3": "", "city": "Jackson Heights", "zip_code": "11372", "country": "US", "state": "NY", "display_address": ["75-18 37th Ave", "Jackson Heights, NY 11372"]}, "phone": "+17184266888", "display_phone": "(718) 426-6888", "distance": 6768.057899017999}, {"id": "x4Xptj-YNZ-aGNhn4XyfsA", "alias": "india-palace-restaurant-jersey-city", "name": "India Palace Restaurant", "image_url": "", "is_closed": false, "url": "https://www.yelp.com/biz/india-palace-restaurant-jersey-city?adjust_creative=9gNmiWYX8uTbFBeTTvJMdA&utm_campaign=yelp_api_v3&utm_medium=api_v3_business_search&utm_source=9gNmiWYX8uTbFBeTTvJMdA", "review_count": 1, "categories": [{"alias": "indpak", "title": "Indian"}, {"alias": "pakistani", "title": "Pakistani"}], "rating": 4.0, "coordinates": {"latitude": 40.73554, "longitude": -74.07097}, "transactions": [], "location": {"address1": "1059 W Side Ave", "address2": "", "address3": "", "city": "Jersey City", "zip_code": "07306", "country": "US", "state": "NJ", "display_address": ["1059 W Side Ave", "Jersey City, NJ 07306"]}, "phone": "+12013959600", "display_phone": "(201) 395-9600", "distance": 8935.16753252542}, {"id": "TfcgMk-opbOotBSbxVEOdw", "alias": "fomo-momo-jersey-city", "name": "Fomo Momo", "image_url": "https://s3-media2.fl.yelpcdn.com/bphoto/3DqSns2EaB1V528odCKkiw/o.jpg", "is_closed": false, "url": "https://www.yelp.com/biz/fomo-momo-jersey-city?adjust_creative=9gNmiWYX8uTbFBeTTvJMdA&utm_campaign=yelp_api_v3&utm_medium=api_v3_business_search&utm_source=9gNmiWYX8uTbFBeTTvJMdA", "review_count": 3, "categories": [{"alias": "foodstands", "title": "Food Stands"}, {"alias": "himalayan", "title": "Himalayan/Nepalese"}], "rating": 3.0, "coordinates": {"latitude": 40.71963392976657, "longitude": -74.04683762380401}, "transactions": [], "location": {"address1": null, "address2": null, "address3": null, "city": "Jersey City", "zip_code": "07302", "country": "US", "state": "NJ", "display_address": ["Jersey City, NJ 07302"]}, "phone": "+13476379335", "display_phone": "(347) 637-9335", "distance": 7855.255113799002}, {"id": "beILZHnGvC98CO59aOmo1w", "alias": "island-grocery-staten-island-4", "name": "Island Grocery", "image_url": "https://s3-media3.fl.yelpcdn.com/bphoto/DMoiBpuADos0H-HcTfi3vg/o.jpg", "is_closed": false, "url": "https://www.yelp.com/biz/island-grocery-staten-island-4?adjust_creative=9gNmiWYX8uTbFBeTTvJMdA&utm_campaign=yelp_api_v3&utm_medium=api_v3_business_search&utm_source=9gNmiWYX8uTbFBeTTvJMdA", "review_count": 16, "categories": [{"alias": "grocery", "title": "Grocery"}, {"alias": "halal", "title": "Halal"}, {"alias": "indpak", "title": "Indian"}], "rating": 3.5, "coordinates": {"latitude": 40.6131963057268, "longitude": -74.1232953978945}, "transactions": [], "price": "$", "location": {"address1": "1791 Victory Blvd", "address2": null, "address3": "", "city": "Staten Island", "zip_code": "10314", "country": "US", "state": "NY", "display_address": ["1791 Victory Blvd", "Staten Island, NY 10314"]}, "phone": "+17182735843", "display_phone": "(718) 273-5843", "distance": 20772.075647857335}, {"id": "yxNl-s1wpguz-7BnQ-EbTA", "alias": "friend-restaurant-richmond-hill", "name": "Friend Restaurant", "image_url": "https://s3-media2.fl.yelpcdn.com/bphoto/J9vPoAhw_5qZAvR3ohhcEQ/o.jpg", "is_closed": false, "url": "https://www.yelp.com/biz/friend-restaurant-richmond-hill?adjust_creative=9gNmiWYX8uTbFBeTTvJMdA&utm_campaign=yelp_api_v3&utm_medium=api_v3_business_search&utm_source=9gNmiWYX8uTbFBeTTvJMdA", "review_count": 15, "categories": [{"alias": "chinese", "title": "Chinese"}, {"alias": "indpak", "title": "Indian"}], "rating": 3.5, "coordinates": {"latitude": 40.6879992, "longitude": -73.8333652}, "transactions": ["pickup", "delivery"], "price": "$$$", "location": {"address1": "110-15 101st Ave", "address2": "", "address3": "", "city": "Richmond Hill", "zip_code": "11419", "country": "US", "state": "NY", "display_address": ["110-15 101st Ave", "Richmond Hill, NY 11419"]}, "phone": "+17184415484", "display_phone": "(718) 441-5484", "distance": 13948.292955545678}, {"id": "o8KtWVBIVI9E3YYM5r0dPw", "alias": "damas-falafel-house-brooklyn", "name": "Damas Falafel House", "image_url": "https://s3-media3.fl.yelpcdn.com/bphoto/F88WuPgWTd6sAQ6mxzEZ1A/o.jpg", "is_closed": false, "url": "https://www.yelp.com/biz/damas-falafel-house-brooklyn?adjust_creative=9gNmiWYX8uTbFBeTTvJMdA&utm_campaign=yelp_api_v3&utm_medium=api_v3_business_search&utm_source=9gNmiWYX8uTbFBeTTvJMdA", "review_count": 130, "categories": [{"alias": "falafel", "title": "Falafel"}, {"alias": "vegetarian", "title": "Vegetarian"}, {"alias": "sandwiches", "title": "Sandwiches"}], "rating": 3.5, "coordinates": {"latitude": 40.693359375, "longitude": -73.9695205688477}, "transactions": ["pickup", "delivery"], "price": "$", "location": {"address1": "407 Myrtle Ave", "address2": "", "address3": "", "city": "Brooklyn", "zip_code": "11205", "country": "US", "state": "NY", "display_address": ["407 Myrtle Ave", "Brooklyn, NY 11205"]}, "phone": "+17188526677", "display_phone": "(718) 852-6677", "distance": 7327.628241507059}, {"id": "VoLKyjzeHyXfnDoXhKgN2Q", "alias": "namaste-junction-queens-2", "name": "Namaste Junction", "image_url": "https://s3-media1.fl.yelpcdn.com/bphoto/PUQxhFDAu4kkJ1YrUFWaxg/o.jpg", "is_closed": false, "url": "https://www.yelp.com/biz/namaste-junction-queens-2?adjust_creative=9gNmiWYX8uTbFBeTTvJMdA&utm_campaign=yelp_api_v3&utm_medium=api_v3_business_search&utm_source=9gNmiWYX8uTbFBeTTvJMdA", "review_count": 1, "categories": [{"alias": "indpak", "title": "Indian"}, {"alias": "desserts", "title": "Desserts"}], "rating": 5.0, "coordinates": {"latitude": 40.7527706, "longitude": -73.8712745}, "transactions": ["delivery"], "location": {"address1": "35-21 Jct Blvd", "address2": "", "address3": null, "city": "Queens", "zip_code": "11368", "country": "US", "state": "NY", "display_address": ["35-21 Jct Blvd", "Queens, NY 11368"]}, "phone": "+13478080000", "display_phone": "(347) 808-0000", "distance": 8328.607969760273}, {"id": "eob2iJPiR7-r2w4he0Tuig", "alias": "mill-basin-kosher-deli-brooklyn-3", "name": "Mill Basin Kosher Deli", "image_url": "https://s3-media1.fl.yelpcdn.com/bphoto/BMmNkRtQ899dc8EqyIlJpQ/o.jpg", "is_closed": false, "url": "https://www.yelp.com/biz/mill-basin-kosher-deli-brooklyn-3?adjust_creative=9gNmiWYX8uTbFBeTTvJMdA&utm_campaign=yelp_api_v3&utm_medium=api_v3_business_search&utm_source=9gNmiWYX8uTbFBeTTvJMdA", "review_count": 238, "categories": [{"alias": "delis", "title": "Delis"}, {"alias": "kosher", "title": "Kosher"}], "rating": 3.5, "coordinates": {"latitude": 40.61567, "longitude": -73.91812}, "transactions": ["pickup", "delivery"], "price": "$$", "location": {"address1": "5823 Ave T", "address2": "", "address3": "", "city": "Brooklyn", "zip_code": "11234", "country": "US", "state": "NY", "display_address": ["5823 Ave T", "Brooklyn, NY 11234"]}, "phone": "+17182414910", "display_phone": "(718) 241-4910", "distance": 16529.05763940663}], "total": 902, "region": {"center": {"longitude": -73.96957397460938, "latitude": 40.75917470627005}}}