{"businesses": [{"id": "nfUDBgJ_5fDNT39wPYxLDQ", "alias": "royal-grill-new-york-4", "name": "Royal Grill", "image_url": "", "is_closed": false, "url": "https://www.yelp.com/biz/royal-grill-new-york-4?adjust_creative=9gNmiWYX8uTbFBeTTvJMdA&utm_campaign=yelp_api_v3&utm_medium=api_v3_business_search&utm_source=9gNmiWYX8uTbFBeTTvJMdA", "review_count": 1, "categories": [{"alias": "halal", "title": "Halal"}, {"alias": "indpak", "title": "Indian"}, {"alias": "foodtrucks", "title": "Food Trucks"}], "rating": 3.0, "coordinates": {"latitude": 40.75605, "longitude": -73.98386}, "transactions": ["pickup"], "location": {"address1": "1133 6th Ave", "address2": null, "address3": null, "city": "New York", "zip_code": "10036", "country": "US", "state": "NY", "display_address": ["1133 6th Ave", "New York, NY 10036"]}, "phone": "+13477240504", "display_phone": "(347) 724-0504", "distance": 1236.2496614722133}, {"id": "-PCQyh7uZPBamQYfpI8RBw", "alias": "dosa-hut-jersey-city", "name": "Dosa Hut", "image_url": "https://s3-media1.fl.yelpcdn.com/bphoto/Dc8aq9nBrJNr1II0eyck7A/o.jpg", "is_closed": false, "url": "https://www.yelp.com/biz/dosa-hut-jersey-city?adjust_creative=9gNmiWYX8uTbFBeTTvJMdA&utm_campaign=yelp_api_v3&utm_medium=api_v3_business_search&utm_source=9gNmiWYX8uTbFBeTTvJMdA", "review_count": 129, "categories": [{"alias": "indpak", "title": "Indian"}], "rating": 3.0, "coordinates": {"latitude": 40.7352599, "longitude": -74.06407}, "transactions": ["pickup", "delivery"], "price": "$", "location": {"address1": "777 Newark Ave", "address2": "", "address3": "", "city": "Jersey City", "zip_code": "07306", "country": "US", "state": "NJ", "display_address": ["777 Newark Ave", "Jersey City, NJ 07306"]}, "phone": "+12014206660", "display_phone": "(201) 420-6660", "distance": 8396.263035645916}, {"id": "RFiR-vXB46apdqHYr4S57w", "alias": "k2-delights-jackson-heights-4", "name": "K2 Delights", "image_url": "https://s3-media2.fl.yelpcdn.com/bphoto/fZuuUhxrs2BzJbi9PF0W-A/o.jpg", "is_closed": false, "url": "https://www.yelp.com/biz/k2-delights-jackson-heights-4?adjust_creative=9gNmiWYX8uTbFBeTTvJMdA&utm_campaign=yelp_api_v3&utm_medium=api_v3_business_search&utm_source=9gNmiWYX8uTbFBeTTvJMdA", "review_count": 11, "categories": [{"alias": "himalayan", "title": "Himalayan/Nepalese"}, {"alias": "pakistani", "title": "Pakistani"}, {"alias": "halal", "title": "Halal"}], "rating": 3.5, "coordinates": {"latitude": 40.74732, "longitude": -73.8918}, "transactions": ["delivery"], "price": "$", "location": {"address1": "73-19 37th Rd", "address2": "Store A", "address3": "", "city": "Jackson Heights", "zip_code": "11372", "country": "US", "state": "NY", "display_address": ["73-19 37th Rd", "Store A", "Jackson Heights, NY 11372"]}, "phone": "+17185652133", "display_phone": "(718) 565-2133", "distance": 6682.021223785111}, {"id": "LpQIn07liSugCw3IIQNyvA", "alias": "mela-on-the-sixth-manhattan", "name": "Mela on the Sixth", "image_url": "", "is_closed": false, "url": "https://www.yelp.com/biz/mela-on-the-sixth-manhattan?adjust_creative=9gNmiWYX8uTbFBeTTvJMdA&utm_campaign=yelp_api_v3&utm_medium=api_v3_business_search&utm_source=9gNmiWYX8uTbFBeTTvJMdA", "review_count": 4, "categories": [{"alias": "indpak", "title": "Indian"}], "rating": 2.0, "coordinates": {"latitude": 40.72677, "longitude": -73.98761}, "transactions": [], "location": {"address1": "320 E 6th St", "address2": "", "address3": "", "city": "Manhattan", "zip_code": "10003", "country": "US", "state": "NY", "display_address": ["320 E 6th St", "Manhattan, NY 10003"]}, "phone": "+12122608229", "display_phone": "(212) 260-8229", "distance": 3904.0131799184637}, {"id": "XmF1jvsDpS49sy040Uge4A", "alias": "tikka-cravings-jersey-city", "name": "Tikka Cravings", "image_url": "https://s3-media3.fl.yelpcdn.com/bphoto/TWxEY5KAuzlZSS8fwRFCjw/o.jpg", "is_closed": false, "url": "https://www.yelp.com/biz/tikka-cravings-jersey-city?adjust_creative=9gNmiWYX8uTbFBeTTvJMdA&utm_campaign=yelp_api_v3&utm_medium=api_v3_business_search&utm_source=9gNmiWYX8uTbFBeTTvJMdA", "review_count": 1, "categories": [{"alias": "indpak", "title": "Indian"}], "rating": 4.0, "coordinates": {"latitude": 40.7352, "longitude": -74.06727}, "transactions": ["delivery"], "location": {"address1": "117 Tonnelle Ave", "address2": "", "address3": null, "city": "Jersey City", "zip_code": "07306", "country": "US", "state": "NJ", "display_address": ["117 Tonnelle Ave", "Jersey City, NJ 07306"]}, "phone": "", "display_phone": "", "distance": 8646.379865916879}, {"id": "sPCbaWKFzV7UHilHJLhTJw", "alias": "vegans-delight-new-york", "name": "Vegans Delight", "image_url": "https://s3-media2.fl.yelpcdn.com/bphoto/JAVYC8KPD3Tg1Cue5OIEhQ/o.jpg", "is_closed": false, "url": "https://www.yelp.com/biz/vegans-delight-new-york?adjust_creative=9gNmiWYX8uTbFBeTTvJMdA&utm_campaign=yelp_api_v3&utm_medium=api_v3_business_search&utm_source=9gNmiWYX8uTbFBeTTvJMdA", "review_count": 56, "categories": [{"alias": "vegan", "title": "Vegan"}, {"alias": "grocery", "title": "Grocery"}], "rating": 4.5, "coordinates": {"latitude": 40.878643, "longitude": -73.844436}, "transactions": ["delivery"], "price": "$", "location": {"address1": "3565 Boston Rd", "address2": "", "address3": "", "city": "New York", "zip_code": "10469", "country": "US", "state": "NY", "display_address": ["3565 Boston Rd", "New York, NY 10469"]}, "phone": "+17186534140", "display_phone": "(718) 653-4140", "distance": 16956.709190141613}, {"id": "V3mSoUHcuFQwDHBPLTSbdg", "alias": "king-kabab-jamaica", "name": "King Kabab", "image_url": "https://s3-media2.fl.yelpcdn.com/bphoto/8LUwnyS8FZMcRBIzlzLvyw/o.jpg", "is_closed": false, "url": "https://www.yelp.com/biz/king-kabab-jamaica?adjust_creative=9gNmiWYX8uTbFBeTTvJMdA&utm_campaign=yelp_api_v3&utm_medium=api_v3_business_search&utm_source=9gNmiWYX8uTbFBeTTvJMdA", "review_count": 38, "categories": [{"alias": "indpak", "title": "Indian"}, {"alias": "halal", "title": "Halal"}, {"alias": "pakistani", "title": "Pakistani"}], "rating": 3.5, "coordinates": {"latitude": 40.7096623368022, "longitude": -73.796104238621}, "transactions": ["pickup"], "price": "$", "location": {"address1": "167-09 Hillside Ave", "address2": "", "address3": "", "city": "Jamaica", "zip_code": "11432", "country": "US", "state": "NY", "display_address": ["167-09 Hillside Ave", "Jamaica, NY 11432"]}, "phone": "+17185264968", "display_phone": "(718) 526-4968", "distance": 15618.558135593457}, {"id": "-DT3bduqJca_u3DGDarUkw", "alias": "laziz-international-inc-new-york", "name": "Laziz International Inc", "image_url": "https://s3-media3.fl.yelpcdn.com/bphoto/mKlh5M-3LXfv73tSQo-W5A/o.jpg", "is_closed": false, "url": "https://www.yelp.com/biz/laziz-international-inc-new-york?adjust_creative=9gNmiWYX8uTbFBeTTvJMdA&utm_campaign=yelp_api_v3&utm_medium=api_v3_business_search&utm_source=9gNmiWYX8uTbFBeTTvJMdA", "review_count": 9, "categories": [{"alias": "indpak", "title": "Indian"}], "rating": 2.5, "coordinates": {"latitude": 40.7417946, "longitude": -73.9827194}, "transactions": ["pickup", "delivery"], "price": "$", "location": {"address1": "134 E 27th St", "address2": "", "address3": "", "city": "New York", "zip_code": "10016", "country": "US", "state": "NY", "display_address": ["134 E 27th St", "New York, NY 10016"]}, "phone": "+12126831850", "display_phone": "(212) 683-1850", "distance": 2221.9539823744567}, {"id": "uXtaduMyk2oGdnHYR4ZafA", "alias": "vegetarian-palate-brooklyn", "name": "Vegetarian Palate", "image_url": "https://s3-media2.fl.yelpcdn.com/bphoto/gcK41W_8qlBE07TZr7Ke6w/o.jpg", "is_closed": false, "url": "https://www.yelp.com/biz/vegetarian-palate-brooklyn?adjust_creative=9gNmiWYX8uTbFBeTTvJMdA&utm_campaign=yelp_api_v3&utm_medium=api_v3_business_search&utm_source=9gNmiWYX8uTbFBeTTvJMdA", "review_count": 210, "categories": [{"alias": "chinese", "title": "Chinese"}, {"alias": "vegetarian", "title": "Vegetarian"}], "rating": 4.0, "coordinates": {"latitude": 40.679648, "longitude": -73.963867}, "transactions": ["pickup", "delivery"], "price": "$$", "location": {"address1": "603 Washington Ave", "address2": "", "address3": "", "city": "Brooklyn", "zip_code": "11238", "country": "US", "state": "NY", "display_address": ["603 Washington Ave", "Brooklyn, NY 11238"]}, "phone": "+17186238808", "display_phone": "(718) 623-8808", "distance": 8856.02633814052}, {"id": "ZzZ3KIXP4CqGJjbH4NnuxQ", "alias": "curry-box-rego-park", "name": "Curry Box", "image_url": "", "is_closed": false, "url": "https://www.yelp.com/biz/curry-box-rego-park?adjust_creative=9gNmiWYX8uTbFBeTTvJMdA&utm_campaign=yelp_api_v3&utm_medium=api_v3_business_search&utm_source=9gNmiWYX8uTbFBeTTvJMdA", "review_count": 3, "categories": [{"alias": "fooddeliveryservices", "title": "Food Delivery Services"}, {"alias": "indpak", "title": "Indian"}], "rating": 2.5, "coordinates": {"latitude": 40.72705, "longitude": -73.86268}, "transactions": [], "location": {"address1": null, "address2": null, "address3": null, "city": "Rego Park", "zip_code": "11374", "country": "US", "state": "NY", "display_address": ["Rego Park, NY 11374"]}, "phone": "+17185503559", "display_phone": "(718) 550-3559", "distance": 9764.698785919625}, {"id": "qf098TQ-Frxq4QyrlYqDJw", "alias": "hazar-turkish-kebab-brooklyn", "name": "Hazar Turkish Kebab", "image_url": "https://s3-media4.fl.yelpcdn.com/bphoto/89WSGJOXa240jFnrxAlm1A/o.jpg", "is_closed": false, "url": "https://www.yelp.com/biz/hazar-turkish-kebab-brooklyn?adjust_creative=9gNmiWYX8uTbFBeTTvJMdA&utm_campaign=yelp_api_v3&utm_medium=api_v3_business_search&utm_source=9gNmiWYX8uTbFBeTTvJMdA", "review_count": 176, "categories": [{"alias": "turkish", "title": "Turkish"}, {"alias": "halal", "title": "Halal"}], "rating": 3.5, "coordinates": {"latitude": 40.631191, "longitude": -74.022193}, "transactions": ["pickup", "delivery"], "price": "$$", "location": {"address1": "7224 5th Ave", "address2": "", "address3": "", "city": "Brooklyn", "zip_code": "11209", "country": "US", "state": "NY", "display_address": ["7224 5th Ave", "Brooklyn, NY 11209"]}, "phone": "+17182384040", "display_phone": "(718) 238-4040", "distance": 14905.480632123323}, {"id": "VLQrI-Qua7Ok02fAAuwvAA", "alias": "shandar-sweet-and-restaurant-brooklyn", "name": "Shandar Sweet & Restaurant", "image_url": "https://s3-media2.fl.yelpcdn.com/bphoto/G-TL9CYPdSKkipXDRV3atQ/o.jpg", "is_closed": false, "url": "https://www.yelp.com/biz/shandar-sweet-and-restaurant-brooklyn?adjust_creative=9gNmiWYX8uTbFBeTTvJMdA&utm_campaign=yelp_api_v3&utm_medium=api_v3_business_search&utm_source=9gNmiWYX8uTbFBeTTvJMdA", "review_count": 23, "categories": [{"alias": "indpak", "title": "Indian"}, {"alias": "halal", "title": "Halal"}, {"alias": "pakistani", "title": "Pakistani"}], "rating": 3.5, "coordinates": {"latitude": 40.64094, "longitude": -73.9689}, "transactions": ["pickup", "delivery"], "price": "$", "location": {"address1": "679 Coney Island Ave", "address2": "", "address3": "", "city": "Brooklyn", "zip_code": "11218", "country": "US", "state": "NY", "display_address": ["679 Coney Island Ave", "Brooklyn, NY 11218"]}, "phone": "+17187034400", "display_phone": "(718) 703-4400", "distance": 13146.954315777431}, {"id": "j7fFfjr8rIqXjfEJ4FUs2g", "alias": "virsa-ozone-park", "name": "Virsa", "image_url": "https://s3-media3.fl.yelpcdn.com/bphoto/NgoSLawSbVgStJQob-GWNQ/o.jpg", "is_closed": false, "url": "https://www.yelp.com/biz/virsa-ozone-park?adjust_creative=9gNmiWYX8uTbFBeTTvJMdA&utm_campaign=yelp_api_v3&utm_medium=api_v3_business_search&utm_source=9gNmiWYX8uTbFBeTTvJMdA", "review_count": 7, "categories": [{"alias": "indpak", "title": "Indian"}], "rating": 2.0, "coordinates": {"latitude": 40.6899266, "longitude": -73.8266505}, "transactions": ["pickup", "delivery"], "price": "$$", "location": {"address1": "118-5 101st Ave", "address2": "", "address3": null, "city": "Ozone Park", "zip_code": "11419", "country": "US", "state": "NY", "display_address": ["118-5 101st Ave", "Ozone Park, NY 11419"]}, "phone": "+17188056300", "display_phone": "(718) 805-6300", "distance": 14295.122802046597}, {"id": "hlbihpX8g_mL5A2Wjj8unw", "alias": "kaieteur-bronx-restaurant-and-bakery-bronx-3", "name": "Kaieteur Bronx Restaurant & Bakery", "image_url": "https://s3-media2.fl.yelpcdn.com/bphoto/jDln4pOJWkVz9r4nXj9tWw/o.jpg", "is_closed": false, "url": "https://www.yelp.com/biz/kaieteur-bronx-restaurant-and-bakery-bronx-3?adjust_creative=9gNmiWYX8uTbFBeTTvJMdA&utm_campaign=yelp_api_v3&utm_medium=api_v3_business_search&utm_source=9gNmiWYX8uTbFBeTTvJMdA", "review_count": 21, "categories": [{"alias": "bakeries", "title": "Bakeries"}, {"alias": "caribbean", "title": "Caribbean"}, {"alias": "indpak", "title": "Indian"}], "rating": 2.5, "coordinates": {"latitude": 40.89778982351, "longitude": -73.8548576879766}, "transactions": ["pickup", "delivery"], "location": {"address1": "4379 White Plains Rd", "address2": null, "address3": "", "city": "Bronx", "zip_code": "10466", "country": "US", "state": "NY", "display_address": ["4379 White Plains Rd", "Bronx, NY 10466"]}, "phone": "+17182318700", "display_phone": "(718) 231-8700", "distance": 18185.97465007501}, {"id": "0nPCpOj_okwdhrNcSL-Ztw", "alias": "786-moon-light-grill-richmond-hill", "name": "786 Moon Light Grill", "image_url": "https://s3-media1.fl.yelpcdn.com/bphoto/aSJU1BerwUKyQ9mowF8mtw/o.jpg", "is_closed": false, "url": "https://www.yelp.com/biz/786-moon-light-grill-richmond-hill?adjust_creative=9gNmiWYX8uTbFBeTTvJMdA&utm_campaign=yelp_api_v3&utm_medium=api_v3_business_search&utm_source=9gNmiWYX8uTbFBeTTvJMdA", "review_count": 6, "categories": [{"alias": "indpak", "title": "Indian"}, {"alias": "bangladeshi", "title": "Bangladeshi"}], "rating": 2.5, "coordinates": {"latitude": 40.69242, "longitude": -73.83469}, "transactions": [], "location": {"address1": "91-81 111th St", "address2": "", "address3": "", "city": "Richmond Hill", "zip_code": "11418", "country": "US", "state": "NY", "display_address": ["91-81 111th St", "Richmond Hill, NY 11418"]}, "phone": "+17184873648", "display_phone": "(718) 487-3648", "distance": 13574.073243983592}, {"id": "cxgM-1XqARYesvwqe7dW3Q", "alias": "porto-peri-peri-saddle-brook", "name": "Porto peri Peri", "image_url": "", "is_closed": false, "url": "https://www.yelp.com/biz/porto-peri-peri-saddle-brook?adjust_creative=9gNmiWYX8uTbFBeTTvJMdA&utm_campaign=yelp_api_v3&utm_medium=api_v3_business_search&utm_source=9gNmiWYX8uTbFBeTTvJMdA", "review_count": 1, "categories": [{"alias": "halal", "title": "Halal"}], "rating": 1.0, "coordinates": {"latitude": 40.89732221159609, "longitude": -74.09553264251578}, "transactions": [], "location": {"address1": "383 Market St", "address2": "", "address3": null, "city": "Saddle Brook", "zip_code": "07663", "country": "US", "state": "NJ", "display_address": ["383 Market St", "Saddle Brook, NJ 07663"]}, "phone": "", "display_phone": "", "distance": 18662.390012437838}, {"id": "_ArDQIKj5qHgmwNnnIaIIg", "alias": "i-am-thai-restaurant-woodside-2", "name": "I Am Thai Restaurant", "image_url": "https://s3-media1.fl.yelpcdn.com/bphoto/XsxNZrzXFFEp_9YtPvGlTw/o.jpg", "is_closed": false, "url": "https://www.yelp.com/biz/i-am-thai-restaurant-woodside-2?adjust_creative=9gNmiWYX8uTbFBeTTvJMdA&utm_campaign=yelp_api_v3&utm_medium=api_v3_business_search&utm_source=9gNmiWYX8uTbFBeTTvJMdA", "review_count": 314, "categories": [{"alias": "thai", "title": "Thai"}, {"alias": "seafood", "title": "Seafood"}, {"alias": "vegan", "title": "Vegan"}], "rating": 4.0, "coordinates": {"latitude": 40.7445421133747, "longitude": -73.9154577255249}, "transactions": ["pickup", "delivery"], "price": "$$", "location": {"address1": "49-08 43rd Ave", "address2": "", "address3": "", "city": "Woodside", "zip_code": "11377", "country": "US", "state": "NY", "display_address": ["49-08 43rd Ave", "Woodside, NY 11377"]}, "phone": "+17184577700", "display_phone": "(718) 457-7700", "distance": 4840.152738571214}, {"id": "NHbf-xMAv8akWBaate1srw", "alias": "desi-bites-cafe-south-richmond-hill", "name": "Desi Bites Cafe", "image_url": "", "is_closed": false, "url": "https://www.yelp.com/biz/desi-bites-cafe-south-richmond-hill?adjust_creative=9gNmiWYX8uTbFBeTTvJMdA&utm_campaign=yelp_api_v3&utm_medium=api_v3_business_search&utm_source=9gNmiWYX8uTbFBeTTvJMdA", "review_count": 1, "categories": [{"alias": "bakeries", "title": "Bakeries"}, {"alias": "burgers", "title": "Burgers"}, {"alias": "indpak", "title": "Indian"}], "rating": 4.0, "coordinates": {"latitude": 40.6894455, "longitude": -73.8283942}, "transactions": ["pickup", "delivery"], "location": {"address1": "116-03 101 Ave", "address2": null, "address3": null, "city": "South Richmond Hill", "zip_code": "11419", "country": "US", "state": "NY", "display_address": ["116-03 101 Ave", "South Richmond Hill, NY 11419"]}, "phone": "+17184806636", "display_phone": "(718) 480-6636", "distance": 14205.707971411468}, {"id": "-tI3uIKZVLc2YXWUdYWgjQ", "alias": "indian-curry-king-bronx", "name": "Indian Curry King", "image_url": "", "is_closed": false, "url": "https://www.yelp.com/biz/indian-curry-king-bronx?adjust_creative=9gNmiWYX8uTbFBeTTvJMdA&utm_campaign=yelp_api_v3&utm_medium=api_v3_business_search&utm_source=9gNmiWYX8uTbFBeTTvJMdA", "review_count": 1, "categories": [{"alias": "indpak", "title": "Indian"}], "rating": 1.0, "coordinates": {"latitude": 40.8284302, "longitude": -73.9166946}, "transactions": ["pickup", "delivery"], "location": {"address1": "980 Morris Ave", "address2": null, "address3": null, "city": "Bronx", "zip_code": "10456", "country": "US", "state": "NY", "display_address": ["980 Morris Ave", "Bronx, NY 10456"]}, "phone": "+13475770461", "display_phone": "(347) 577-0461", "distance": 8912.269969575518}, {"id": "bykNX7DuZc6hxjD07qtnow", "alias": "eatzy-chinese-jackson-heights-2", "name": "Eatzy Chinese", "image_url": "https://s3-media1.fl.yelpcdn.com/bphoto/w3ww6vy3wqPk8mNzOdKLkA/o.jpg", "is_closed": false, "url": "https://www.yelp.com/biz/eatzy-chinese-jackson-heights-2?adjust_creative=9gNmiWYX8uTbFBeTTvJMdA&utm_campaign=yelp_api_v3&utm_medium=api_v3_business_search&utm_source=9gNmiWYX8uTbFBeTTvJMdA", "review_count": 33, "categories": [{"alias": "chinese", "title": "Chinese"}, {"alias": "seafood", "title": "Seafood"}, {"alias": "indpak", "title": "Indian"}], "rating": 3.5, "coordinates": {"latitude": 40.748082852027835, "longitude": -73.89355332332363}, "transactions": ["pickup", "delivery"], "price": "$$", "location": {"address1": "37-21 72nd St", "address2": null, "address3": null, "city": "Jackson Heights", "zip_code": "11372", "country": "US", "state": "NY", "display_address": ["37-21 72nd St", "Jackson Heights, NY 11372"]}, "phone": "+17185339131", "display_phone": "(718) 533-9131", "distance": 6521.11999035177}, {"id": "ju6btoDb3UFhnmmPwrOWgA", "alias": "benis-south-richmond-hill-2", "name": "Beni's", "image_url": "https://s3-media2.fl.yelpcdn.com/bphoto/JwhUOJGKNjfv2c89V9FSJw/o.jpg", "is_closed": false, "url": "https://www.yelp.com/biz/benis-south-richmond-hill-2?adjust_creative=9gNmiWYX8uTbFBeTTvJMdA&utm_campaign=yelp_api_v3&utm_medium=api_v3_business_search&utm_source=9gNmiWYX8uTbFBeTTvJMdA", "review_count": 10, "categories": [{"alias": "caribbean", "title": "Caribbean"}, {"alias": "indpak", "title": "Indian"}, {"alias": "chinese", "title": "Chinese"}], "rating": 4.5, "coordinates": {"latitude": 40.689353, "longitude": -73.815467}, "transactions": ["pickup", "delivery"], "price": "$$", "location": {"address1": "12920 Liberty Ave", "address2": "", "address3": "", "city": "South Richmond Hill", "zip_code": "11419", "country": "US", "state": "NY", "display_address": ["12920 Liberty Ave", "South Richmond Hill, NY 11419"]}, "phone": "+17187389700", "display_phone": "(718) 738-9700", "distance": 15130.139017875643}, {"id": "fKCbpU4CUazTwg3wgceHnQ", "alias": "dhaka-hajir-biryani-jamaica", "name": "Dhaka Hajir Biryani", "image_url": "https://s3-media2.fl.yelpcdn.com/bphoto/ls-pzjBcqdJUj0eeai_Uew/o.jpg", "is_closed": false, "url": "https://www.yelp.com/biz/dhaka-hajir-biryani-jamaica?adjust_creative=9gNmiWYX8uTbFBeTTvJMdA&utm_campaign=yelp_api_v3&utm_medium=api_v3_business_search&utm_source=9gNmiWYX8uTbFBeTTvJMdA", "review_count": 9, "categories": [{"alias": "indpak", "title": "Indian"}, {"alias": "bangladeshi", "title": "Bangladeshi"}], "rating": 3.0, "coordinates": {"latitude": 40.7110421, "longitude": -73.7917103}, "transactions": ["pickup", "delivery"], "location": {"address1": "17016 Hillside Ave", "address2": "Ste A", "address3": "", "city": "Jamaica", "zip_code": "11432", "country": "US", "state": "NY", "display_address": ["17016 Hillside Ave", "Ste A", "Jamaica, NY 11432"]}, "phone": "+17186581900", "display_phone": "(718) 658-1900", "distance": 15938.867020290063}, {"id": "4YCuKoDkU_mNOGNhDowNyw", "alias": "always-sunny-deli-and-grocery-sunnyside", "name": "Always Sunny Deli & Grocery", "image_url": "https://s3-media3.fl.yelpcdn.com/bphoto/eQOKBl-4gYHyVm6aQkTL0w/o.jpg", "is_closed": false, "url": "https://www.yelp.com/biz/always-sunny-deli-and-grocery-sunnyside?adjust_creative=9gNmiWYX8uTbFBeTTvJMdA&utm_campaign=yelp_api_v3&utm_medium=api_v3_business_search&utm_source=9gNmiWYX8uTbFBeTTvJMdA", "review_count": 23, "categories": [{"alias": "grocery", "title": "Grocery"}, {"alias": "vegan", "title": "Vegan"}, {"alias": "fooddeliveryservices", "title": "Food Delivery Services"}], "rating": 3.5, "coordinates": {"latitude": 40.7457454, "longitude": -73.9244871}, "transactions": ["pickup", "delivery"], "location": {"address1": "3945 43rd Ave", "address2": "", "address3": "", "city": "Sunnyside", "zip_code": "11104", "country": "US", "state": "NY", "display_address": ["3945 43rd Ave", "Sunnyside, NY 11104"]}, "phone": "+17183836779", "display_phone": "(718) 383-6779", "distance": 4106.585266011045}, {"id": "YGH_FoxpVIpOJ4M5hAtQZg", "alias": "green-house-restaurant-brooklyn-2", "name": "Green House Restaurant", "image_url": "https://s3-media4.fl.yelpcdn.com/bphoto/EgbvCMFBE_CKwFo_kfrw6Q/o.jpg", "is_closed": false, "url": "https://www.yelp.com/biz/green-house-restaurant-brooklyn-2?adjust_creative=9gNmiWYX8uTbFBeTTvJMdA&utm_campaign=yelp_api_v3&utm_medium=api_v3_business_search&utm_source=9gNmiWYX8uTbFBeTTvJMdA", "review_count": 12, "categories": [{"alias": "bangladeshi", "title": "Bangladeshi"}, {"alias": "indpak", "title": "Indian"}], "rating": 3.0, "coordinates": {"latitude": 40.64248, "longitude": -73.97989}, "transactions": ["pickup", "delivery"], "price": "$", "location": {"address1": "90 Church Ave", "address2": "", "address3": "", "city": "Brooklyn", "zip_code": "11218", "country": "US", "state": "NY", "display_address": ["90 Church Ave", "Brooklyn, NY 11218"]}, "phone": "+17188534030", "display_phone": "(718) 853-4030", "distance": 12997.03587815776}, {"id": "yKmGGnebabFQ7gsgFzFG7g", "alias": "indian-food-cart-manhattan", "name": "Indian Food Cart", "image_url": "", "is_closed": false, "url": "https://www.yelp.com/biz/indian-food-cart-manhattan?adjust_creative=9gNmiWYX8uTbFBeTTvJMdA&utm_campaign=yelp_api_v3&utm_medium=api_v3_business_search&utm_source=9gNmiWYX8uTbFBeTTvJMdA", "review_count": 2, "categories": [{"alias": "indpak", "title": "Indian"}], "rating": 3.5, "coordinates": {"latitude": 40.74403318740322, "longitude": -73.98768951223232}, "transactions": [], "price": "$", "location": {"address1": "27TH Street And 5th Ave", "address2": "", "address3": "", "city": "Manhattan", "zip_code": "10001", "country": "US", "state": "NY", "display_address": ["27TH Street And 5th Ave", "Manhattan, NY 10001"]}, "phone": "", "display_phone": "", "distance": 2272.285223447118}, {"id": "5yEX566DCppdRBcd_c1jvA", "alias": "potala-fresh-momo-jackson-heights", "name": "Potala Fresh Momo", "image_url": "https://s3-media4.fl.yelpcdn.com/bphoto/zOhh66gkK7AqaFmoSuElgw/o.jpg", "is_closed": false, "url": "https://www.yelp.com/biz/potala-fresh-momo-jackson-heights?adjust_creative=9gNmiWYX8uTbFBeTTvJMdA&utm_campaign=yelp_api_v3&utm_medium=api_v3_business_search&utm_source=9gNmiWYX8uTbFBeTTvJMdA", "review_count": 90, "categories": [{"alias": "himalayan", "title": "Himalayan/Nepalese"}, {"alias": "foodstands", "title": "Food Stands"}], "rating": 4.0, "coordinates": {"latitude": 40.7475311406192, "longitude": -73.8934052236175}, "transactions": [], "price": "$", "location": {"address1": "Broadway & 37th Rd", "address2": "", "address3": "", "city": "Jackson Heights", "zip_code": "11372", "country": "US", "state": "NY", "display_address": ["Broadway & 37th Rd", "Jackson Heights, NY 11372"]}, "phone": "+19177671777", "display_phone": "(917) 767-1777", "distance": 6545.2544990416045}, {"id": "57pRpzSGWg1jcmrP13GcYg", "alias": "9-thai-palace-brooklyn", "name": "9 Thai Palace", "image_url": "https://s3-media3.fl.yelpcdn.com/bphoto/tJgA02JpHaiLuceUd-P2_A/o.jpg", "is_closed": false, "url": "https://www.yelp.com/biz/9-thai-palace-brooklyn?adjust_creative=9gNmiWYX8uTbFBeTTvJMdA&utm_campaign=yelp_api_v3&utm_medium=api_v3_business_search&utm_source=9gNmiWYX8uTbFBeTTvJMdA", "review_count": 5, "categories": [{"alias": "thai", "title": "Thai"}, {"alias": "halal", "title": "Halal"}], "rating": 2.5, "coordinates": {"latitude": 40.669338595523946, "longitude": -73.98592203855515}, "transactions": ["pickup", "delivery"], "location": {"address1": "437 5th Ave", "address2": "", "address3": null, "city": "Brooklyn", "zip_code": "11215", "country": "US", "state": "NY", "display_address": ["437 5th Ave", "Brooklyn, NY 11215"]}, "phone": "+13478895532", "display_phone": "(347) 889-5532", "distance": 10083.886903830622}, {"id": "ZmwskbRC5Fcu0YJoLjNEzg", "alias": "jagdish-farshan-jersey-city", "name": "Jagdish Farshan", "image_url": "", "is_closed": false, "url": "https://www.yelp.com/biz/jagdish-farshan-jersey-city?adjust_creative=9gNmiWYX8uTbFBeTTvJMdA&utm_campaign=yelp_api_v3&utm_medium=api_v3_business_search&utm_source=9gNmiWYX8uTbFBeTTvJMdA", "review_count": 2, "categories": [{"alias": "indpak", "title": "Indian"}], "rating": 1.0, "coordinates": {"latitude": 40.735579, "longitude": -74.065862}, "transactions": ["pickup", "delivery"], "location": {"address1": "821 Newark Ave", "address2": "", "address3": null, "city": "Jersey City", "zip_code": "07306", "country": "US", "state": "NJ", "display_address": ["821 Newark Ave", "Jersey City, NJ 07306"]}, "phone": "+12019185801", "display_phone": "(201) 918-5801", "distance": 8527.814378067042}, {"id": "FEhAl2T2UGwnsdvjLIQbQA", "alias": "just-salad-new-york-2", "name": "Just Salad", "image_url": "https://s3-media2.fl.yelpcdn.com/bphoto/JB3TXvjh2OhV7MtKHVJ4jg/o.jpg", "is_closed": false, "url": "https://www.yelp.com/biz/just-salad-new-york-2?adjust_creative=9gNmiWYX8uTbFBeTTvJMdA&utm_campaign=yelp_api_v3&utm_medium=api_v3_business_search&utm_source=9gNmiWYX8uTbFBeTTvJMdA", "review_count": 201, "categories": [{"alias": "salad", "title": "Salad"}, {"alias": "vegetarian", "title": "Vegetarian"}, {"alias": "vegan", "title": "Vegan"}], "rating": 3.0, "coordinates": {"latitude": 40.757931551985, "longitude": -73.973999591996}, "transactions": ["pickup", "delivery"], "price": "$$", "location": {"address1": "320 Park Ave", "address2": "", "address3": "", "city": "New York", "zip_code": "10022", "country": "US", "state": "NY", "display_address": ["320 Park Ave", "New York, NY 10022"]}, "phone": "+18666733757", "display_phone": "(866) 673-3757", "distance": 397.5597486771243}, {"id": "j18_IH_wTXJfEF5S8i0uEA", "alias": "indian-bollywood-drama-peck-slip-2", "name": "Indian Bollywood Drama", "image_url": "", "is_closed": false, "url": "https://www.yelp.com/biz/indian-bollywood-drama-peck-slip-2?adjust_creative=9gNmiWYX8uTbFBeTTvJMdA&utm_campaign=yelp_api_v3&utm_medium=api_v3_business_search&utm_source=9gNmiWYX8uTbFBeTTvJMdA", "review_count": 2, "categories": [{"alias": "indpak", "title": "Indian"}], "rating": 1.0, "coordinates": {"latitude": 40.709194, "longitude": -74.005911}, "transactions": ["pickup", "delivery"], "location": {"address1": "88 Fulton St", "address2": null, "address3": "", "city": "PECK SLIP", "zip_code": "10038", "country": "US", "state": "NY", "display_address": ["88 Fulton St", "PECK SLIP, NY 10038"]}, "phone": "", "display_phone": "", "distance": 6345.214567358037}, {"id": "rkvQS-Tgaao0sdbgEgDjcA", "alias": "sophies-bistro-and-lounge-brooklyn", "name": "Sophie's Bistro & Lounge", "image_url": "https://s3-media2.fl.yelpcdn.com/bphoto/S-7hGdB7YvuijNwnWp2cRA/o.jpg", "is_closed": false, "url": "https://www.yelp.com/biz/sophies-bistro-and-lounge-brooklyn?adjust_creative=9gNmiWYX8uTbFBeTTvJMdA&utm_campaign=yelp_api_v3&utm_medium=api_v3_business_search&utm_source=9gNmiWYX8uTbFBeTTvJMdA", "review_count": 47, "categories": [{"alias": "kosher", "title": "Kosher"}, {"alias": "salad", "title": "Salad"}, {"alias": "sandwiches", "title": "Sandwiches"}], "rating": 2.5, "coordinates": {"latitude": 40.61095, "longitude": -73.96275}, "transactions": ["pickup", "delivery"], "price": "$$", "location": {"address1": "1904 Coney Island Ave", "address2": "", "address3": "", "city": "Brooklyn", "zip_code": "11230", "country": "US", "state": "NY", "display_address": ["1904 Coney Island Ave", "Brooklyn, NY 11230"]}, "phone": "+17184446222", "display_phone": "(718) 444-6222", "distance": 16492.00946444249}, {"id": "TPEkQX8Amp6Jb7FQmFKZxA", "alias": "gyro-king-brooklyn-6", "name": "Gyro King", "image_url": "https://s3-media3.fl.yelpcdn.com/bphoto/bODZq2nzlffOarC8SK0zKA/o.jpg", "is_closed": false, "url": "https://www.yelp.com/biz/gyro-king-brooklyn-6?adjust_creative=9gNmiWYX8uTbFBeTTvJMdA&utm_campaign=yelp_api_v3&utm_medium=api_v3_business_search&utm_source=9gNmiWYX8uTbFBeTTvJMdA", "review_count": 170, "categories": [{"alias": "hotdogs", "title": "Fast Food"}, {"alias": "halal", "title": "Halal"}, {"alias": "salad", "title": "Salad"}], "rating": 4.0, "coordinates": {"latitude": 40.63347015213855, "longitude": -73.96731197505162}, "transactions": ["pickup", "delivery"], "price": "$", "location": {"address1": "984 Coney Island Avenue", "address2": "", "address3": "", "city": "Brooklyn", "zip_code": "11230", "country": "US", "state": "NY", "display_address": ["984 Coney Island Avenue", "Brooklyn, NY 11230"]}, "phone": "+17184216600", "display_phone": "(718) 421-6600", "distance": 13978.993965373098}, {"id": "AZXVhEWU2FAqI40b0ZvzfQ", "alias": "gourmet-sweets-and-restaurant-brooklyn-2", "name": "Gourmet Sweets & Restaurant", "image_url": "https://s3-media4.fl.yelpcdn.com/bphoto/_tjljbzKPv5K5HO9Ep7rWw/o.jpg", "is_closed": false, "url": "https://www.yelp.com/biz/gourmet-sweets-and-restaurant-brooklyn-2?adjust_creative=9gNmiWYX8uTbFBeTTvJMdA&utm_campaign=yelp_api_v3&utm_medium=api_v3_business_search&utm_source=9gNmiWYX8uTbFBeTTvJMdA", "review_count": 56, "categories": [{"alias": "desserts", "title": "Desserts"}, {"alias": "pakistani", "title": "Pakistani"}, {"alias": "indpak", "title": "Indian"}], "rating": 3.5, "coordinates": {"latitude": 40.630652759417806, "longitude": -73.96594110204256}, "transactions": ["pickup", "delivery"], "price": "$", "location": {"address1": "1107 Coney Island Ave", "address2": "", "address3": "", "city": "Brooklyn", "zip_code": "11230", "country": "US", "state": "NY", "display_address": ["1107 Coney Island Ave", "Brooklyn, NY 11230"]}, "phone": "+17184214100", "display_phone": "(718) 421-4100", "distance": 14294.254202970616}, {"id": "azCB19UzoGl7njg5FDudaw", "alias": "sumac-staten-island", "name": "Sumac", "image_url": "https://s3-media3.fl.yelpcdn.com/bphoto/fkl5EvL6miFP82UQq0Pg6w/o.jpg", "is_closed": false, "url": "https://www.yelp.com/biz/sumac-staten-island?adjust_creative=9gNmiWYX8uTbFBeTTvJMdA&utm_campaign=yelp_api_v3&utm_medium=api_v3_business_search&utm_source=9gNmiWYX8uTbFBeTTvJMdA", "review_count": 134, "categories": [{"alias": "mediterranean", "title": "Mediterranean"}, {"alias": "turkish", "title": "Turkish"}, {"alias": "halal", "title": "Halal"}], "rating": 3.5, "coordinates": {"latitude": 40.6263033995038, "longitude": -74.1298565325409}, "transactions": ["pickup", "delivery"], "price": "$$", "location": {"address1": "1198 Forest Ave", "address2": "", "address3": "", "city": "Staten Island", "zip_code": "10310", "country": "US", "state": "NY", "display_address": ["1198 Forest Ave", "Staten Island, NY 10310"]}, "phone": "+13474665752", "display_phone": "(347) 466-5752", "distance": 20022.49033018835}, {"id": "_U9PlIheyEyfAn7UUxABeg", "alias": "smile-of-the-beyond-jamaica-4", "name": "Smile of the Beyond", "image_url": "https://s3-media1.fl.yelpcdn.com/bphoto/8RMyhQpMi7GTKNB3siEDmg/o.jpg", "is_closed": false, "url": "https://www.yelp.com/biz/smile-of-the-beyond-jamaica-4?adjust_creative=9gNmiWYX8uTbFBeTTvJMdA&utm_campaign=yelp_api_v3&utm_medium=api_v3_business_search&utm_source=9gNmiWYX8uTbFBeTTvJMdA", "review_count": 156, "categories": [{"alias": "vegetarian", "title": "Vegetarian"}, {"alias": "breakfast_brunch", "title": "Breakfast & Brunch"}, {"alias": "juicebars", "title": "Juice Bars & Smoothies"}], "rating": 4.5, "coordinates": {"latitude": 40.70918688465699, "longitude": -73.80481157729449}, "transactions": ["delivery"], "price": "$$", "location": {"address1": "8614 Parsons Blvd", "address2": "", "address3": "", "city": "Jamaica", "zip_code": "11432", "country": "US", "state": "NY", "display_address": ["8614 Parsons Blvd", "Jamaica, NY 11432"]}, "phone": "+17187397453", "display_phone": "(718) 739-7453", "distance": 14953.851463649977}, {"id": "i9EgpwRQVS8kEcgbyEzOeQ", "alias": "red-chili-astoria-3", "name": "Red Chili", "image_url": "https://s3-media1.fl.yelpcdn.com/bphoto/5ROOxzQJu0WtpSumcHmjtg/o.jpg", "is_closed": false, "url": "https://www.yelp.com/biz/red-chili-astoria-3?adjust_creative=9gNmiWYX8uTbFBeTTvJMdA&utm_campaign=yelp_api_v3&utm_medium=api_v3_business_search&utm_source=9gNmiWYX8uTbFBeTTvJMdA", "review_count": 4, "categories": [{"alias": "indpak", "title": "Indian"}, {"alias": "chinese", "title": "Chinese"}], "rating": 2.0, "coordinates": {"latitude": 40.7616882, "longitude": -73.9170837}, "transactions": [], "price": "$$", "location": {"address1": "3094 Steinway St", "address2": "", "address3": "", "city": "Astoria", "zip_code": "11103", "country": "US", "state": "NY", "display_address": ["3094 Steinway St", "Astoria, NY 11103"]}, "phone": "", "display_phone": "", "distance": 4434.352632094622}, {"id": "inHfE5Ti4T1Adoet3a2pPA", "alias": "verdure-vegan-jamaican-restaurant-brooklyn", "name": "Verdure Vegan Jamaican Restaurant", "image_url": "https://s3-media1.fl.yelpcdn.com/bphoto/PjYyj-2S8mQuqnQQclo6dw/o.jpg", "is_closed": false, "url": "https://www.yelp.com/biz/verdure-vegan-jamaican-restaurant-brooklyn?adjust_creative=9gNmiWYX8uTbFBeTTvJMdA&utm_campaign=yelp_api_v3&utm_medium=api_v3_business_search&utm_source=9gNmiWYX8uTbFBeTTvJMdA", "review_count": 52, "categories": [{"alias": "vegan", "title": "Vegan"}, {"alias": "breakfast_brunch", "title": "Breakfast & Brunch"}, {"alias": "juicebars", "title": "Juice Bars & Smoothies"}], "rating": 4.5, "coordinates": {"latitude": 40.634353, "longitude": -73.914065}, "transactions": ["delivery"], "location": {"address1": "7804 Flatlands Ave", "address2": "", "address3": null, "city": "Brooklyn", "zip_code": "11236", "country": "US", "state": "NY", "display_address": ["7804 Flatlands Ave", "Brooklyn, NY 11236"]}, "phone": "+13476735954", "display_phone": "(347) 673-5954", "distance": 14647.200142004678}, {"id": "0K14fz91-JSZd-wselihxA", "alias": "basil-brooklyn", "name": "Basil", "image_url": "https://s3-media2.fl.yelpcdn.com/bphoto/j5_e1M4AW5S26IJda4jl1A/o.jpg", "is_closed": false, "url": "https://www.yelp.com/biz/basil-brooklyn?adjust_creative=9gNmiWYX8uTbFBeTTvJMdA&utm_campaign=yelp_api_v3&utm_medium=api_v3_business_search&utm_source=9gNmiWYX8uTbFBeTTvJMdA", "review_count": 250, "categories": [{"alias": "kosher", "title": "Kosher"}, {"alias": "wine_bars", "title": "Wine Bars"}, {"alias": "pizza", "title": "Pizza"}], "rating": 3.5, "coordinates": {"latitude": 40.6701630483264, "longitude": -73.9421222019838}, "transactions": ["pickup", "delivery"], "price": "$$$", "location": {"address1": "270 Kingston Ave", "address2": "", "address3": null, "city": "Brooklyn", "zip_code": "11213", "country": "US", "state": "NY", "display_address": ["270 Kingston Ave", "Brooklyn, NY 11213"]}, "phone": "+17182858777", "display_phone": "(718) 285-8777", "distance": 10164.463493573834}, {"id": "amoGEhgkE4xcNXwYqWeoaw", "alias": "yonah-schimmels-knish-bakery-new-york", "name": "Yonah Schimmel's Knish Bakery", "image_url": "https://s3-media1.fl.yelpcdn.com/bphoto/nSjO6OTCAWC9f7JW5vKEvA/o.jpg", "is_closed": false, "url": "https://www.yelp.com/biz/yonah-schimmels-knish-bakery-new-york?adjust_creative=9gNmiWYX8uTbFBeTTvJMdA&utm_campaign=yelp_api_v3&utm_medium=api_v3_business_search&utm_source=9gNmiWYX8uTbFBeTTvJMdA", "review_count": 693, "categories": [{"alias": "kosher", "title": "Kosher"}, {"alias": "comfortfood", "title": "Comfort Food"}, {"alias": "delis", "title": "Delis"}], "rating": 4.0, "coordinates": {"latitude": 40.72314, "longitude": -73.99016}, "transactions": ["pickup", "delivery"], "price": "$", "location": {"address1": "137 E Houston St", "address2": "", "address3": "", "city": "New York", "zip_code": "10002", "country": "US", "state": "NY", "display_address": ["137 E Houston St", "New York, NY 10002"]}, "phone": "+12124772858", "display_phone": "(212) 477-2858", "distance": 4366.1154547240885}, {"id": "kaNpTpkB8u2IiNyMlwXGZw", "alias": "habibi-halal-gyro-and-restaurant-brooklyn", "name": "Habibi Halal Gyro & Restaurant", "image_url": "https://s3-media2.fl.yelpcdn.com/bphoto/si2tE56Jxo8hAV14VQp2jA/o.jpg", "is_closed": false, "url": "https://www.yelp.com/biz/habibi-halal-gyro-and-restaurant-brooklyn?adjust_creative=9gNmiWYX8uTbFBeTTvJMdA&utm_campaign=yelp_api_v3&utm_medium=api_v3_business_search&utm_source=9gNmiWYX8uTbFBeTTvJMdA", "review_count": 2, "categories": [{"alias": "halal", "title": "Halal"}, {"alias": "burgers", "title": "Burgers"}, {"alias": "pakistani", "title": "Pakistani"}], "rating": 5.0, "coordinates": {"latitude": 40.6436103, "longitude": -73.96978709999999}, "transactions": ["pickup", "delivery"], "location": {"address1": "563 Coney Island Ave", "address2": null, "address3": null, "city": "Brooklyn", "zip_code": "11218", "country": "US", "state": "NY", "display_address": ["563 Coney Island Ave", "Brooklyn, NY 11218"]}, "phone": "", "display_phone": "", "distance": 12850.173985341635}, {"id": "CflDIalFPdd7U3-fcq4Lkg", "alias": "lhasa-liang-fen-elmhurst-4", "name": "Lhasa Liang Fen", "image_url": "https://s3-media1.fl.yelpcdn.com/bphoto/rvVLsPaz-Mm4OswBX1BE_g/o.jpg", "is_closed": false, "url": "https://www.yelp.com/biz/lhasa-liang-fen-elmhurst-4?adjust_creative=9gNmiWYX8uTbFBeTTvJMdA&utm_campaign=yelp_api_v3&utm_medium=api_v3_business_search&utm_source=9gNmiWYX8uTbFBeTTvJMdA", "review_count": 50, "categories": [{"alias": "chinese", "title": "Chinese"}, {"alias": "himalayan", "title": "Himalayan/Nepalese"}], "rating": 4.5, "coordinates": {"latitude": 40.74401493782042, "longitude": -73.88464531874742}, "transactions": ["pickup", "delivery"], "price": "$", "location": {"address1": "8007 Broadway", "address2": "", "address3": null, "city": "Elmhurst", "zip_code": "11373", "country": "US", "state": "NY", "display_address": ["8007 Broadway", "Elmhurst, NY 11373"]}, "phone": "+17188061712", "display_phone": "(718) 806-1712", "distance": 7349.9036815160025}, {"id": "b_RZL-wE1PpH0nX9cv7twg", "alias": "melanies-roti-and-grill-restaurant-bronx", "name": "Melanie's Roti & Grill Restaurant", "image_url": "https://s3-media1.fl.yelpcdn.com/bphoto/kxddCYu3nU3wHgrj_olZ0Q/o.jpg", "is_closed": false, "url": "https://www.yelp.com/biz/melanies-roti-and-grill-restaurant-bronx?adjust_creative=9gNmiWYX8uTbFBeTTvJMdA&utm_campaign=yelp_api_v3&utm_medium=api_v3_business_search&utm_source=9gNmiWYX8uTbFBeTTvJMdA", "review_count": 88, "categories": [{"alias": "bars", "title": "Bars"}, {"alias": "caribbean", "title": "Caribbean"}, {"alias": "indpak", "title": "Indian"}], "rating": 3.5, "coordinates": {"latitude": 40.8333, "longitude": -73.851045}, "transactions": ["pickup", "delivery"], "price": "$$", "location": {"address1": "1248 Castle Hill Ave", "address2": null, "address3": null, "city": "Bronx", "zip_code": "10462", "country": "US", "state": "NY", "display_address": ["1248 Castle Hill Ave", "Bronx, NY 10462"]}, "phone": "+17184091088", "display_phone": "(718) 409-1088", "distance": 12939.187400418685}, {"id": "fJ4UpATqKjfqrCVY61Dbvg", "alias": "pitopia-new-york", "name": "Pitopia", "image_url": "https://s3-media3.fl.yelpcdn.com/bphoto/tFS8nKfTR5MAca3QtoIeTQ/o.jpg", "is_closed": false, "url": "https://www.yelp.com/biz/pitopia-new-york?adjust_creative=9gNmiWYX8uTbFBeTTvJMdA&utm_campaign=yelp_api_v3&utm_medium=api_v3_business_search&utm_source=9gNmiWYX8uTbFBeTTvJMdA", "review_count": 219, "categories": [{"alias": "kosher", "title": "Kosher"}, {"alias": "mediterranean", "title": "Mediterranean"}], "rating": 3.0, "coordinates": {"latitude": 40.7477, "longitude": -73.98239}, "transactions": ["pickup", "delivery"], "price": "$", "location": {"address1": "43 E 34th St", "address2": null, "address3": "", "city": "New York", "zip_code": "10016", "country": "US", "state": "NY", "display_address": ["43 E 34th St", "New York, NY 10016"]}, "phone": "+12127926765", "display_phone": "(212) 792-6765", "distance": 1662.788993839013}, {"id": "IRwZ5Lpq8tvYt7EVaohl4w", "alias": "taste-of-india-brooklyn-3", "name": "Taste of India", "image_url": "", "is_closed": false, "url": "https://www.yelp.com/biz/taste-of-india-brooklyn-3?adjust_creative=9gNmiWYX8uTbFBeTTvJMdA&utm_campaign=yelp_api_v3&utm_medium=api_v3_business_search&utm_source=9gNmiWYX8uTbFBeTTvJMdA", "review_count": 1, "categories": [{"alias": "fooddeliveryservices", "title": "Food Delivery Services"}, {"alias": "indpak", "title": "Indian"}], "rating": 1.0, "coordinates": {"latitude": 40.60186004638672, "longitude": -73.99629211425781}, "transactions": [], "location": {"address1": null, "address2": null, "address3": null, "city": "Brooklyn", "zip_code": "11214", "country": "US", "state": "NY", "display_address": ["Brooklyn, NY 11214"]}, "phone": "+19179052178", "display_phone": "(917) 905-2178", "distance": 17356.295453981773}, {"id": "HSlEzWSQbN0vRqIpN5WOZA", "alias": "kabab-and-gyro-grill-south-richmond-hill", "name": "Kabab and Gyro Grill", "image_url": "https://s3-media4.fl.yelpcdn.com/bphoto/XMPbVA-f_7lsk7_5eNcdyA/o.jpg", "is_closed": false, "url": "https://www.yelp.com/biz/kabab-and-gyro-grill-south-richmond-hill?adjust_creative=9gNmiWYX8uTbFBeTTvJMdA&utm_campaign=yelp_api_v3&utm_medium=api_v3_business_search&utm_source=9gNmiWYX8uTbFBeTTvJMdA", "review_count": 13, "categories": [{"alias": "indpak", "title": "Indian"}, {"alias": "halal", "title": "Halal"}, {"alias": "mediterranean", "title": "Mediterranean"}], "rating": 3.0, "coordinates": {"latitude": 40.69037, "longitude": -73.81472}, "transactions": ["pickup", "delivery"], "price": "$$", "location": {"address1": "131-07 Liberty Ave", "address2": "", "address3": null, "city": "South Richmond Hill", "zip_code": "11419", "country": "US", "state": "NY", "display_address": ["131-07 Liberty Ave", "South Richmond Hill, NY 11419"]}, "phone": "+17188430123", "display_phone": "(718) 843-0123", "distance": 15127.709242600838}, {"id": "bVyA5z69287U9B9W88hERg", "alias": "kabab-king-jackson-heights", "name": "Kabab King", "image_url": "https://s3-media4.fl.yelpcdn.com/bphoto/Hav3f6b_XcD5H1ypUwpxHQ/o.jpg", "is_closed": false, "url": "https://www.yelp.com/biz/kabab-king-jackson-heights?adjust_creative=9gNmiWYX8uTbFBeTTvJMdA&utm_campaign=yelp_api_v3&utm_medium=api_v3_business_search&utm_source=9gNmiWYX8uTbFBeTTvJMdA", "review_count": 377, "categories": [{"alias": "pakistani", "title": "Pakistani"}, {"alias": "bangladeshi", "title": "Bangladeshi"}, {"alias": "afghani", "title": "Afghan"}], "rating": 3.0, "coordinates": {"latitude": 40.7472744, "longitude": -73.8922265}, "transactions": ["pickup", "delivery"], "price": "$", "location": {"address1": "7301 37th Rd", "address2": "", "address3": "", "city": "Jackson Heights", "zip_code": "11372", "country": "US", "state": "NY", "display_address": ["7301 37th Rd", "Jackson Heights, NY 11372"]}, "phone": "+17184575857", "display_phone": "(718) 457-5857", "distance": 6652.165638636194}, {"id": "m_BTgSsjn8T881XxMMmDuw", "alias": "flatbush-halal-restaurant-new-york", "name": "Flatbush Halal Restaurant", "image_url": "https://s3-media2.fl.yelpcdn.com/bphoto/IHgw_TRd5rURgZsOE9GYoQ/o.jpg", "is_closed": false, "url": "https://www.yelp.com/biz/flatbush-halal-restaurant-new-york?adjust_creative=9gNmiWYX8uTbFBeTTvJMdA&utm_campaign=yelp_api_v3&utm_medium=api_v3_business_search&utm_source=9gNmiWYX8uTbFBeTTvJMdA", "review_count": 8, "categories": [{"alias": "caribbean", "title": "Caribbean"}, {"alias": "halal", "title": "Halal"}], "rating": 4.0, "coordinates": {"latitude": 40.640733, "longitude": -73.956189}, "transactions": ["pickup"], "price": "$", "location": {"address1": "1210 Flatbush Ave", "address2": "", "address3": "", "city": "New York", "zip_code": "11226", "country": "US", "state": "NY", "display_address": ["1210 Flatbush Ave", "New York, NY 11226"]}, "phone": "+17182845200", "display_phone": "(718) 284-5200", "distance": 13218.350597515268}, {"id": "VW0KCY1fD6vfwOM8n7gTdw", "alias": "jacks-stir-brew-coffee-new-york-16", "name": "Jack's Stir Brew Coffee", "image_url": "https://s3-media1.fl.yelpcdn.com/bphoto/TT5nJWyDYGpsutFQWVPaUQ/o.jpg", "is_closed": false, "url": "https://www.yelp.com/biz/jacks-stir-brew-coffee-new-york-16?adjust_creative=9gNmiWYX8uTbFBeTTvJMdA&utm_campaign=yelp_api_v3&utm_medium=api_v3_business_search&utm_source=9gNmiWYX8uTbFBeTTvJMdA", "review_count": 29, "categories": [{"alias": "coffee", "title": "Coffee & Tea"}, {"alias": "bakeries", "title": "Bakeries"}, {"alias": "vegan", "title": "Vegan"}], "rating": 3.5, "coordinates": {"latitude": 40.7491302490234, "longitude": -73.9923629760742}, "transactions": ["pickup", "delivery"], "location": {"address1": "20 Hudson Yards", "address2": null, "address3": "", "city": "New York", "zip_code": "10001", "country": "US", "state": "NY", "display_address": ["20 Hudson Yards", "New York, NY 10001"]}, "phone": "+12125644292", "display_phone": "(212) 564-4292", "distance": 2728.4331393102257}, {"id": "bqZ01GFWkXqxsuYtiT7bRw", "alias": "king-halal-astoria", "name": "King Halal", "image_url": "https://s3-media2.fl.yelpcdn.com/bphoto/uiMrkJvK0-URi1Tj1tvyEQ/o.jpg", "is_closed": false, "url": "https://www.yelp.com/biz/king-halal-astoria?adjust_creative=9gNmiWYX8uTbFBeTTvJMdA&utm_campaign=yelp_api_v3&utm_medium=api_v3_business_search&utm_source=9gNmiWYX8uTbFBeTTvJMdA", "review_count": 23, "categories": [{"alias": "streetvendors", "title": "Street Vendors"}, {"alias": "halal", "title": "Halal"}, {"alias": "falafel", "title": "Falafel"}], "rating": 5.0, "coordinates": {"latitude": 40.766217, "longitude": -73.9193109}, "transactions": ["pickup", "delivery"], "location": {"address1": "33-01 30th Ave", "address2": null, "address3": "", "city": "Astoria", "zip_code": "11103", "country": "US", "state": "NY", "display_address": ["33-01 30th Ave", "Astoria, NY 11103"]}, "phone": "+16466001461", "display_phone": "(646) 600-1461", "distance": 4305.03377695628}, {"id": "UTsBON3O7wIKWupchuhRug", "alias": "bukhari-grill-hoboken", "name": "Bukhari Grill", "image_url": "", "is_closed": false, "url": "https://www.yelp.com/biz/bukhari-grill-hoboken?adjust_creative=9gNmiWYX8uTbFBeTTvJMdA&utm_campaign=yelp_api_v3&utm_medium=api_v3_business_search&utm_source=9gNmiWYX8uTbFBeTTvJMdA", "review_count": 1, "categories": [{"alias": "indpak", "title": "Indian"}], "rating": 1.0, "coordinates": {"latitude": 40.7379251, "longitude": -74.0347118}, "transactions": ["pickup", "delivery"], "location": {"address1": "98 Willow Ave", "address2": "", "address3": "", "city": "Hoboken", "zip_code": "07030", "country": "US", "state": "NJ", "display_address": ["98 Willow Ave", "Hoboken, NJ 07030"]}, "phone": "+12019693360", "display_phone": "(201) 969-3360", "distance": 5975.065859377212}], "total": 902, "region": {"center": {"longitude": -73.96957397460938, "latitude": 40.75917470627005}}}