{"businesses": [{"id": "_llUDcpoZvywxw90E4Sghg", "alias": "shahs-halal-food-elmhurst", "name": "Shah's Halal Food", "image_url": "https://s3-media2.fl.yelpcdn.com/bphoto/F7UHfwLIb3UlydYjMpyuzA/o.jpg", "is_closed": false, "url": "https://www.yelp.com/biz/shahs-halal-food-elmhurst?adjust_creative=9gNmiWYX8uTbFBeTTvJMdA&utm_campaign=yelp_api_v3&utm_medium=api_v3_business_search&utm_source=9gNmiWYX8uTbFBeTTvJMdA", "review_count": 10, "categories": [{"alias": "halal", "title": "Halal"}, {"alias": "mideastern", "title": "Middle Eastern"}], "rating": 3.5, "coordinates": {"latitude": 40.73717, "longitude": -73.87709}, "transactions": ["pickup", "delivery"], "location": {"address1": "86-55 Broadway", "address2": null, "address3": null, "city": "Elmhurst", "zip_code": "11373", "country": "US", "state": "NY", "display_address": ["86-55 Broadway", "Elmhurst, NY 11373"]}, "phone": "+17184339241", "display_phone": "(718) 433-9241", "distance": 8167.42993311426}, {"id": "xKi-O_l0BkXE25Q7824XHw", "alias": "prabhu-kirpa-south-ozone-park", "name": "Prabhu Kirpa", "image_url": "https://s3-media3.fl.yelpcdn.com/bphoto/pYVmkMagLNxT2hUseX2UEg/o.jpg", "is_closed": false, "url": "https://www.yelp.com/biz/prabhu-kirpa-south-ozone-park?adjust_creative=9gNmiWYX8uTbFBeTTvJMdA&utm_campaign=yelp_api_v3&utm_medium=api_v3_business_search&utm_source=9gNmiWYX8uTbFBeTTvJMdA", "review_count": 2, "categories": [{"alias": "indpak", "title": "Indian"}], "rating": 2.5, "coordinates": {"latitude": 40.6866032, "longitude": -73.808847}, "transactions": [], "location": {"address1": "135-16 109th Ave", "address2": null, "address3": "", "city": "South Ozone Park", "zip_code": "11419", "country": "US", "state": "NY", "display_address": ["135-16 109th Ave", "South Ozone Park, NY 11419"]}, "phone": "", "display_phone": "", "distance": 15783.593611567536}, {"id": "7f-oylSG7GlfPRbfWo99LA", "alias": "ghoroa-restaurant-jamaica-3", "name": "Ghoroa Restaurant", "image_url": "https://s3-media2.fl.yelpcdn.com/bphoto/bxdfZjs-o3ymocTOyjFKPw/o.jpg", "is_closed": false, "url": "https://www.yelp.com/biz/ghoroa-restaurant-jamaica-3?adjust_creative=9gNmiWYX8uTbFBeTTvJMdA&utm_campaign=yelp_api_v3&utm_medium=api_v3_business_search&utm_source=9gNmiWYX8uTbFBeTTvJMdA", "review_count": 60, "categories": [{"alias": "indpak", "title": "Indian"}, {"alias": "pakistani", "title": "Pakistani"}, {"alias": "bangladeshi", "title": "Bangladeshi"}], "rating": 3.5, "coordinates": {"latitude": 40.7107539517878, "longitude": -73.793530203402}, "transactions": ["pickup", "delivery"], "price": "$$", "location": {"address1": "168-41 Hillside Ave", "address2": "", "address3": "", "city": "Jamaica", "zip_code": "11432", "country": "US", "state": "NY", "display_address": ["168-41 Hillside Ave", "Jamaica, NY 11432"]}, "phone": "+17182629100", "display_phone": "(718) 262-9100", "distance": 15779.760648983856}, {"id": "E5CgYfnVPkSoog_zxUTpmQ", "alias": "big-well-bakery-and-halal-resturant-jamaica", "name": "Big Well Bakery & Halal Resturant", "image_url": "https://s3-media4.fl.yelpcdn.com/bphoto/OUfSk6ZidmmeOV5D_FbkHg/o.jpg", "is_closed": false, "url": "https://www.yelp.com/biz/big-well-bakery-and-halal-resturant-jamaica?adjust_creative=9gNmiWYX8uTbFBeTTvJMdA&utm_campaign=yelp_api_v3&utm_medium=api_v3_business_search&utm_source=9gNmiWYX8uTbFBeTTvJMdA", "review_count": 18, "categories": [{"alias": "halal", "title": "Halal"}, {"alias": "bakeries", "title": "Bakeries"}, {"alias": "tapasmallplates", "title": "Tapas/Small Plates"}], "rating": 2.5, "coordinates": {"latitude": 40.68319, "longitude": -73.83415}, "transactions": ["pickup", "delivery"], "location": {"address1": "107-08 Liberty Ave", "address2": "", "address3": null, "city": "Jamaica", "zip_code": "11417", "country": "US", "state": "NY", "display_address": ["107-08 Liberty Ave", "Jamaica, NY 11417"]}, "phone": "+17184803875", "display_phone": "(718) 480-3875", "distance": 14190.148333188636}, {"id": "vHHVrNOhGDCbqzpYgKcUYw", "alias": "minar-new-york-2", "name": "Minar", "image_url": "", "is_closed": false, "url": "https://www.yelp.com/biz/minar-new-york-2?adjust_creative=9gNmiWYX8uTbFBeTTvJMdA&utm_campaign=yelp_api_v3&utm_medium=api_v3_business_search&utm_source=9gNmiWYX8uTbFBeTTvJMdA", "review_count": 2, "categories": [{"alias": "indpak", "title": "Indian"}], "rating": 2.0, "coordinates": {"latitude": 40.7567254, "longitude": -73.9142197}, "transactions": [], "location": {"address1": "46th & Broadway", "address2": "", "address3": "", "city": "New York", "zip_code": "11103", "country": "US", "state": "NY", "display_address": ["46th & Broadway", "New York, NY 11103"]}, "phone": "", "display_phone": "", "distance": 4670.284324093499}, {"id": "DU_z_ypJ1j3hoRrkTqQpEQ", "alias": "aria-kabab-flushing-3", "name": "Aria Kabab", "image_url": "https://s3-media1.fl.yelpcdn.com/bphoto/qW8FBSj4VhuKCQ1gnAmtCw/o.jpg", "is_closed": false, "url": "https://www.yelp.com/biz/aria-kabab-flushing-3?adjust_creative=9gNmiWYX8uTbFBeTTvJMdA&utm_campaign=yelp_api_v3&utm_medium=api_v3_business_search&utm_source=9gNmiWYX8uTbFBeTTvJMdA", "review_count": 88, "categories": [{"alias": "afghani", "title": "Afghan"}], "rating": 3.5, "coordinates": {"latitude": 40.72771, "longitude": -73.81285}, "transactions": ["pickup", "delivery"], "price": "$", "location": {"address1": "7255 Kissena Blvd", "address2": "", "address3": "", "city": "Flushing", "zip_code": "11367", "country": "US", "state": "NY", "display_address": ["7255 Kissena Blvd", "Flushing, NY 11367"]}, "phone": "+17187932984", "display_phone": "(718) 793-2984", "distance": 13656.981554706152}, {"id": "QzPaA7e4O7iabpwr99pmiQ", "alias": "tawa-tandor-new-york", "name": "Tawa Tandor", "image_url": "", "is_closed": false, "url": "https://www.yelp.com/biz/tawa-tandor-new-york?adjust_creative=9gNmiWYX8uTbFBeTTvJMdA&utm_campaign=yelp_api_v3&utm_medium=api_v3_business_search&utm_source=9gNmiWYX8uTbFBeTTvJMdA", "review_count": 4, "categories": [{"alias": "indpak", "title": "Indian"}], "rating": 2.0, "coordinates": {"latitude": 40.7475662231445, "longitude": -73.8915100097656}, "transactions": [], "location": {"address1": "49 74th St", "address2": "", "address3": "", "city": "New York", "zip_code": "11372", "country": "US", "state": "NY", "display_address": ["49 74th St", "New York, NY 11372"]}, "phone": "", "display_phone": "", "distance": 6701.059920429693}, {"id": "qI18SQBMcNTNo4ZqosfEig", "alias": "fitoor-cafe-and-grill-fresh-meadows-2", "name": "Fitoor Cafe & Grill", "image_url": "https://s3-media2.fl.yelpcdn.com/bphoto/QwkFw2-Olp0RJbQwieyEzQ/o.jpg", "is_closed": false, "url": "https://www.yelp.com/biz/fitoor-cafe-and-grill-fresh-meadows-2?adjust_creative=9gNmiWYX8uTbFBeTTvJMdA&utm_campaign=yelp_api_v3&utm_medium=api_v3_business_search&utm_source=9gNmiWYX8uTbFBeTTvJMdA", "review_count": 98, "categories": [{"alias": "hookah_bars", "title": "Hookah Bars"}, {"alias": "halal", "title": "Halal"}, {"alias": "cafes", "title": "Cafes"}], "rating": 4.0, "coordinates": {"latitude": 40.7266456, "longitude": -73.788371}, "transactions": ["pickup", "delivery"], "price": "$$", "location": {"address1": "179-22 Union Tpke", "address2": "", "address3": null, "city": "Fresh Meadows", "zip_code": "11366", "country": "US", "state": "NY", "display_address": ["179-22 Union Tpke", "Fresh Meadows, NY 11366"]}, "phone": "+17189697000", "display_phone": "(718) 969-7000", "distance": 15700.859753684515}, {"id": "PA0dU1By3k3EwHieYdlpKQ", "alias": "tropical-isle-ozone-park-2", "name": "Tropical Isle", "image_url": "https://s3-media3.fl.yelpcdn.com/bphoto/MrDXd_2GucahyP-CK9Sp4w/o.jpg", "is_closed": false, "url": "https://www.yelp.com/biz/tropical-isle-ozone-park-2?adjust_creative=9gNmiWYX8uTbFBeTTvJMdA&utm_campaign=yelp_api_v3&utm_medium=api_v3_business_search&utm_source=9gNmiWYX8uTbFBeTTvJMdA", "review_count": 17, "categories": [{"alias": "halal", "title": "Halal"}, {"alias": "caribbean", "title": "Caribbean"}, {"alias": "vegan", "title": "Vegan"}], "rating": 3.0, "coordinates": {"latitude": 40.6863356, "longitude": -73.824427}, "transactions": ["pickup", "delivery"], "price": "$", "location": {"address1": "118-19 Liberty Ave", "address2": "", "address3": "", "city": "Ozone Park", "zip_code": "11417", "country": "US", "state": "NY", "display_address": ["118-19 Liberty Ave", "Ozone Park, NY 11417"]}, "phone": "+17188484753", "display_phone": "(718) 848-4753", "distance": 14670.237964040158}, {"id": "k6C1yxzWz07p6AYAV5pgDQ", "alias": "veggies-natural-juice-bar-brooklyn", "name": "Veggies Natural Juice Bar", "image_url": "https://s3-media2.fl.yelpcdn.com/bphoto/ac_3OO2Jo1El4nyk3K9_RQ/o.jpg", "is_closed": false, "url": "https://www.yelp.com/biz/veggies-natural-juice-bar-brooklyn?adjust_creative=9gNmiWYX8uTbFBeTTvJMdA&utm_campaign=yelp_api_v3&utm_medium=api_v3_business_search&utm_source=9gNmiWYX8uTbFBeTTvJMdA", "review_count": 159, "categories": [{"alias": "juicebars", "title": "Juice Bars & Smoothies"}, {"alias": "vegan", "title": "Vegan"}, {"alias": "markets", "title": "Fruits & Veggies"}], "rating": 4.0, "coordinates": {"latitude": 40.671975, "longitude": -73.9571799}, "transactions": ["delivery"], "price": "$", "location": {"address1": "785 Franklin Ave", "address2": "", "address3": "", "city": "Brooklyn", "zip_code": "11238", "country": "US", "state": "NY", "display_address": ["785 Franklin Ave", "Brooklyn, NY 11238"]}, "phone": "+13476273247", "display_phone": "(347) 627-3247", "distance": 9752.25923573881}, {"id": "F3dTT21cnXG3dB9vGQe9MQ", "alias": "royal-chinese-jamaica", "name": "Royal Chinese", "image_url": "https://s3-media3.fl.yelpcdn.com/bphoto/MIZsHozJuZyKfiQv8cafTw/o.jpg", "is_closed": false, "url": "https://www.yelp.com/biz/royal-chinese-jamaica?adjust_creative=9gNmiWYX8uTbFBeTTvJMdA&utm_campaign=yelp_api_v3&utm_medium=api_v3_business_search&utm_source=9gNmiWYX8uTbFBeTTvJMdA", "review_count": 2, "categories": [{"alias": "indpak", "title": "Indian"}, {"alias": "chinese", "title": "Chinese"}], "rating": 4.5, "coordinates": {"latitude": 40.7078285, "longitude": -73.8031998}, "transactions": ["pickup", "delivery"], "price": "$", "location": {"address1": "153-33 Hillside Ave", "address2": "", "address3": "", "city": "Jamaica", "zip_code": "11432", "country": "US", "state": "NY", "display_address": ["153-33 Hillside Ave", "Jamaica, NY 11432"]}, "phone": "+17182977300", "display_phone": "(718) 297-7300", "distance": 15136.004772093846}, {"id": "UbLsVnix6_MZ-a7uRB_c-w", "alias": "punchline-juice-bar-brooklyn", "name": "Punchline Juice Bar", "image_url": "https://s3-media4.fl.yelpcdn.com/bphoto/-e9VsM9sH0jCyevr-gUnqQ/o.jpg", "is_closed": false, "url": "https://www.yelp.com/biz/punchline-juice-bar-brooklyn?adjust_creative=9gNmiWYX8uTbFBeTTvJMdA&utm_campaign=yelp_api_v3&utm_medium=api_v3_business_search&utm_source=9gNmiWYX8uTbFBeTTvJMdA", "review_count": 87, "categories": [{"alias": "juicebars", "title": "Juice Bars & Smoothies"}, {"alias": "salad", "title": "Salad"}, {"alias": "vegan", "title": "Vegan"}], "rating": 4.5, "coordinates": {"latitude": 40.6765631585663, "longitude": -73.9500241}, "transactions": ["pickup", "delivery"], "price": "$", "location": {"address1": "638 Nostrand Ave", "address2": "", "address3": "", "city": "Brooklyn", "zip_code": "11216", "country": "US", "state": "NY", "display_address": ["638 Nostrand Ave", "Brooklyn, NY 11216"]}, "phone": "+17188567500", "display_phone": "(718) 856-7500", "distance": 9332.566429475137}, {"id": "WekK6vHrQZ-81CijH2sGiw", "alias": "middle-eastern-halal-food-brooklyn-5", "name": "Middle Eastern Halal Food", "image_url": "https://s3-media1.fl.yelpcdn.com/bphoto/zPgqqdXvmlmqaEkVCQ0lxg/o.jpg", "is_closed": false, "url": "https://www.yelp.com/biz/middle-eastern-halal-food-brooklyn-5?adjust_creative=9gNmiWYX8uTbFBeTTvJMdA&utm_campaign=yelp_api_v3&utm_medium=api_v3_business_search&utm_source=9gNmiWYX8uTbFBeTTvJMdA", "review_count": 157, "categories": [{"alias": "halal", "title": "Halal"}, {"alias": "mideastern", "title": "Middle Eastern"}, {"alias": "foodtrucks", "title": "Food Trucks"}], "rating": 4.0, "coordinates": {"latitude": 40.6212580747582, "longitude": -74.0261940658092}, "transactions": ["delivery"], "price": "$", "location": {"address1": "8601 5th Ave", "address2": "", "address3": "", "city": "Brooklyn", "zip_code": "11209", "country": "US", "state": "NY", "display_address": ["8601 5th Ave", "Brooklyn, NY 11209"]}, "phone": "+17187555563", "display_phone": "(718) 755-5563", "distance": 16061.451651762345}, {"id": "0jqs32xyAioVbz7BBzrO6A", "alias": "chinese-dhaba-new-york", "name": "Chinese Dhaba", "image_url": "", "is_closed": false, "url": "https://www.yelp.com/biz/chinese-dhaba-new-york?adjust_creative=9gNmiWYX8uTbFBeTTvJMdA&utm_campaign=yelp_api_v3&utm_medium=api_v3_business_search&utm_source=9gNmiWYX8uTbFBeTTvJMdA", "review_count": 3, "categories": [{"alias": "indpak", "title": "Indian"}, {"alias": "chinese", "title": "Chinese"}], "rating": 2.0, "coordinates": {"latitude": 40.71469, "longitude": -74.00768}, "transactions": ["pickup", "delivery"], "location": {"address1": "98 Chambers St", "address2": null, "address3": "", "city": "New York", "zip_code": "10007", "country": "US", "state": "NY", "display_address": ["98 Chambers St", "New York, NY 10007"]}, "phone": "+19292658135", "display_phone": "(929) 265-8135", "distance": 5911.7462134371535}, {"id": "m0Oe-ZkgpSAFEjab-yX67g", "alias": "jamaicain-flame-jamaica", "name": "Jamaicain Flame", "image_url": "https://s3-media1.fl.yelpcdn.com/bphoto/Msgo1kGNguwexKSjhZLB-Q/o.jpg", "is_closed": false, "url": "https://www.yelp.com/biz/jamaicain-flame-jamaica?adjust_creative=9gNmiWYX8uTbFBeTTvJMdA&utm_campaign=yelp_api_v3&utm_medium=api_v3_business_search&utm_source=9gNmiWYX8uTbFBeTTvJMdA", "review_count": 2, "categories": [{"alias": "caribbean", "title": "Caribbean"}, {"alias": "buffets", "title": "Buffets"}], "rating": 2.0, "coordinates": {"latitude": 40.69854, "longitude": -73.8069}, "transactions": ["pickup", "delivery"], "location": {"address1": "94-14 Sutphin Blvd", "address2": null, "address3": null, "city": "Jamaica", "zip_code": "11435", "country": "US", "state": "NY", "display_address": ["94-14 Sutphin Blvd", "Jamaica, NY 11435"]}, "phone": "+19293542980", "display_phone": "(929) 354-2980", "distance": 15275.282540065953}, {"id": "bvNXEdDaUyy8zkth500qaw", "alias": "indian-curry-express-richmond-hill", "name": "Indian Curry Express", "image_url": "https://s3-media1.fl.yelpcdn.com/bphoto/w40zVb9YLStXDTOFWwG0OA/o.jpg", "is_closed": false, "url": "https://www.yelp.com/biz/indian-curry-express-richmond-hill?adjust_creative=9gNmiWYX8uTbFBeTTvJMdA&utm_campaign=yelp_api_v3&utm_medium=api_v3_business_search&utm_source=9gNmiWYX8uTbFBeTTvJMdA", "review_count": 115, "categories": [{"alias": "indpak", "title": "Indian"}, {"alias": "venues", "title": "Venues & Event Spaces"}], "rating": 2.0, "coordinates": {"latitude": 40.70188, "longitude": -73.82022}, "transactions": ["pickup", "delivery"], "price": "$$", "location": {"address1": "132-04- Jamaica Ave", "address2": "", "address3": "", "city": "Richmond Hill", "zip_code": "11418", "country": "US", "state": "NY", "display_address": ["132-04- Jamaica Ave", "Richmond Hill, NY 11418"]}, "phone": "+17188493286", "display_phone": "(718) 849-3286", "distance": 14097.924313284839}, {"id": "zqGsKSl95p_vOQQJEniZkQ", "alias": "khans-halal-food-cart-new-york", "name": "Khan's Halal Food Cart", "image_url": "https://s3-media4.fl.yelpcdn.com/bphoto/5-oXQDz13iR2bFZlfXUyOw/o.jpg", "is_closed": false, "url": "https://www.yelp.com/biz/khans-halal-food-cart-new-york?adjust_creative=9gNmiWYX8uTbFBeTTvJMdA&utm_campaign=yelp_api_v3&utm_medium=api_v3_business_search&utm_source=9gNmiWYX8uTbFBeTTvJMdA", "review_count": 60, "categories": [{"alias": "foodtrucks", "title": "Food Trucks"}, {"alias": "halal", "title": "Halal"}], "rating": 3.0, "coordinates": {"latitude": 40.76028, "longitude": -73.76937}, "transactions": [], "price": "$", "location": {"address1": "Bell Blvd & Northern Blvd Corner", "address2": "", "address3": "", "city": "New York", "zip_code": "11361", "country": "US", "state": "NY", "display_address": ["Bell Blvd & Northern Blvd Corner", "New York, NY 11361"]}, "phone": "+13472554781", "display_phone": "(347) 255-4781", "distance": 16863.082960840726}, {"id": "ZshusrRIXhvyT5GMShPCAw", "alias": "panshi-queens", "name": "Panshi", "image_url": "https://s3-media1.fl.yelpcdn.com/bphoto/nxh_Ssk06eM68VQdMkWvoA/o.jpg", "is_closed": false, "url": "https://www.yelp.com/biz/panshi-queens?adjust_creative=9gNmiWYX8uTbFBeTTvJMdA&utm_campaign=yelp_api_v3&utm_medium=api_v3_business_search&utm_source=9gNmiWYX8uTbFBeTTvJMdA", "review_count": 40, "categories": [{"alias": "bangladeshi", "title": "Bangladeshi"}], "rating": 2.0, "coordinates": {"latitude": 40.71076, "longitude": -73.79366}, "transactions": ["pickup", "delivery"], "price": "$", "location": {"address1": "168-37 Hillside Ave", "address2": "", "address3": null, "city": "Queens", "zip_code": "11432", "country": "US", "state": "NY", "display_address": ["168-37 Hillside Ave", "Queens, NY 11432"]}, "phone": "", "display_phone": "", "distance": 15769.079421862632}, {"id": "GSdNS5qa8zAeYPzCB1owBQ", "alias": "ocean-halal-pizza-jersey-city", "name": "Ocean Halal  Pizza", "image_url": "https://s3-media3.fl.yelpcdn.com/bphoto/zuBFCpkUvYZV_4H9KFhp7Q/o.jpg", "is_closed": false, "url": "https://www.yelp.com/biz/ocean-halal-pizza-jersey-city?adjust_creative=9gNmiWYX8uTbFBeTTvJMdA&utm_campaign=yelp_api_v3&utm_medium=api_v3_business_search&utm_source=9gNmiWYX8uTbFBeTTvJMdA", "review_count": 13, "categories": [{"alias": "pizza", "title": "Pizza"}, {"alias": "halal", "title": "Halal"}], "rating": 2.0, "coordinates": {"latitude": 40.70099, "longitude": -74.08341}, "transactions": ["pickup", "delivery"], "location": {"address1": "415 Ocean Ave", "address2": null, "address3": "", "city": "Jersey City", "zip_code": "07305", "country": "US", "state": "NJ", "display_address": ["415 Ocean Ave", "Jersey City, NJ 07305"]}, "phone": "+12013090100", "display_phone": "(201) 309-0100", "distance": 11572.512305466147}, {"id": "CSHtvYGEMS97NYLCs9-nFQ", "alias": "halal-xpress-brooklyn-6", "name": "Halal Xpress", "image_url": "https://s3-media2.fl.yelpcdn.com/bphoto/5ll2q5VjrnrB75sqbUmVYQ/o.jpg", "is_closed": false, "url": "https://www.yelp.com/biz/halal-xpress-brooklyn-6?adjust_creative=9gNmiWYX8uTbFBeTTvJMdA&utm_campaign=yelp_api_v3&utm_medium=api_v3_business_search&utm_source=9gNmiWYX8uTbFBeTTvJMdA", "review_count": 15, "categories": [{"alias": "chinese", "title": "Chinese"}, {"alias": "halal", "title": "Halal"}], "rating": 2.5, "coordinates": {"latitude": 40.64371, "longitude": -73.977667}, "transactions": ["pickup", "delivery"], "location": {"address1": "221 Church Ave", "address2": "", "address3": null, "city": "Brooklyn", "zip_code": "11218", "country": "US", "state": "NY", "display_address": ["221 Church Ave", "Brooklyn, NY 11218"]}, "phone": "+17189753151", "display_phone": "(718) 975-3151", "distance": 12857.18844865214}, {"id": "2At9cxG4uLElc_INpAe0Lw", "alias": "gyro-cafe-brooklyn", "name": "Gyro Cafe", "image_url": "https://s3-media1.fl.yelpcdn.com/bphoto/0IaMt5uV7nX_ejuYYb-igw/o.jpg", "is_closed": false, "url": "https://www.yelp.com/biz/gyro-cafe-brooklyn?adjust_creative=9gNmiWYX8uTbFBeTTvJMdA&utm_campaign=yelp_api_v3&utm_medium=api_v3_business_search&utm_source=9gNmiWYX8uTbFBeTTvJMdA", "review_count": 102, "categories": [{"alias": "mideastern", "title": "Middle Eastern"}, {"alias": "halal", "title": "Halal"}], "rating": 4.0, "coordinates": {"latitude": 40.6431503295898, "longitude": -73.9701995849609}, "transactions": ["pickup", "delivery"], "price": "$", "location": {"address1": "580 Coney Island Ave", "address2": "", "address3": "", "city": "Brooklyn", "zip_code": "11218", "country": "US", "state": "NY", "display_address": ["580 Coney Island Ave", "Brooklyn, NY 11218"]}, "phone": "+17184380860", "display_phone": "(718) 438-0860", "distance": 12900.276774803286}, {"id": "VyP6C-L9405boyQqWTN_mg", "alias": "daawat-restaurant-brooklyn", "name": "Daawat Restaurant", "image_url": "https://s3-media3.fl.yelpcdn.com/bphoto/t-QdXOprJLRnpDTUckkmvw/o.jpg", "is_closed": false, "url": "https://www.yelp.com/biz/daawat-restaurant-brooklyn?adjust_creative=9gNmiWYX8uTbFBeTTvJMdA&utm_campaign=yelp_api_v3&utm_medium=api_v3_business_search&utm_source=9gNmiWYX8uTbFBeTTvJMdA", "review_count": 4, "categories": [{"alias": "indpak", "title": "Indian"}, {"alias": "bangladeshi", "title": "Bangladeshi"}, {"alias": "chinese", "title": "Chinese"}], "rating": 1.0, "coordinates": {"latitude": 40.6792259216309, "longitude": -73.8647689819336}, "transactions": ["pickup", "delivery"], "location": {"address1": "1211 Liberty Ave", "address2": null, "address3": "", "city": "Brooklyn", "zip_code": "11208", "country": "US", "state": "NY", "display_address": ["1211 Liberty Ave", "Brooklyn, NY 11208"]}, "phone": "+17184840673", "display_phone": "(718) 484-0673", "distance": 12537.1054218766}, {"id": "MldrejKJCEdOaIF-mJg2aQ", "alias": "shan-sweets-ozone-park", "name": "Shan Sweets", "image_url": "", "is_closed": false, "url": "https://www.yelp.com/biz/shan-sweets-ozone-park?adjust_creative=9gNmiWYX8uTbFBeTTvJMdA&utm_campaign=yelp_api_v3&utm_medium=api_v3_business_search&utm_source=9gNmiWYX8uTbFBeTTvJMdA", "review_count": 3, "categories": [{"alias": "indpak", "title": "Indian"}, {"alias": "desserts", "title": "Desserts"}], "rating": 5.0, "coordinates": {"latitude": 40.69367, "longitude": -73.82706}, "transactions": [], "location": {"address1": "119-16 94th Ave", "address2": "", "address3": null, "city": "Ozone Park", "zip_code": "11419", "country": "US", "state": "NY", "display_address": ["119-16 94th Ave", "Ozone Park, NY 11419"]}, "phone": "+17188507800", "display_phone": "(718) 850-7800", "distance": 14042.608348667274}, {"id": "g8i7ZoTri1fUGkaIM6fP9A", "alias": "souen-new-york-2", "name": "Souen", "image_url": "https://s3-media2.fl.yelpcdn.com/bphoto/p0zZAIwHvtuUK_qM6P4XdA/o.jpg", "is_closed": false, "url": "https://www.yelp.com/biz/souen-new-york-2?adjust_creative=9gNmiWYX8uTbFBeTTvJMdA&utm_campaign=yelp_api_v3&utm_medium=api_v3_business_search&utm_source=9gNmiWYX8uTbFBeTTvJMdA", "review_count": 350, "categories": [{"alias": "japanese", "title": "Japanese"}, {"alias": "vegan", "title": "Vegan"}], "rating": 3.5, "coordinates": {"latitude": 40.7266693115234, "longitude": -73.9873733520508}, "transactions": ["pickup", "delivery"], "price": "$$", "location": {"address1": "326 E 6th St", "address2": "", "address3": "", "city": "New York", "zip_code": "10003", "country": "US", "state": "NY", "display_address": ["326 E 6th St", "New York, NY 10003"]}, "phone": "+12123881155", "display_phone": "(212) 388-1155", "distance": 3906.041547088263}, {"id": "RTES6LV41eqN3mfjkqASGw", "alias": "indian-diner-south-richmond-hill", "name": "Indian Diner", "image_url": "", "is_closed": false, "url": "https://www.yelp.com/biz/indian-diner-south-richmond-hill?adjust_creative=9gNmiWYX8uTbFBeTTvJMdA&utm_campaign=yelp_api_v3&utm_medium=api_v3_business_search&utm_source=9gNmiWYX8uTbFBeTTvJMdA", "review_count": 4, "categories": [{"alias": "indpak", "title": "Indian"}], "rating": 2.0, "coordinates": {"latitude": 40.6915665, "longitude": -73.8116302}, "transactions": ["pickup", "delivery"], "price": "$$", "location": {"address1": "13508 Liberty Ave", "address2": null, "address3": null, "city": "South Richmond Hill", "zip_code": "11419", "country": "US", "state": "NY", "display_address": ["13508 Liberty Ave", "South Richmond Hill, NY 11419"]}, "phone": "+17182629311", "display_phone": "(718) 262-9311", "distance": 15305.700487524571}, {"id": "8YEW9Skc7m_Fl-7crFzPyQ", "alias": "premium-sweets-and-restaurant-jackson-heights", "name": "Premium Sweets & Restaurant", "image_url": "https://s3-media3.fl.yelpcdn.com/bphoto/PHk0LmwCoRMtl6iVo4Up7Q/o.jpg", "is_closed": false, "url": "https://www.yelp.com/biz/premium-sweets-and-restaurant-jackson-heights?adjust_creative=9gNmiWYX8uTbFBeTTvJMdA&utm_campaign=yelp_api_v3&utm_medium=api_v3_business_search&utm_source=9gNmiWYX8uTbFBeTTvJMdA", "review_count": 63, "categories": [{"alias": "bangladeshi", "title": "Bangladeshi"}, {"alias": "desserts", "title": "Desserts"}], "rating": 2.5, "coordinates": {"latitude": 40.748407, "longitude": -73.893013}, "transactions": ["pickup", "delivery"], "price": "$", "location": {"address1": "3714 73rd St", "address2": "", "address3": "", "city": "Jackson Heights", "zip_code": "11372", "country": "US", "state": "NY", "display_address": ["3714 73rd St", "Jackson Heights, NY 11372"]}, "phone": "+17186725000", "display_phone": "(718) 672-5000", "distance": 6569.164022127227}, {"id": "F4lLNqPJULJbiIm5CeoE9g", "alias": "sagar-chinese-jamaica-jamaica", "name": "Sagar Chinese - Jamaica", "image_url": "https://s3-media4.fl.yelpcdn.com/bphoto/2mb9-twabTyyJD4st41MEA/o.jpg", "is_closed": false, "url": "https://www.yelp.com/biz/sagar-chinese-jamaica-jamaica?adjust_creative=9gNmiWYX8uTbFBeTTvJMdA&utm_campaign=yelp_api_v3&utm_medium=api_v3_business_search&utm_source=9gNmiWYX8uTbFBeTTvJMdA", "review_count": 179, "categories": [{"alias": "chinese", "title": "Chinese"}, {"alias": "halal", "title": "Halal"}, {"alias": "asianfusion", "title": "Asian Fusion"}], "rating": 3.0, "coordinates": {"latitude": 40.7113002, "longitude": -73.7928273}, "transactions": ["pickup", "delivery"], "price": "$$", "location": {"address1": "87-47 Homelawn St", "address2": "", "address3": "", "city": "Jamaica", "zip_code": "11432", "country": "US", "state": "NY", "display_address": ["87-47 Homelawn St", "Jamaica, NY 11432"]}, "phone": "+17186573333", "display_phone": "(718) 657-3333", "distance": 15818.809396439032}, {"id": "1SF1i2yOhxa70COdhqBOvA", "alias": "bappy-sweet-elmhurst", "name": "Bappy Sweet", "image_url": "https://s3-media2.fl.yelpcdn.com/bphoto/rDLl3fKwsU2xxyN9WqyzLQ/o.jpg", "is_closed": false, "url": "https://www.yelp.com/biz/bappy-sweet-elmhurst?adjust_creative=9gNmiWYX8uTbFBeTTvJMdA&utm_campaign=yelp_api_v3&utm_medium=api_v3_business_search&utm_source=9gNmiWYX8uTbFBeTTvJMdA", "review_count": 7, "categories": [{"alias": "desserts", "title": "Desserts"}, {"alias": "bangladeshi", "title": "Bangladeshi"}], "rating": 2.5, "coordinates": {"latitude": 40.741474, "longitude": -73.8801005}, "transactions": [], "price": "$", "location": {"address1": "8507 Whitney Ave", "address2": "", "address3": "", "city": "Elmhurst", "zip_code": "11373", "country": "US", "state": "NY", "display_address": ["8507 Whitney Ave", "Elmhurst, NY 11373"]}, "phone": "+17184580626", "display_phone": "(718) 458-0626", "distance": 7795.11636261059}, {"id": "oUfTF9uBy6MyKiONbgkilw", "alias": "karahi-restaurant-and-grill-jackson-heights", "name": "Karahi Restaurant and Grill", "image_url": "", "is_closed": false, "url": "https://www.yelp.com/biz/karahi-restaurant-and-grill-jackson-heights?adjust_creative=9gNmiWYX8uTbFBeTTvJMdA&utm_campaign=yelp_api_v3&utm_medium=api_v3_business_search&utm_source=9gNmiWYX8uTbFBeTTvJMdA", "review_count": 2, "categories": [{"alias": "indpak", "title": "Indian"}, {"alias": "pakistani", "title": "Pakistani"}], "rating": 2.5, "coordinates": {"latitude": 40.74739, "longitude": -73.89353}, "transactions": [], "location": {"address1": "72-08 Broadway", "address2": "", "address3": "", "city": "Jackson Heights", "zip_code": "11372", "country": "US", "state": "NY", "display_address": ["72-08 Broadway", "Jackson Heights, NY 11372"]}, "phone": "+17185338700", "display_phone": "(718) 533-8700", "distance": 6535.718651406598}, {"id": "zYazbSSzg48b7FneTCvwTw", "alias": "vegan-af-jersey-city", "name": "Vegan AF", "image_url": "https://s3-media4.fl.yelpcdn.com/bphoto/A82FNRybS1hbWIe61sK8PQ/o.jpg", "is_closed": false, "url": "https://www.yelp.com/biz/vegan-af-jersey-city?adjust_creative=9gNmiWYX8uTbFBeTTvJMdA&utm_campaign=yelp_api_v3&utm_medium=api_v3_business_search&utm_source=9gNmiWYX8uTbFBeTTvJMdA", "review_count": 80, "categories": [{"alias": "vegan", "title": "Vegan"}, {"alias": "cafes", "title": "Cafes"}], "rating": 4.5, "coordinates": {"latitude": 40.745123, "longitude": -74.050289}, "transactions": ["pickup", "delivery"], "location": {"address1": "291 Central Ave", "address2": "", "address3": null, "city": "Jersey City", "zip_code": "07307", "country": "US", "state": "NJ", "display_address": ["291 Central Ave", "Jersey City, NJ 07307"]}, "phone": "+12014208656", "display_phone": "(201) 420-8656", "distance": 6976.221440438434}, {"id": "HDmk_Rhk8iZM5ULL70QsPA", "alias": "prince-kabab-and-chinese-restaurant-jackson-heights", "name": "Prince Kabab & Chinese Restaurant", "image_url": "https://s3-media1.fl.yelpcdn.com/bphoto/uFqk4GS2zyoBBEji2N2Yqw/o.jpg", "is_closed": false, "url": "https://www.yelp.com/biz/prince-kabab-and-chinese-restaurant-jackson-heights?adjust_creative=9gNmiWYX8uTbFBeTTvJMdA&utm_campaign=yelp_api_v3&utm_medium=api_v3_business_search&utm_source=9gNmiWYX8uTbFBeTTvJMdA", "review_count": 30, "categories": [{"alias": "chinese", "title": "Chinese"}, {"alias": "bangladeshi", "title": "Bangladeshi"}, {"alias": "kebab", "title": "Kebab"}], "rating": 2.5, "coordinates": {"latitude": 40.7474201, "longitude": -73.8919181}, "transactions": ["pickup", "delivery"], "price": "$$", "location": {"address1": "37-56 74th St", "address2": "", "address3": "", "city": "Jackson Heights", "zip_code": "11372", "country": "US", "state": "NY", "display_address": ["37-56 74th St", "Jackson Heights, NY 11372"]}, "phone": "+13478225204", "display_phone": "(347) 822-5204", "distance": 6670.50405608248}, {"id": "Tl62WKPOTpGfhSTcHNKkLQ", "alias": "express-halal-cart-new-york-2", "name": "Express Halal Cart", "image_url": "https://s3-media2.fl.yelpcdn.com/bphoto/FeI_zQaYNZOdBVv8ktkDlw/o.jpg", "is_closed": false, "url": "https://www.yelp.com/biz/express-halal-cart-new-york-2?adjust_creative=9gNmiWYX8uTbFBeTTvJMdA&utm_campaign=yelp_api_v3&utm_medium=api_v3_business_search&utm_source=9gNmiWYX8uTbFBeTTvJMdA", "review_count": 2, "categories": [{"alias": "streetvendors", "title": "Street Vendors"}, {"alias": "halal", "title": "Halal"}], "rating": 5.0, "coordinates": {"latitude": 40.7074818321323, "longitude": -74.008410199089}, "transactions": [], "location": {"address1": "", "address2": "", "address3": "", "city": "New York", "zip_code": "10001", "country": "US", "state": "NY", "display_address": ["New York, NY 10001"]}, "phone": "", "display_phone": "", "distance": 6614.1564447154715}, {"id": "u1KbxbnFOpcBviPOwIPPRw", "alias": "picky-eaters-restaurant-flatbush-ditmas-park", "name": "Picky Eaters Restaurant", "image_url": "https://s3-media3.fl.yelpcdn.com/bphoto/hO9IBPbQWSS4Kn8BwjHfRw/o.jpg", "is_closed": false, "url": "https://www.yelp.com/biz/picky-eaters-restaurant-flatbush-ditmas-park?adjust_creative=9gNmiWYX8uTbFBeTTvJMdA&utm_campaign=yelp_api_v3&utm_medium=api_v3_business_search&utm_source=9gNmiWYX8uTbFBeTTvJMdA", "review_count": 50, "categories": [{"alias": "trinidadian", "title": "Trinidadian"}, {"alias": "bbq", "title": "Barbeque"}, {"alias": "chicken_wings", "title": "Chicken Wings"}], "rating": 4.0, "coordinates": {"latitude": 40.6351299, "longitude": -73.95055}, "transactions": ["pickup", "delivery"], "price": "$$", "location": {"address1": "1456 Flatbush Ave", "address2": "", "address3": "", "city": "Flatbush - Ditmas Park", "zip_code": "11210", "country": "US", "state": "NY", "display_address": ["1456 Flatbush Ave", "Flatbush - Ditmas Park, NY 11210"]}, "phone": "+19179669732", "display_phone": "(917) 966-9732", "distance": 13881.582494315662}, {"id": "KSzNIueYgSIipZhcDgXovQ", "alias": "afghan-kebab-and-grill-jackson-heights", "name": "Afghan Kebab & Grill", "image_url": "https://s3-media1.fl.yelpcdn.com/bphoto/q6JXjYYdMbRimsJLrqXkjg/o.jpg", "is_closed": false, "url": "https://www.yelp.com/biz/afghan-kebab-and-grill-jackson-heights?adjust_creative=9gNmiWYX8uTbFBeTTvJMdA&utm_campaign=yelp_api_v3&utm_medium=api_v3_business_search&utm_source=9gNmiWYX8uTbFBeTTvJMdA", "review_count": 101, "categories": [{"alias": "afghani", "title": "Afghan"}, {"alias": "seafood", "title": "Seafood"}], "rating": 3.0, "coordinates": {"latitude": 40.7488353, "longitude": -73.8914734}, "transactions": ["pickup", "delivery"], "price": "$$", "location": {"address1": "74-16 37th Ave", "address2": "", "address3": "", "city": "Jackson Heights", "zip_code": "11372", "country": "US", "state": "NY", "display_address": ["74-16 37th Ave", "Jackson Heights, NY 11372"]}, "phone": "+17185078800", "display_phone": "(718) 507-8800", "distance": 6701.861932462485}, {"id": "6ofWn_lb3lnTe93hj4I8uA", "alias": "narruto-bowl-teaneck", "name": "Narruto Bowl", "image_url": "https://s3-media4.fl.yelpcdn.com/bphoto/U0Hw8duUlTp1ACsAuQOvOA/o.jpg", "is_closed": false, "url": "https://www.yelp.com/biz/narruto-bowl-teaneck?adjust_creative=9gNmiWYX8uTbFBeTTvJMdA&utm_campaign=yelp_api_v3&utm_medium=api_v3_business_search&utm_source=9gNmiWYX8uTbFBeTTvJMdA", "review_count": 21, "categories": [{"alias": "asianfusion", "title": "Asian Fusion"}, {"alias": "kosher", "title": "Kosher"}, {"alias": "desserts", "title": "Desserts"}], "rating": 2.5, "coordinates": {"latitude": 40.88931, "longitude": -74.022075}, "transactions": ["pickup", "delivery"], "location": {"address1": "461 Cedar Ln", "address2": "", "address3": null, "city": "Teaneck", "zip_code": "07666", "country": "US", "state": "NJ", "display_address": ["461 Cedar Ln", "Teaneck, NJ 07666"]}, "phone": "+12013792020", "display_phone": "(201) 379-2020", "distance": 15130.19305238417}, {"id": "j5PnvDzngRUxcI6gAu2m5w", "alias": "tropical-jade-3-richmond-hill", "name": "Tropical Jade 3", "image_url": "https://s3-media2.fl.yelpcdn.com/bphoto/7JtBtyAwX-zTuU-nJcppmg/o.jpg", "is_closed": false, "url": "https://www.yelp.com/biz/tropical-jade-3-richmond-hill?adjust_creative=9gNmiWYX8uTbFBeTTvJMdA&utm_campaign=yelp_api_v3&utm_medium=api_v3_business_search&utm_source=9gNmiWYX8uTbFBeTTvJMdA", "review_count": 17, "categories": [{"alias": "chinese", "title": "Chinese"}, {"alias": "trinidadian", "title": "Trinidadian"}], "rating": 3.5, "coordinates": {"latitude": 40.68625, "longitude": -73.82494}, "transactions": [], "location": {"address1": "118-03 Liberty Ave", "address2": "", "address3": null, "city": "Richmond Hill", "zip_code": "11419", "country": "US", "state": "NY", "display_address": ["118-03 Liberty Ave", "Richmond Hill, NY 11419"]}, "phone": "+17185719888", "display_phone": "(718) 571-9888", "distance": 14639.075915603305}, {"id": "HGm3itKMaPIjUd-_qPICcQ", "alias": "aks-halal-deli-and-grill-norwood", "name": "AKS Halal Deli & Grill", "image_url": "https://s3-media2.fl.yelpcdn.com/bphoto/7iyj0kiOU9u8OKRzcyx-qA/o.jpg", "is_closed": false, "url": "https://www.yelp.com/biz/aks-halal-deli-and-grill-norwood?adjust_creative=9gNmiWYX8uTbFBeTTvJMdA&utm_campaign=yelp_api_v3&utm_medium=api_v3_business_search&utm_source=9gNmiWYX8uTbFBeTTvJMdA", "review_count": 26, "categories": [{"alias": "halal", "title": "Halal"}, {"alias": "hotdogs", "title": "Fast Food"}, {"alias": "grocery", "title": "Grocery"}], "rating": 2.0, "coordinates": {"latitude": 40.872757, "longitude": -73.877884}, "transactions": ["pickup", "delivery"], "price": "$", "location": {"address1": "319 E 204th St", "address2": "", "address3": "", "city": "Norwood", "zip_code": "10467", "country": "US", "state": "NY", "display_address": ["319 E 204th St", "Norwood, NY 10467"]}, "phone": "+13472972032", "display_phone": "(347) 297-2032", "distance": 14800.641543178106}, {"id": "ZdDe1iwmJr6GQV5qyQT2wQ", "alias": "paradise-halal-meat-and-grill-queens", "name": "Paradise Halal Meat & Grill", "image_url": "https://s3-media3.fl.yelpcdn.com/bphoto/ZTMcfJuYXW8yd-NZ5A8qdw/o.jpg", "is_closed": false, "url": "https://www.yelp.com/biz/paradise-halal-meat-and-grill-queens?adjust_creative=9gNmiWYX8uTbFBeTTvJMdA&utm_campaign=yelp_api_v3&utm_medium=api_v3_business_search&utm_source=9gNmiWYX8uTbFBeTTvJMdA", "review_count": 13, "categories": [{"alias": "halal", "title": "Halal"}, {"alias": "grocery", "title": "Grocery"}, {"alias": "delis", "title": "Delis"}], "rating": 2.0, "coordinates": {"latitude": 40.7396552067377, "longitude": -73.7893593683839}, "transactions": ["delivery"], "location": {"address1": "184-18 Horace Harding Expy", "address2": "", "address3": null, "city": "Queens", "zip_code": "11365", "country": "US", "state": "NY", "display_address": ["184-18 Horace Harding Expy", "Queens, NY 11365"]}, "phone": "+17183535060", "display_phone": "(718) 353-5060", "distance": 15335.295141863164}, {"id": "_hEfuDthNKUPSfIoGwobgw", "alias": "halal-cart-new-york-60", "name": "Halal Cart", "image_url": "https://s3-media3.fl.yelpcdn.com/bphoto/6oCTaxWDiksxEEH1vZZTDQ/o.jpg", "is_closed": false, "url": "https://www.yelp.com/biz/halal-cart-new-york-60?adjust_creative=9gNmiWYX8uTbFBeTTvJMdA&utm_campaign=yelp_api_v3&utm_medium=api_v3_business_search&utm_source=9gNmiWYX8uTbFBeTTvJMdA", "review_count": 9, "categories": [{"alias": "foodtrucks", "title": "Food Trucks"}, {"alias": "halal", "title": "Halal"}], "rating": 4.5, "coordinates": {"latitude": 40.7180959, "longitude": -73.9858643}, "transactions": ["pickup", "delivery"], "price": "$", "location": {"address1": "160 Delancey St", "address2": "", "address3": "", "city": "New York", "zip_code": "10002", "country": "US", "state": "NY", "display_address": ["160 Delancey St", "New York, NY 10002"]}, "phone": "", "display_phone": "", "distance": 4769.49257003997}, {"id": "XEN8cu1woUXfadkWBoxjRQ", "alias": "premium-sweets-jamaica", "name": "Premium Sweets", "image_url": "https://s3-media3.fl.yelpcdn.com/bphoto/JhMRTmSTCHNpCfGGpqSH3w/o.jpg", "is_closed": false, "url": "https://www.yelp.com/biz/premium-sweets-jamaica?adjust_creative=9gNmiWYX8uTbFBeTTvJMdA&utm_campaign=yelp_api_v3&utm_medium=api_v3_business_search&utm_source=9gNmiWYX8uTbFBeTTvJMdA", "review_count": 33, "categories": [{"alias": "indpak", "title": "Indian"}, {"alias": "bakeries", "title": "Bakeries"}], "rating": 2.0, "coordinates": {"latitude": 40.7101171463728, "longitude": -73.7945732474327}, "transactions": ["pickup", "delivery"], "price": "$", "location": {"address1": "168-03 Hillside Ave", "address2": "", "address3": "", "city": "Jamaica", "zip_code": "11432", "country": "US", "state": "NY", "display_address": ["168-03 Hillside Ave", "Jamaica, NY 11432"]}, "phone": "", "display_phone": "", "distance": 15717.299352475287}, {"id": "FejdpQ-25jy6NcatdbKwrA", "alias": "dhaka-sweets-and-restaurant-jamaica-2", "name": "Dhaka Sweets", "image_url": "https://s3-media1.fl.yelpcdn.com/bphoto/wlBPVVaYo2Uvnu6sHx5FfQ/o.jpg", "is_closed": false, "url": "https://www.yelp.com/biz/dhaka-sweets-and-restaurant-jamaica-2?adjust_creative=9gNmiWYX8uTbFBeTTvJMdA&utm_campaign=yelp_api_v3&utm_medium=api_v3_business_search&utm_source=9gNmiWYX8uTbFBeTTvJMdA", "review_count": 24, "categories": [{"alias": "bangladeshi", "title": "Bangladeshi"}], "rating": 4.0, "coordinates": {"latitude": 40.7102866, "longitude": -73.793664}, "transactions": ["pickup", "delivery"], "price": "$", "location": {"address1": "168-32 Hillside Ave", "address2": "", "address3": "", "city": "Jamaica", "zip_code": "11432", "country": "US", "state": "NY", "display_address": ["168-32 Hillside Ave", "Jamaica, NY 11432"]}, "phone": "+17182629774", "display_phone": "(718) 262-9774", "distance": 15800.562595485053}, {"id": "YES1oCXuC-uggcnr8txElw", "alias": "the-panorama-of-my-silence-heart-jamaica-5", "name": "The Panorama of My Silence-Heart", "image_url": "https://s3-media2.fl.yelpcdn.com/bphoto/VKzpe4hwbVbR5xcAlNQyvg/o.jpg", "is_closed": false, "url": "https://www.yelp.com/biz/the-panorama-of-my-silence-heart-jamaica-5?adjust_creative=9gNmiWYX8uTbFBeTTvJMdA&utm_campaign=yelp_api_v3&utm_medium=api_v3_business_search&utm_source=9gNmiWYX8uTbFBeTTvJMdA", "review_count": 331, "categories": [{"alias": "coffee", "title": "Coffee & Tea"}, {"alias": "vegetarian", "title": "Vegetarian"}, {"alias": "juicebars", "title": "Juice Bars & Smoothies"}], "rating": 4.5, "coordinates": {"latitude": 40.7124281, "longitude": -73.8063559}, "transactions": ["pickup"], "price": "$", "location": {"address1": "84-73 Parsons Blvd", "address2": "", "address3": "", "city": "Jamaica", "zip_code": "11432", "country": "US", "state": "NY", "display_address": ["84-73 Parsons Blvd", "Jamaica, NY 11432"]}, "phone": "+17182064960", "display_phone": "(718) 206-4960", "distance": 14712.511476975325}, {"id": "b7cwwjX2vT0v-xc2mySYgw", "alias": "gyro-express-jamaica", "name": "Gyro Express", "image_url": "https://s3-media4.fl.yelpcdn.com/bphoto/ecQCA0WB4YIQYf_CQMI3Tg/o.jpg", "is_closed": false, "url": "https://www.yelp.com/biz/gyro-express-jamaica?adjust_creative=9gNmiWYX8uTbFBeTTvJMdA&utm_campaign=yelp_api_v3&utm_medium=api_v3_business_search&utm_source=9gNmiWYX8uTbFBeTTvJMdA", "review_count": 9, "categories": [{"alias": "halal", "title": "Halal"}, {"alias": "indpak", "title": "Indian"}, {"alias": "pakistani", "title": "Pakistani"}], "rating": 2.5, "coordinates": {"latitude": 40.7081909, "longitude": -73.8032684}, "transactions": [], "location": {"address1": "87-44 Parsons Blvd", "address2": "", "address3": "", "city": "Jamaica", "zip_code": "11432", "country": "US", "state": "NY", "display_address": ["87-44 Parsons Blvd", "Jamaica, NY 11432"]}, "phone": "+17186585353", "display_phone": "(718) 658-5353", "distance": 15118.855539297016}, {"id": "uI9guhVd0XF8iVzeFZJAtg", "alias": "sonnys-roti-shop-ozone-park", "name": "Sonny's Roti Shop", "image_url": "https://s3-media3.fl.yelpcdn.com/bphoto/-tBJ8u3s51WC51vCR3MCpg/o.jpg", "is_closed": false, "url": "https://www.yelp.com/biz/sonnys-roti-shop-ozone-park?adjust_creative=9gNmiWYX8uTbFBeTTvJMdA&utm_campaign=yelp_api_v3&utm_medium=api_v3_business_search&utm_source=9gNmiWYX8uTbFBeTTvJMdA", "review_count": 37, "categories": [{"alias": "trinidadian", "title": "Trinidadian"}], "rating": 3.5, "coordinates": {"latitude": 40.68581, "longitude": -73.82465}, "transactions": ["delivery"], "price": "$", "location": {"address1": "118-06 Liberty Ave", "address2": "", "address3": "", "city": "Ozone Park", "zip_code": "11419", "country": "US", "state": "NY", "display_address": ["118-06 Liberty Ave", "Ozone Park, NY 11419"]}, "phone": "+17188357255", "display_phone": "(718) 835-7255", "distance": 14679.295664576794}, {"id": "GFu9tYQD3y8HhSJ6tG4rYQ", "alias": "bbq-village-palace-jamaica", "name": "BBQ Village Palace", "image_url": "https://s3-media2.fl.yelpcdn.com/bphoto/Dqluqhazj-1SLbOSMUeTpw/o.jpg", "is_closed": false, "url": "https://www.yelp.com/biz/bbq-village-palace-jamaica?adjust_creative=9gNmiWYX8uTbFBeTTvJMdA&utm_campaign=yelp_api_v3&utm_medium=api_v3_business_search&utm_source=9gNmiWYX8uTbFBeTTvJMdA", "review_count": 29, "categories": [{"alias": "indpak", "title": "Indian"}, {"alias": "bbq", "title": "Barbeque"}], "rating": 2.5, "coordinates": {"latitude": 40.7131012, "longitude": -73.7814945}, "transactions": ["delivery"], "price": "$", "location": {"address1": "18112 Hillside Ave", "address2": "", "address3": "", "city": "Jamaica", "zip_code": "11432", "country": "US", "state": "NY", "display_address": ["18112 Hillside Ave", "Jamaica, NY 11432"]}, "phone": "+17182989099", "display_phone": "(718) 298-9099", "distance": 16678.971987628145}, {"id": "elvL_HW9jfLLDVhwoIx_Ww", "alias": "veggie-castle-ii-south-richmond-hill", "name": "Veggie Castle II", "image_url": "https://s3-media3.fl.yelpcdn.com/bphoto/9eLzZbGnXvPvc1bcCKRLrw/o.jpg", "is_closed": false, "url": "https://www.yelp.com/biz/veggie-castle-ii-south-richmond-hill?adjust_creative=9gNmiWYX8uTbFBeTTvJMdA&utm_campaign=yelp_api_v3&utm_medium=api_v3_business_search&utm_source=9gNmiWYX8uTbFBeTTvJMdA", "review_count": 530, "categories": [{"alias": "juicebars", "title": "Juice Bars & Smoothies"}, {"alias": "vegan", "title": "Vegan"}, {"alias": "salad", "title": "Salad"}], "rating": 4.5, "coordinates": {"latitude": 40.6908513035417, "longitude": -73.8138093799353}, "transactions": ["delivery"], "price": "$$", "location": {"address1": "13209 Liberty Ave", "address2": "", "address3": "", "city": "South Richmond Hill", "zip_code": "11419", "country": "US", "state": "NY", "display_address": ["13209 Liberty Ave", "South Richmond Hill, NY 11419"]}, "phone": "+17186418342", "display_phone": "(718) 641-8342", "distance": 15166.159191758185}, {"id": "ExOHOMrBuPSFmDaLDvtSJw", "alias": "trini-gyul-jamaica", "name": "Trini Gyul", "image_url": "", "is_closed": false, "url": "https://www.yelp.com/biz/trini-gyul-jamaica?adjust_creative=9gNmiWYX8uTbFBeTTvJMdA&utm_campaign=yelp_api_v3&utm_medium=api_v3_business_search&utm_source=9gNmiWYX8uTbFBeTTvJMdA", "review_count": 12, "categories": [{"alias": "indpak", "title": "Indian"}, {"alias": "sportsbars", "title": "Sports Bars"}], "rating": 3.0, "coordinates": {"latitude": 40.68504, "longitude": -73.82958}, "transactions": [], "price": "$", "location": {"address1": "112-16 Liberty Ave Queens", "address2": "", "address3": "", "city": "Jamaica", "zip_code": "11419", "country": "US", "state": "NY", "display_address": ["112-16 Liberty Ave Queens", "Jamaica, NY 11419"]}, "phone": "+17186591020", "display_phone": "(718) 659-1020", "distance": 14384.031593324005}, {"id": "4oXj1ibfudrp4BkHcMjyrQ", "alias": "uncles-fried-chicken-jamaica", "name": "Uncle's Fried Chicken", "image_url": "https://s3-media3.fl.yelpcdn.com/bphoto/mvWr8LGfEzt2cHaU8b06vg/o.jpg", "is_closed": false, "url": "https://www.yelp.com/biz/uncles-fried-chicken-jamaica?adjust_creative=9gNmiWYX8uTbFBeTTvJMdA&utm_campaign=yelp_api_v3&utm_medium=api_v3_business_search&utm_source=9gNmiWYX8uTbFBeTTvJMdA", "review_count": 25, "categories": [{"alias": "halal", "title": "Halal"}, {"alias": "chicken_wings", "title": "Chicken Wings"}, {"alias": "burgers", "title": "Burgers"}], "rating": 3.5, "coordinates": {"latitude": 40.7085304, "longitude": -73.7989883}, "transactions": ["pickup", "delivery"], "price": "$", "location": {"address1": "163-04 Hillside Ave", "address2": "", "address3": "", "city": "Jamaica", "zip_code": "11432", "country": "US", "state": "NY", "display_address": ["163-04 Hillside Ave", "Jamaica, NY 11432"]}, "phone": "+17183743466", "display_phone": "(718) 374-3466", "distance": 15432.620691028362}, {"id": "bzWazLmV5qG4mX8kFjyobw", "alias": "sahara-halal-food-cart-forest-hills", "name": "Sahara Halal Food Cart", "image_url": "https://s3-media1.fl.yelpcdn.com/bphoto/Av-Ys0g3tdlEoZRWCOU3jg/o.jpg", "is_closed": false, "url": "https://www.yelp.com/biz/sahara-halal-food-cart-forest-hills?adjust_creative=9gNmiWYX8uTbFBeTTvJMdA&utm_campaign=yelp_api_v3&utm_medium=api_v3_business_search&utm_source=9gNmiWYX8uTbFBeTTvJMdA", "review_count": 79, "categories": [{"alias": "halal", "title": "Halal"}, {"alias": "streetvendors", "title": "Street Vendors"}], "rating": 3.5, "coordinates": {"latitude": 40.7204758375883, "longitude": -73.8445293903351}, "transactions": ["pickup", "delivery"], "price": "$", "location": {"address1": "107-16 71st Ave", "address2": "", "address3": "", "city": "Forest Hills", "zip_code": "11375", "country": "US", "state": "NY", "display_address": ["107-16 71st Ave", "Forest Hills, NY 11375"]}, "phone": "", "display_phone": "", "distance": 11391.318325774018}, {"id": "qEXpXF4p8uM1BfqV5tdYqg", "alias": "darbars-chicken-and-ribs-south-richmond-hill", "name": "Darbars Chicken & Ribs", "image_url": "https://s3-media2.fl.yelpcdn.com/bphoto/arE0DcOHgU_tFGJsT7eXww/o.jpg", "is_closed": false, "url": "https://www.yelp.com/biz/darbars-chicken-and-ribs-south-richmond-hill?adjust_creative=9gNmiWYX8uTbFBeTTvJMdA&utm_campaign=yelp_api_v3&utm_medium=api_v3_business_search&utm_source=9gNmiWYX8uTbFBeTTvJMdA", "review_count": 139, "categories": [{"alias": "halal", "title": "Halal"}, {"alias": "burgers", "title": "Burgers"}, {"alias": "seafood", "title": "Seafood"}], "rating": 3.5, "coordinates": {"latitude": 40.688737, "longitude": -73.8181408}, "transactions": ["pickup", "delivery"], "price": "$", "location": {"address1": "12609 Liberty Ave", "address2": "", "address3": "", "city": "South Richmond Hill", "zip_code": "11419", "country": "US", "state": "NY", "display_address": ["12609 Liberty Ave", "South Richmond Hill, NY 11419"]}, "phone": "+17185294900", "display_phone": "(718) 529-4900", "distance": 14973.178966822627}], "total": 902, "region": {"center": {"longitude": -73.96957397460938, "latitude": 40.75917470627005}}}