{"businesses": [{"id": "jvPYm9rYK-5ddnjU30Oz4Q", "alias": "avant-garden-new-york", "name": "Avant Garden", "image_url": "https://s3-media1.fl.yelpcdn.com/bphoto/0DTlNsBy9zXYsgM9nTLv-Q/o.jpg", "is_closed": false, "url": "https://www.yelp.com/biz/avant-garden-new-york?adjust_creative=9gNmiWYX8uTbFBeTTvJMdA&utm_campaign=yelp_api_v3&utm_medium=api_v3_business_search&utm_source=9gNmiWYX8uTbFBeTTvJMdA", "review_count": 415, "categories": [{"alias": "newamerican", "title": "American (New)"}, {"alias": "vegan", "title": "Vegan"}, {"alias": "vegetarian", "title": "Vegetarian"}], "rating": 4.5, "coordinates": {"latitude": 40.7261499, "longitude": -73.98402}, "transactions": ["delivery", "pickup"], "price": "$$$", "location": {"address1": "130 E 7th St", "address2": null, "address3": "", "city": "New York", "zip_code": "10009", "country": "US", "state": "NY", "display_address": ["130 E 7th St", "New York, NY 10009"]}, "phone": "+19173367179", "display_phone": "(917) 336-7179", "distance": 3871.11361378816}, {"id": "17hj-J-E7UFki3Brshu0lQ", "alias": "taste-of-india-teaneck-2", "name": "Taste Of India", "image_url": "https://s3-media1.fl.yelpcdn.com/bphoto/TK-YhCm4aoe_RaKFS93XhA/o.jpg", "is_closed": false, "url": "https://www.yelp.com/biz/taste-of-india-teaneck-2?adjust_creative=9gNmiWYX8uTbFBeTTvJMdA&utm_campaign=yelp_api_v3&utm_medium=api_v3_business_search&utm_source=9gNmiWYX8uTbFBeTTvJMdA", "review_count": 84, "categories": [{"alias": "indpak", "title": "Indian"}], "rating": 4.0, "coordinates": {"latitude": 40.8857883, "longitude": -74.0123522}, "transactions": ["delivery", "pickup"], "price": "$$", "location": {"address1": "166 Cedar Ln", "address2": null, "address3": "", "city": "Teaneck", "zip_code": "07666", "country": "US", "state": "NJ", "display_address": ["166 Cedar Ln", "Teaneck, NJ 07666"]}, "phone": "+12016923222", "display_phone": "(201) 692-3222", "distance": 14523.497633733288}, {"id": "NKI1VvfXYluRjnq4S6yEuw", "alias": "divyas-kitchen-new-york", "name": "Divya's Kitchen", "image_url": "https://s3-media3.fl.yelpcdn.com/bphoto/WFW-9lYNtQRwUfnkZj_QaQ/o.jpg", "is_closed": false, "url": "https://www.yelp.com/biz/divyas-kitchen-new-york?adjust_creative=9gNmiWYX8uTbFBeTTvJMdA&utm_campaign=yelp_api_v3&utm_medium=api_v3_business_search&utm_source=9gNmiWYX8uTbFBeTTvJMdA", "review_count": 460, "categories": [{"alias": "vegan", "title": "Vegan"}, {"alias": "vegetarian", "title": "Vegetarian"}], "rating": 4.5, "coordinates": {"latitude": 40.72378, "longitude": -73.98849}, "transactions": ["delivery", "pickup"], "price": "$$", "location": {"address1": "25 1st Ave", "address2": null, "address3": "", "city": "New York", "zip_code": "10003", "country": "US", "state": "NY", "display_address": ["25 1st Ave", "New York, NY 10003"]}, "phone": "+12124774834", "display_phone": "(212) 477-4834", "distance": 4247.173222280641}, {"id": "Y2I946V78wOdwaUD9chmqg", "alias": "roti-roll-bombay-frankie-new-york", "name": "Roti Roll Bombay Frankie", "image_url": "https://s3-media2.fl.yelpcdn.com/bphoto/yynjNstMaOWDTOvXdpRiFQ/o.jpg", "is_closed": false, "url": "https://www.yelp.com/biz/roti-roll-bombay-frankie-new-york?adjust_creative=9gNmiWYX8uTbFBeTTvJMdA&utm_campaign=yelp_api_v3&utm_medium=api_v3_business_search&utm_source=9gNmiWYX8uTbFBeTTvJMdA", "review_count": 413, "categories": [{"alias": "indpak", "title": "Indian"}], "rating": 4.0, "coordinates": {"latitude": 40.8026, "longitude": -73.96437}, "transactions": ["delivery", "pickup"], "price": "$", "location": {"address1": "994 Amsterdam Ave", "address2": "", "address3": "", "city": "New York", "zip_code": "10025", "country": "US", "state": "NY", "display_address": ["994 Amsterdam Ave", "New York, NY 10025"]}, "phone": "+12126661500", "display_phone": "(212) 666-1500", "distance": 4849.230043181628}, {"id": "NzU2hb0z0jGEOOv0-zTLEQ", "alias": "sigiri-new-york", "name": "Sigiri", "image_url": "https://s3-media3.fl.yelpcdn.com/bphoto/WZDYvsYq1ouVr3wPvds7-Q/o.jpg", "is_closed": false, "url": "https://www.yelp.com/biz/sigiri-new-york?adjust_creative=9gNmiWYX8uTbFBeTTvJMdA&utm_campaign=yelp_api_v3&utm_medium=api_v3_business_search&utm_source=9gNmiWYX8uTbFBeTTvJMdA", "review_count": 654, "categories": [{"alias": "srilankan", "title": "Sri Lankan"}], "rating": 4.0, "coordinates": {"latitude": 40.726261, "longitude": -73.986686}, "transactions": ["delivery", "pickup"], "price": "$$", "location": {"address1": "91 1st Ave", "address2": null, "address3": "", "city": "New York", "zip_code": "10003", "country": "US", "state": "NY", "display_address": ["91 1st Ave", "New York, NY 10003"]}, "phone": "+12126149333", "display_phone": "(212) 614-9333", "distance": 3935.366296712371}, {"id": "lIE4KHySIenwPbta1JuM8Q", "alias": "mumbai-masala-new-york-2", "name": "Mumbai Masala", "image_url": "https://s3-media2.fl.yelpcdn.com/bphoto/dzb9T6-Jwd3kiZXjmuBO_w/o.jpg", "is_closed": false, "url": "https://www.yelp.com/biz/mumbai-masala-new-york-2?adjust_creative=9gNmiWYX8uTbFBeTTvJMdA&utm_campaign=yelp_api_v3&utm_medium=api_v3_business_search&utm_source=9gNmiWYX8uTbFBeTTvJMdA", "review_count": 273, "categories": [{"alias": "indpak", "title": "Indian"}], "rating": 4.5, "coordinates": {"latitude": 40.82695, "longitude": -73.94676}, "transactions": ["delivery", "pickup"], "price": "$$", "location": {"address1": "1768 Amsterdam Ave", "address2": "", "address3": null, "city": "New York", "zip_code": "10031", "country": "US", "state": "NY", "display_address": ["1768 Amsterdam Ave", "New York, NY 10031"]}, "phone": "+12123680100", "display_phone": "(212) 368-0100", "distance": 7777.6021639950095}, {"id": "SP4bvMvxel_UPdof_er3HA", "alias": "taco-mahal-new-york", "name": "Taco Mahal", "image_url": "https://s3-media2.fl.yelpcdn.com/bphoto/wo7f5lvsgtQ5fOeWw6z83A/o.jpg", "is_closed": false, "url": "https://www.yelp.com/biz/taco-mahal-new-york?adjust_creative=9gNmiWYX8uTbFBeTTvJMdA&utm_campaign=yelp_api_v3&utm_medium=api_v3_business_search&utm_source=9gNmiWYX8uTbFBeTTvJMdA", "review_count": 790, "categories": [{"alias": "indpak", "title": "Indian"}, {"alias": "tacos", "title": "Tacos"}, {"alias": "latin", "title": "Latin American"}], "rating": 4.5, "coordinates": {"latitude": 40.73235768476899, "longitude": -74.00332645767203}, "transactions": ["delivery", "pickup"], "price": "$$", "location": {"address1": "73 7th Ave S", "address2": "", "address3": null, "city": "New York", "zip_code": "10014", "country": "US", "state": "NY", "display_address": ["73 7th Ave S", "New York, NY 10014"]}, "phone": "+16467191553", "display_phone": "(646) 719-1553", "distance": 4120.2819500480855}, {"id": "KbCLZOKvPdNY7ptAg0kGxw", "alias": "the-kati-roll-company-new-york-4", "name": "The Kati Roll Company", "image_url": "https://s3-media3.fl.yelpcdn.com/bphoto/lktNWRydncGn3znLEC1S5Q/o.jpg", "is_closed": false, "url": "https://www.yelp.com/biz/the-kati-roll-company-new-york-4?adjust_creative=9gNmiWYX8uTbFBeTTvJMdA&utm_campaign=yelp_api_v3&utm_medium=api_v3_business_search&utm_source=9gNmiWYX8uTbFBeTTvJMdA", "review_count": 350, "categories": [{"alias": "indpak", "title": "Indian"}, {"alias": "halal", "title": "Halal"}], "rating": 3.5, "coordinates": {"latitude": 40.7574005, "longitude": -73.968071}, "transactions": ["delivery", "pickup"], "price": "$", "location": {"address1": "229 E 53rd St", "address2": "", "address3": "", "city": "New York", "zip_code": "10022", "country": "US", "state": "NY", "display_address": ["229 E 53rd St", "New York, NY 10022"]}, "phone": "+12128881700", "display_phone": "(212) 888-1700", "distance": 235.68260795784792}, {"id": "gsZUN1Vtpd3P7rdvANbrmg", "alias": "indian-kitchen-brooklyn-3", "name": "Indian Kitchen", "image_url": "https://s3-media2.fl.yelpcdn.com/bphoto/xpsqgaQOMdJItOVtRXybuA/o.jpg", "is_closed": false, "url": "https://www.yelp.com/biz/indian-kitchen-brooklyn-3?adjust_creative=9gNmiWYX8uTbFBeTTvJMdA&utm_campaign=yelp_api_v3&utm_medium=api_v3_business_search&utm_source=9gNmiWYX8uTbFBeTTvJMdA", "review_count": 218, "categories": [{"alias": "indpak", "title": "Indian"}], "rating": 4.0, "coordinates": {"latitude": 40.711924, "longitude": -73.943326}, "transactions": ["delivery", "pickup"], "price": "$$", "location": {"address1": "739 Grand St", "address2": "", "address3": "", "city": "Brooklyn", "zip_code": "11211", "country": "US", "state": "NY", "display_address": ["739 Grand St", "Brooklyn, NY 11211"]}, "phone": "+17182187600", "display_phone": "(718) 218-7600", "distance": 5698.627474239718}, {"id": "zi4fUgOwwGB5PYR2xq0OCQ", "alias": "namaste-india-edgewater-3", "name": "Namaste India", "image_url": "https://s3-media2.fl.yelpcdn.com/bphoto/bSs_jwWLZaLOBHrf9bdVpA/o.jpg", "is_closed": false, "url": "https://www.yelp.com/biz/namaste-india-edgewater-3?adjust_creative=9gNmiWYX8uTbFBeTTvJMdA&utm_campaign=yelp_api_v3&utm_medium=api_v3_business_search&utm_source=9gNmiWYX8uTbFBeTTvJMdA", "review_count": 326, "categories": [{"alias": "indpak", "title": "Indian"}], "rating": 4.0, "coordinates": {"latitude": 40.82533, "longitude": -73.97495}, "transactions": ["delivery", "pickup"], "price": "$$", "location": {"address1": "880 River Rd", "address2": null, "address3": "", "city": "Edgewater", "zip_code": "07020", "country": "US", "state": "NJ", "display_address": ["880 River Rd", "Edgewater, NJ 07020"]}, "phone": "+12019173303", "display_phone": "(201) 917-3303", "distance": 7396.655261898569}, {"id": "jzO5HyrTtumHpe-pbUlndQ", "alias": "aangan-indian-cuisine-new-york", "name": "Aangan Indian Cuisine", "image_url": "https://s3-media3.fl.yelpcdn.com/bphoto/D7LjvkxOxocyG_cLQM8KTQ/o.jpg", "is_closed": false, "url": "https://www.yelp.com/biz/aangan-indian-cuisine-new-york?adjust_creative=9gNmiWYX8uTbFBeTTvJMdA&utm_campaign=yelp_api_v3&utm_medium=api_v3_business_search&utm_source=9gNmiWYX8uTbFBeTTvJMdA", "review_count": 229, "categories": [{"alias": "indpak", "title": "Indian"}], "rating": 3.5, "coordinates": {"latitude": 40.799446, "longitude": -73.968795}, "transactions": ["delivery", "pickup"], "price": "$$", "location": {"address1": "2701 Broadway", "address2": null, "address3": "", "city": "New York", "zip_code": "10025", "country": "US", "state": "NY", "display_address": ["2701 Broadway", "New York, NY 10025"]}, "phone": "+12122804100", "display_phone": "(212) 280-4100", "distance": 4472.7252994062155}, {"id": "3C6c_zqRz_U2AyeN_7LTsg", "alias": "himalayan-yak-jackson-heights", "name": "Himalayan Yak", "image_url": "https://s3-media1.fl.yelpcdn.com/bphoto/_Hu4zayLGCTZ7T4AgqDzZQ/o.jpg", "is_closed": false, "url": "https://www.yelp.com/biz/himalayan-yak-jackson-heights?adjust_creative=9gNmiWYX8uTbFBeTTvJMdA&utm_campaign=yelp_api_v3&utm_medium=api_v3_business_search&utm_source=9gNmiWYX8uTbFBeTTvJMdA", "review_count": 698, "categories": [{"alias": "himalayan", "title": "Himalayan/Nepalese"}, {"alias": "indpak", "title": "Indian"}], "rating": 4.0, "coordinates": {"latitude": 40.746494, "longitude": -73.892766}, "transactions": ["delivery", "pickup"], "price": "$$", "location": {"address1": "72-20 Roosevelt Ave", "address2": "", "address3": "", "city": "Jackson Heights", "zip_code": "11372", "country": "US", "state": "NY", "display_address": ["72-20 Roosevelt Ave", "Jackson Heights, NY 11372"]}, "phone": "+17187791119", "display_phone": "(718) 779-1119", "distance": 6616.901405055155}, {"id": "gPattIGuKxCgeNjxfEMDjg", "alias": "punjabi-junction-of-87th-new-york", "name": "Punjabi Junction Of 87th", "image_url": "https://s3-media3.fl.yelpcdn.com/bphoto/QU_2pqu9FqI8_PLmn5fGKA/o.jpg", "is_closed": false, "url": "https://www.yelp.com/biz/punjabi-junction-of-87th-new-york?adjust_creative=9gNmiWYX8uTbFBeTTvJMdA&utm_campaign=yelp_api_v3&utm_medium=api_v3_business_search&utm_source=9gNmiWYX8uTbFBeTTvJMdA", "review_count": 59, "categories": [{"alias": "sandwiches", "title": "Sandwiches"}, {"alias": "salad", "title": "Salad"}, {"alias": "indpak", "title": "Indian"}], "rating": 5.0, "coordinates": {"latitude": 40.777471, "longitude": -73.949159}, "transactions": ["delivery", "pickup"], "location": {"address1": "1665 1st Ave", "address2": null, "address3": "", "city": "New York", "zip_code": "10028", "country": "US", "state": "NY", "display_address": ["1665 1st Ave", "New York, NY 10028"]}, "phone": "+17183742685", "display_phone": "(718) 374-2685", "distance": 2663.7476106084773}, {"id": "m9Q9x-Hcxp24gZCaTTJY-A", "alias": "sahib-new-york", "name": "Sahib", "image_url": "https://s3-media2.fl.yelpcdn.com/bphoto/EJsYT6P6pIp4qCmMX-GaLA/o.jpg", "is_closed": false, "url": "https://www.yelp.com/biz/sahib-new-york?adjust_creative=9gNmiWYX8uTbFBeTTvJMdA&utm_campaign=yelp_api_v3&utm_medium=api_v3_business_search&utm_source=9gNmiWYX8uTbFBeTTvJMdA", "review_count": 291, "categories": [{"alias": "indpak", "title": "Indian"}, {"alias": "buffets", "title": "Buffets"}], "rating": 4.0, "coordinates": {"latitude": 40.74232, "longitude": -73.9830099}, "transactions": ["delivery", "pickup", "restaurant_reservation"], "price": "$$", "location": {"address1": "104 Lexington Ave", "address2": "", "address3": null, "city": "New York", "zip_code": "10016", "country": "US", "state": "NY", "display_address": ["104 Lexington Ave", "New York, NY 10016"]}, "phone": "+16465900994", "display_phone": "(646) 590-0994", "distance": 2188.705795017608}, {"id": "6LJl5ZhPMmGZ5F1oe-6kEw", "alias": "le-botaniste-new-york-5", "name": "Le Botaniste", "image_url": "https://s3-media1.fl.yelpcdn.com/bphoto/tJDX7dGQtNYaoCh9nBb5Jw/o.jpg", "is_closed": false, "url": "https://www.yelp.com/biz/le-botaniste-new-york-5?adjust_creative=9gNmiWYX8uTbFBeTTvJMdA&utm_campaign=yelp_api_v3&utm_medium=api_v3_business_search&utm_source=9gNmiWYX8uTbFBeTTvJMdA", "review_count": 119, "categories": [{"alias": "vegan", "title": "Vegan"}, {"alias": "vegetarian", "title": "Vegetarian"}, {"alias": "wine_bars", "title": "Wine Bars"}], "rating": 4.5, "coordinates": {"latitude": 40.75119, "longitude": -73.97436}, "transactions": ["delivery", "pickup"], "price": "$$", "location": {"address1": "666 Third Ave", "address2": null, "address3": "", "city": "New York", "zip_code": "10017", "country": "US", "state": "NY", "display_address": ["666 Third Ave", "New York, NY 10017"]}, "phone": "+19172616728", "display_phone": "(917) 261-6728", "distance": 982.9759861162282}, {"id": "8vYGvXF4OyKv2KV0-iIxrA", "alias": "tikka-indian-grill-astoria", "name": "Tikka Indian Grill", "image_url": "https://s3-media1.fl.yelpcdn.com/bphoto/8N9HoK0-ZuRYt-XoX6hwHg/o.jpg", "is_closed": false, "url": "https://www.yelp.com/biz/tikka-indian-grill-astoria?adjust_creative=9gNmiWYX8uTbFBeTTvJMdA&utm_campaign=yelp_api_v3&utm_medium=api_v3_business_search&utm_source=9gNmiWYX8uTbFBeTTvJMdA", "review_count": 315, "categories": [{"alias": "indpak", "title": "Indian"}, {"alias": "halal", "title": "Halal"}, {"alias": "pakistani", "title": "Pakistani"}], "rating": 4.5, "coordinates": {"latitude": 40.76534, "longitude": -73.91868}, "transactions": ["delivery", "pickup"], "price": "$$", "location": {"address1": "34-14 30th Ave", "address2": null, "address3": "", "city": "Astoria", "zip_code": "11103", "country": "US", "state": "NY", "display_address": ["34-14 30th Ave", "Astoria, NY 11103"]}, "phone": "+17182551085", "display_phone": "(718) 255-1085", "distance": 4344.903825556959}, {"id": "nQfPwIasXCi8NwNKq65vfw", "alias": "mysttik-masaala-new-york-15", "name": "Mysttik Masaala", "image_url": "https://s3-media4.fl.yelpcdn.com/bphoto/vTLvCbpZqa9-RbB9Kl_dMw/o.jpg", "is_closed": false, "url": "https://www.yelp.com/biz/mysttik-masaala-new-york-15?adjust_creative=9gNmiWYX8uTbFBeTTvJMdA&utm_campaign=yelp_api_v3&utm_medium=api_v3_business_search&utm_source=9gNmiWYX8uTbFBeTTvJMdA", "review_count": 122, "categories": [{"alias": "indpak", "title": "Indian"}, {"alias": "foodtrucks", "title": "Food Trucks"}], "rating": 4.5, "coordinates": {"latitude": 40.7617745, "longitude": -73.98173}, "transactions": [], "location": {"address1": "152 West 52nd St", "address2": "", "address3": "Inside Urban Space", "city": "New York", "zip_code": "10019", "country": "US", "state": "NY", "display_address": ["152 West 52nd St", "Inside Urban Space", "New York, NY 10019"]}, "phone": "+19173063128", "display_phone": "(917) 306-3128", "distance": 1063.858896113018}, {"id": "FQi7AP2j9UYc1c-VTF00rA", "alias": "wok-in-the-clouds-new-york", "name": "Wok In The Clouds", "image_url": "https://s3-media1.fl.yelpcdn.com/bphoto/unXNUyb8YeYChr5W6OkILw/o.jpg", "is_closed": false, "url": "https://www.yelp.com/biz/wok-in-the-clouds-new-york?adjust_creative=9gNmiWYX8uTbFBeTTvJMdA&utm_campaign=yelp_api_v3&utm_medium=api_v3_business_search&utm_source=9gNmiWYX8uTbFBeTTvJMdA", "review_count": 21, "categories": [{"alias": "asianfusion", "title": "Asian Fusion"}, {"alias": "indpak", "title": "Indian"}], "rating": 4.5, "coordinates": {"latitude": 40.7429, "longitude": -73.9828}, "transactions": ["delivery", "pickup"], "location": {"address1": "127 E 28th St", "address2": "", "address3": null, "city": "New York", "zip_code": "10016", "country": "US", "state": "NY", "display_address": ["127 E 28th St", "New York, NY 10016"]}, "phone": "+12127846498", "display_phone": "(212) 784-6498", "distance": 2117.0876808754956}, {"id": "MtZaEGCm6zdAV8W4TWlerQ", "alias": "masti-indian-grill-and-chatt-bar-new-york", "name": "Masti Indian Grill & Chatt Bar", "image_url": "https://s3-media1.fl.yelpcdn.com/bphoto/YpXIH127SeFMdAwlj-KPwA/o.jpg", "is_closed": false, "url": "https://www.yelp.com/biz/masti-indian-grill-and-chatt-bar-new-york?adjust_creative=9gNmiWYX8uTbFBeTTvJMdA&utm_campaign=yelp_api_v3&utm_medium=api_v3_business_search&utm_source=9gNmiWYX8uTbFBeTTvJMdA", "review_count": 114, "categories": [{"alias": "indpak", "title": "Indian"}], "rating": 4.5, "coordinates": {"latitude": 40.710625, "longitude": -73.9583}, "transactions": ["delivery", "pickup"], "location": {"address1": "184 Havemeyer St", "address2": null, "address3": "", "city": "New York", "zip_code": "11211", "country": "US", "state": "NY", "display_address": ["184 Havemeyer St", "New York, NY 11211"]}, "phone": "+17185991516", "display_phone": "(718) 599-1516", "distance": 5478.7638878452935}, {"id": "ZwER8TyQH70ACI-nIG682g", "alias": "chote-miya-brooklyn", "name": "Chote Miya", "image_url": "https://s3-media1.fl.yelpcdn.com/bphoto/OxrpHzIoYHmsCpxjOBczaA/o.jpg", "is_closed": false, "url": "https://www.yelp.com/biz/chote-miya-brooklyn?adjust_creative=9gNmiWYX8uTbFBeTTvJMdA&utm_campaign=yelp_api_v3&utm_medium=api_v3_business_search&utm_source=9gNmiWYX8uTbFBeTTvJMdA", "review_count": 38, "categories": [{"alias": "indpak", "title": "Indian"}], "rating": 4.0, "coordinates": {"latitude": 40.7034194804375, "longitude": -73.9916073158383}, "transactions": ["delivery"], "location": {"address1": "55 Water St", "address2": "", "address3": null, "city": "Brooklyn", "zip_code": "11201", "country": "US", "state": "NY", "display_address": ["55 Water St", "Brooklyn, NY 11201"]}, "phone": "", "display_phone": "", "distance": 6471.70405538284}, {"id": "HFIu45xr93jqchnN1YVJeQ", "alias": "masalawala-and-sons-brooklyn", "name": "Masalawala & Sons", "image_url": "https://s3-media2.fl.yelpcdn.com/bphoto/HO_qrP0OMXMAhqBfHrAuKA/o.jpg", "is_closed": false, "url": "https://www.yelp.com/biz/masalawala-and-sons-brooklyn?adjust_creative=9gNmiWYX8uTbFBeTTvJMdA&utm_campaign=yelp_api_v3&utm_medium=api_v3_business_search&utm_source=9gNmiWYX8uTbFBeTTvJMdA", "review_count": 42, "categories": [{"alias": "indpak", "title": "Indian"}], "rating": 4.0, "coordinates": {"latitude": 40.67148382626093, "longitude": -73.9842655}, "transactions": [], "location": {"address1": "365 5th Ave", "address2": "", "address3": null, "city": "Brooklyn", "zip_code": "11215", "country": "US", "state": "NY", "display_address": ["365 5th Ave", "Brooklyn, NY 11215"]}, "phone": "+12123589300", "display_phone": "(212) 358-9300", "distance": 9829.074460696353}, {"id": "PEEw2ip9VrmiMBP4b6op_g", "alias": "govindas-vegetarian-lunch-brooklyn-4", "name": "Govinda's Vegetarian Lunch", "image_url": "https://s3-media2.fl.yelpcdn.com/bphoto/udbiAc2eempdi6EBLM2K2A/o.jpg", "is_closed": false, "url": "https://www.yelp.com/biz/govindas-vegetarian-lunch-brooklyn-4?adjust_creative=9gNmiWYX8uTbFBeTTvJMdA&utm_campaign=yelp_api_v3&utm_medium=api_v3_business_search&utm_source=9gNmiWYX8uTbFBeTTvJMdA", "review_count": 183, "categories": [{"alias": "vegetarian", "title": "Vegetarian"}, {"alias": "vegan", "title": "Vegan"}, {"alias": "indpak", "title": "Indian"}], "rating": 4.5, "coordinates": {"latitude": 40.68771, "longitude": -73.98241}, "transactions": ["delivery"], "price": "$", "location": {"address1": "305 Schermerhorn St", "address2": "", "address3": "", "city": "Brooklyn", "zip_code": "11217", "country": "US", "state": "NY", "display_address": ["305 Schermerhorn St", "Brooklyn, NY 11217"]}, "phone": "+17188556714", "display_phone": "(718) 855-6714", "distance": 8012.9321788635825}, {"id": "xWUL-j6TQyKQHIfOtetu-Q", "alias": "hangawi-new-york", "name": "HanGawi", "image_url": "https://s3-media2.fl.yelpcdn.com/bphoto/jvUKeXckaOTjBscELCYtgQ/o.jpg", "is_closed": false, "url": "https://www.yelp.com/biz/hangawi-new-york?adjust_creative=9gNmiWYX8uTbFBeTTvJMdA&utm_campaign=yelp_api_v3&utm_medium=api_v3_business_search&utm_source=9gNmiWYX8uTbFBeTTvJMdA", "review_count": 1355, "categories": [{"alias": "vegetarian", "title": "Vegetarian"}, {"alias": "korean", "title": "Korean"}, {"alias": "vegan", "title": "Vegan"}], "rating": 4.0, "coordinates": {"latitude": 40.746612323020926, "longitude": -73.98476051936564}, "transactions": ["delivery", "pickup"], "price": "$$$", "location": {"address1": "12 E 32nd St", "address2": "", "address3": "", "city": "New York", "zip_code": "10016", "country": "US", "state": "NY", "display_address": ["12 E 32nd St", "New York, NY 10016"]}, "phone": "+12122130077", "display_phone": "(212) 213-0077", "distance": 1894.1089025721428}, {"id": "Y8ZCMr7vNMspTjEi6VWgxA", "alias": "taco-mahal-new-york-4", "name": "Taco Mahal", "image_url": "https://s3-media1.fl.yelpcdn.com/bphoto/LZ89ybCVmhNw-P7ucoU-0Q/o.jpg", "is_closed": false, "url": "https://www.yelp.com/biz/taco-mahal-new-york-4?adjust_creative=9gNmiWYX8uTbFBeTTvJMdA&utm_campaign=yelp_api_v3&utm_medium=api_v3_business_search&utm_source=9gNmiWYX8uTbFBeTTvJMdA", "review_count": 92, "categories": [{"alias": "indpak", "title": "Indian"}, {"alias": "tacos", "title": "Tacos"}], "rating": 4.0, "coordinates": {"latitude": 40.76091684980952, "longitude": -73.9912468}, "transactions": ["delivery", "pickup"], "price": "$$", "location": {"address1": "653 9th Ave", "address2": "", "address3": null, "city": "New York", "zip_code": "10036", "country": "US", "state": "NY", "display_address": ["653 9th Ave", "New York, NY 10036"]}, "phone": "+16464905782", "display_phone": "(646) 490-5782", "distance": 1835.6344802598237}, {"id": "6NcU2JAznLr9dDHp6GgQyw", "alias": "doaba-deli-new-york-2", "name": "Doaba Deli", "image_url": "https://s3-media1.fl.yelpcdn.com/bphoto/0go3o0EwYkjgIzM0rf-xUQ/o.jpg", "is_closed": false, "url": "https://www.yelp.com/biz/doaba-deli-new-york-2?adjust_creative=9gNmiWYX8uTbFBeTTvJMdA&utm_campaign=yelp_api_v3&utm_medium=api_v3_business_search&utm_source=9gNmiWYX8uTbFBeTTvJMdA", "review_count": 247, "categories": [{"alias": "indpak", "title": "Indian"}, {"alias": "pakistani", "title": "Pakistani"}, {"alias": "bangladeshi", "title": "Bangladeshi"}], "rating": 4.5, "coordinates": {"latitude": 40.7994, "longitude": -73.9624}, "transactions": ["delivery", "pickup"], "price": "$", "location": {"address1": "945 Columbus Ave", "address2": "", "address3": "", "city": "New York", "zip_code": "10025", "country": "US", "state": "NY", "display_address": ["945 Columbus Ave", "New York, NY 10025"]}, "phone": "+12122222636", "display_phone": "(212) 222-2636", "distance": 4514.0905524005075}, {"id": "zS4j95rR7PRdFdIfqD2Mmg", "alias": "omars-fine-cuisine-brooklyn", "name": "Omar's Fine Cuisine", "image_url": "https://s3-media2.fl.yelpcdn.com/bphoto/4lNeR8-UL4i0rPiQP0g1eg/o.jpg", "is_closed": false, "url": "https://www.yelp.com/biz/omars-fine-cuisine-brooklyn?adjust_creative=9gNmiWYX8uTbFBeTTvJMdA&utm_campaign=yelp_api_v3&utm_medium=api_v3_business_search&utm_source=9gNmiWYX8uTbFBeTTvJMdA", "review_count": 51, "categories": [{"alias": "halal", "title": "Halal"}, {"alias": "indpak", "title": "Indian"}, {"alias": "pizza", "title": "Pizza"}], "rating": 5.0, "coordinates": {"latitude": 40.67966, "longitude": -73.96834}, "transactions": ["delivery", "pickup"], "location": {"address1": "568 Vanderbilt Ave", "address2": null, "address3": "", "city": "Brooklyn", "zip_code": "11238", "country": "US", "state": "NY", "display_address": ["568 Vanderbilt Ave", "Brooklyn, NY 11238"]}, "phone": "+17186180923", "display_phone": "(718) 618-0923", "distance": 8840.662420569985}, {"id": "j0n_poMVZnODYOFviLbh0Q", "alias": "ta\u00efm-mediterranean-kitchen-west-village-new-york-3", "name": "ta\u00efm mediterranean kitchen - West Village", "image_url": "https://s3-media2.fl.yelpcdn.com/bphoto/xeu7eHe1mOVv-MLHUSaAPg/o.jpg", "is_closed": false, "url": "https://www.yelp.com/biz/ta%C3%AFm-mediterranean-kitchen-west-village-new-york-3?adjust_creative=9gNmiWYX8uTbFBeTTvJMdA&utm_campaign=yelp_api_v3&utm_medium=api_v3_business_search&utm_source=9gNmiWYX8uTbFBeTTvJMdA", "review_count": 1570, "categories": [{"alias": "mediterranean", "title": "Mediterranean"}, {"alias": "kosher", "title": "Kosher"}, {"alias": "wraps", "title": "Wraps"}], "rating": 4.5, "coordinates": {"latitude": 40.736002376347, "longitude": -74.0019588366439}, "transactions": ["delivery", "pickup"], "price": "$$", "location": {"address1": "222 Waverly Pl", "address2": null, "address3": "", "city": "New York", "zip_code": "10014", "country": "US", "state": "NY", "display_address": ["222 Waverly Pl", "New York, NY 10014"]}, "phone": "+12126911287", "display_phone": "(212) 691-1287", "distance": 3752.556689829325}, {"id": "CVpha6hKVu_r1lx6JxNIPg", "alias": "veeray-da-dhaba-new-york", "name": "Veeray da Dhaba", "image_url": "https://s3-media3.fl.yelpcdn.com/bphoto/wJUtPDVM0nt7YTanUEpG2Q/o.jpg", "is_closed": false, "url": "https://www.yelp.com/biz/veeray-da-dhaba-new-york?adjust_creative=9gNmiWYX8uTbFBeTTvJMdA&utm_campaign=yelp_api_v3&utm_medium=api_v3_business_search&utm_source=9gNmiWYX8uTbFBeTTvJMdA", "review_count": 87, "categories": [{"alias": "indpak", "title": "Indian"}], "rating": 4.5, "coordinates": {"latitude": 40.730819, "longitude": -73.982723}, "transactions": ["delivery", "pickup"], "location": {"address1": "222 1st Ave", "address2": null, "address3": "", "city": "New York", "zip_code": "10009", "country": "US", "state": "NY", "display_address": ["222 1st Ave", "New York, NY 10009"]}, "phone": "+12127771420", "display_phone": "(212) 777-1420", "distance": 3344.253127567803}, {"id": "EKY8DwZVWpkgv6IWrepbWg", "alias": "namaste-brooklyn-2", "name": "Namaste", "image_url": "https://s3-media4.fl.yelpcdn.com/bphoto/b5pMz-kvph2QPKDjiYID4Q/o.jpg", "is_closed": false, "url": "https://www.yelp.com/biz/namaste-brooklyn-2?adjust_creative=9gNmiWYX8uTbFBeTTvJMdA&utm_campaign=yelp_api_v3&utm_medium=api_v3_business_search&utm_source=9gNmiWYX8uTbFBeTTvJMdA", "review_count": 310, "categories": [{"alias": "indpak", "title": "Indian"}], "rating": 4.5, "coordinates": {"latitude": 40.676687, "longitude": -73.979965}, "transactions": ["delivery", "pickup"], "price": "$$", "location": {"address1": "195 5th Ave", "address2": null, "address3": "", "city": "Brooklyn", "zip_code": "11217", "country": "US", "state": "NY", "display_address": ["195 5th Ave", "Brooklyn, NY 11217"]}, "phone": "+17188571951", "display_phone": "(718) 857-1951", "distance": 9213.91559310648}, {"id": "Rk6TXh7nINbzJoGtI2C5cA", "alias": "desi-galli-new-york-3", "name": "Desi Galli", "image_url": "https://s3-media1.fl.yelpcdn.com/bphoto/fBtzzSuV6ntg8yvpaT_aXg/o.jpg", "is_closed": false, "url": "https://www.yelp.com/biz/desi-galli-new-york-3?adjust_creative=9gNmiWYX8uTbFBeTTvJMdA&utm_campaign=yelp_api_v3&utm_medium=api_v3_business_search&utm_source=9gNmiWYX8uTbFBeTTvJMdA", "review_count": 131, "categories": [{"alias": "indpak", "title": "Indian"}], "rating": 3.5, "coordinates": {"latitude": 40.72739, "longitude": -73.97978}, "transactions": ["delivery", "pickup"], "price": "$$", "location": {"address1": "172 Avenue B", "address2": "", "address3": "Corner 11th", "city": "New York", "zip_code": "10009", "country": "US", "state": "NY", "display_address": ["172 Avenue B", "Corner 11th", "New York, NY 10009"]}, "phone": "+12124753374", "display_phone": "(212) 475-3374", "distance": 3639.549539061976}, {"id": "7G-Ud62Mpi-YhEjQOjCHhg", "alias": "cumin-n-eat-secaucus", "name": "Cumin N Eat", "image_url": "https://s3-media2.fl.yelpcdn.com/bphoto/0D4PKzp_ILBmqO8Bsrwd2Q/o.jpg", "is_closed": false, "url": "https://www.yelp.com/biz/cumin-n-eat-secaucus?adjust_creative=9gNmiWYX8uTbFBeTTvJMdA&utm_campaign=yelp_api_v3&utm_medium=api_v3_business_search&utm_source=9gNmiWYX8uTbFBeTTvJMdA", "review_count": 152, "categories": [{"alias": "indpak", "title": "Indian"}], "rating": 4.5, "coordinates": {"latitude": 40.785867, "longitude": -74.044791}, "transactions": ["delivery", "pickup"], "price": "$$", "location": {"address1": "700 Plaza Dr", "address2": null, "address3": "", "city": "Secaucus", "zip_code": "07094", "country": "US", "state": "NJ", "display_address": ["700 Plaza Dr", "Secaucus, NJ 07094"]}, "phone": "+12012102049", "display_phone": "(201) 210-2049", "distance": 6994.853535670275}, {"id": "FqYgcc7Mk2XrYJ10OGgghQ", "alias": "himalayan-curry-house-restaurant-and-bar-new-york", "name": "Himalayan Curry House Restaurant and Bar", "image_url": "https://s3-media4.fl.yelpcdn.com/bphoto/sxv6NRUt_qll8JgNwQxy6Q/o.jpg", "is_closed": false, "url": "https://www.yelp.com/biz/himalayan-curry-house-restaurant-and-bar-new-york?adjust_creative=9gNmiWYX8uTbFBeTTvJMdA&utm_campaign=yelp_api_v3&utm_medium=api_v3_business_search&utm_source=9gNmiWYX8uTbFBeTTvJMdA", "review_count": 69, "categories": [{"alias": "himalayan", "title": "Himalayan/Nepalese"}, {"alias": "bars", "title": "Bars"}, {"alias": "indpak", "title": "Indian"}], "rating": 4.0, "coordinates": {"latitude": 40.757199, "longitude": -73.96858}, "transactions": ["delivery", "pickup"], "price": "$$", "location": {"address1": "220 E 53rd St", "address2": null, "address3": "", "city": "New York", "zip_code": "10022", "country": "US", "state": "NY", "display_address": ["220 E 53rd St", "New York, NY 10022"]}, "phone": "", "display_phone": "", "distance": 235.64458444124415}, {"id": "tzjjjhNUPDzaa8_kkvcDQg", "alias": "empyrean-indian-kitchen-and-bar-hoboken-2", "name": "Empyrean Indian Kitchen & Bar", "image_url": "https://s3-media4.fl.yelpcdn.com/bphoto/BxLf0-nF_SapBer35dXIUw/o.jpg", "is_closed": false, "url": "https://www.yelp.com/biz/empyrean-indian-kitchen-and-bar-hoboken-2?adjust_creative=9gNmiWYX8uTbFBeTTvJMdA&utm_campaign=yelp_api_v3&utm_medium=api_v3_business_search&utm_source=9gNmiWYX8uTbFBeTTvJMdA", "review_count": 169, "categories": [{"alias": "indpak", "title": "Indian"}], "rating": 4.5, "coordinates": {"latitude": 40.736066251998736, "longitude": -74.02880689096021}, "transactions": ["restaurant_reservation", "delivery", "pickup"], "price": "$$", "location": {"address1": "20 Hudson Pl", "address2": null, "address3": "", "city": "Hoboken", "zip_code": "07030", "country": "US", "state": "NJ", "display_address": ["20 Hudson Pl", "Hoboken, NJ 07030"]}, "phone": "+12016834160", "display_phone": "(201) 683-4160", "distance": 5612.541907441489}, {"id": "tXZOJhUUknjTRRo9j4ckZg", "alias": "farida-central-asian-cuisine-and-grill-midtown-new-york-3", "name": "Farida Central Asian Cuisine & Grill - Midtown", "image_url": "https://s3-media2.fl.yelpcdn.com/bphoto/UE1pHQP5Gx6lXzwxaej3_w/o.jpg", "is_closed": false, "url": "https://www.yelp.com/biz/farida-central-asian-cuisine-and-grill-midtown-new-york-3?adjust_creative=9gNmiWYX8uTbFBeTTvJMdA&utm_campaign=yelp_api_v3&utm_medium=api_v3_business_search&utm_source=9gNmiWYX8uTbFBeTTvJMdA", "review_count": 460, "categories": [{"alias": "uzbek", "title": "Uzbek"}, {"alias": "halal", "title": "Halal"}, {"alias": "ukrainian", "title": "Ukrainian"}], "rating": 4.0, "coordinates": {"latitude": 40.75568479045403, "longitude": -73.99444701949656}, "transactions": ["delivery", "pickup"], "price": "$$", "location": {"address1": "498 9th Ave", "address2": null, "address3": "", "city": "New York", "zip_code": "10018", "country": "US", "state": "NY", "display_address": ["498 9th Ave", "New York, NY 10018"]}, "phone": "+16468632020", "display_phone": "(646) 863-2020", "distance": 2130.6411364200676}, {"id": "YM5AbOOg-TjuHJrQmfd0Hw", "alias": "desi-galli-new-york-2", "name": "Desi Galli", "image_url": "https://s3-media3.fl.yelpcdn.com/bphoto/t3ZEEbcyfT27bQLddTVm4Q/o.jpg", "is_closed": false, "url": "https://www.yelp.com/biz/desi-galli-new-york-2?adjust_creative=9gNmiWYX8uTbFBeTTvJMdA&utm_campaign=yelp_api_v3&utm_medium=api_v3_business_search&utm_source=9gNmiWYX8uTbFBeTTvJMdA", "review_count": 338, "categories": [{"alias": "indpak", "title": "Indian"}], "rating": 3.5, "coordinates": {"latitude": 40.74211, "longitude": -73.9826}, "transactions": ["delivery", "pickup"], "price": "$", "location": {"address1": "101 Lexington Ave", "address2": null, "address3": "", "city": "New York", "zip_code": "10016", "country": "US", "state": "NY", "display_address": ["101 Lexington Ave", "New York, NY 10016"]}, "phone": "+12126832292", "display_phone": "(212) 683-2292", "distance": 2191.922715911886}, {"id": "x3NeZ4xToUxVKDoZ32D5tg", "alias": "ny-dosas-new-york", "name": "NY Dosas", "image_url": "https://s3-media4.fl.yelpcdn.com/bphoto/Kzne_vdvAQdoMJVBf9Rmng/o.jpg", "is_closed": false, "url": "https://www.yelp.com/biz/ny-dosas-new-york?adjust_creative=9gNmiWYX8uTbFBeTTvJMdA&utm_campaign=yelp_api_v3&utm_medium=api_v3_business_search&utm_source=9gNmiWYX8uTbFBeTTvJMdA", "review_count": 529, "categories": [{"alias": "indpak", "title": "Indian"}, {"alias": "foodstands", "title": "Food Stands"}, {"alias": "vegetarian", "title": "Vegetarian"}], "rating": 4.5, "coordinates": {"latitude": 40.7308386079893, "longitude": -73.99863779767}, "transactions": ["delivery"], "price": "$", "location": {"address1": "50 Washington Sq S", "address2": "", "address3": "", "city": "New York", "zip_code": "10014", "country": "US", "state": "NY", "display_address": ["50 Washington Sq S", "New York, NY 10014"]}, "phone": "+19177102092", "display_phone": "(917) 710-2092", "distance": 3990.3101880465424}, {"id": "Gni26uzPdfkCSagKEcFP2g", "alias": "lore-brooklyn", "name": "Lore", "image_url": "https://s3-media2.fl.yelpcdn.com/bphoto/h4ujvEAqHm9FI0TyOPnU4w/o.jpg", "is_closed": false, "url": "https://www.yelp.com/biz/lore-brooklyn?adjust_creative=9gNmiWYX8uTbFBeTTvJMdA&utm_campaign=yelp_api_v3&utm_medium=api_v3_business_search&utm_source=9gNmiWYX8uTbFBeTTvJMdA", "review_count": 51, "categories": [{"alias": "indpak", "title": "Indian"}, {"alias": "salad", "title": "Salad"}, {"alias": "cocktailbars", "title": "Cocktail Bars"}], "rating": 4.0, "coordinates": {"latitude": 40.66316670737584, "longitude": -73.9845233117843}, "transactions": [], "location": {"address1": "441 7th Ave", "address2": "", "address3": null, "city": "Brooklyn", "zip_code": "11215", "country": "US", "state": "NY", "display_address": ["441 7th Ave", "Brooklyn, NY 11215"]}, "phone": "+13475990300", "display_phone": "(347) 599-0300", "distance": 10749.693008660795}, {"id": "nBoOm-TAhRvbcDkHfKOwGg", "alias": "swagat-indian-restaurant-new-york-3", "name": "Swagat Indian Restaurant", "image_url": "https://s3-media1.fl.yelpcdn.com/bphoto/8rlcGI-YYYprnf3u5mXbsA/o.jpg", "is_closed": false, "url": "https://www.yelp.com/biz/swagat-indian-restaurant-new-york-3?adjust_creative=9gNmiWYX8uTbFBeTTvJMdA&utm_campaign=yelp_api_v3&utm_medium=api_v3_business_search&utm_source=9gNmiWYX8uTbFBeTTvJMdA", "review_count": 112, "categories": [{"alias": "indpak", "title": "Indian"}], "rating": 3.0, "coordinates": {"latitude": 40.748161, "longitude": -73.993194}, "transactions": ["delivery", "pickup"], "price": "$", "location": {"address1": "205 W 29th St", "address2": "", "address3": "", "city": "New York", "zip_code": "10001", "country": "US", "state": "NY", "display_address": ["205 W 29th St", "New York, NY 10001"]}, "phone": "+12129677373", "display_phone": "(212) 967-7373", "distance": 2341.211762733136}, {"id": "lIXVm16VchbDXOf7v4hxMA", "alias": "haandi-new-york", "name": "Haandi", "image_url": "https://s3-media2.fl.yelpcdn.com/bphoto/BcHzmfj-ud_FA2bxfRzWlw/o.jpg", "is_closed": false, "url": "https://www.yelp.com/biz/haandi-new-york?adjust_creative=9gNmiWYX8uTbFBeTTvJMdA&utm_campaign=yelp_api_v3&utm_medium=api_v3_business_search&utm_source=9gNmiWYX8uTbFBeTTvJMdA", "review_count": 337, "categories": [{"alias": "pakistani", "title": "Pakistani"}, {"alias": "halal", "title": "Halal"}], "rating": 3.5, "coordinates": {"latitude": 40.7424, "longitude": -73.98237}, "transactions": ["delivery", "pickup"], "price": "$", "location": {"address1": "113 Lexington Ave", "address2": "", "address3": "", "city": "New York", "zip_code": "10016", "country": "US", "state": "NY", "display_address": ["113 Lexington Ave", "New York, NY 10016"]}, "phone": "+12126855200", "display_phone": "(212) 685-5200", "distance": 2154.1478026287864}, {"id": "7YJxZAvMxB-oVZfHAuvBmw", "alias": "lakruwana-restaurant-staten-island-2", "name": "Lakruwana Restaurant", "image_url": "https://s3-media4.fl.yelpcdn.com/bphoto/kuerfRTidkJmKHmdoE0pyw/o.jpg", "is_closed": false, "url": "https://www.yelp.com/biz/lakruwana-restaurant-staten-island-2?adjust_creative=9gNmiWYX8uTbFBeTTvJMdA&utm_campaign=yelp_api_v3&utm_medium=api_v3_business_search&utm_source=9gNmiWYX8uTbFBeTTvJMdA", "review_count": 406, "categories": [{"alias": "srilankan", "title": "Sri Lankan"}], "rating": 4.5, "coordinates": {"latitude": 40.62571, "longitude": -74.075373}, "transactions": ["delivery", "pickup"], "price": "$$", "location": {"address1": "668 Bay St", "address2": "", "address3": "", "city": "Staten Island", "zip_code": "10304", "country": "US", "state": "NY", "display_address": ["668 Bay St", "Staten Island, NY 10304"]}, "phone": "+13478576619", "display_phone": "(347) 857-6619", "distance": 17314.9630715023}, {"id": "9DceMTrjyVqBgQRqgR6GWw", "alias": "red-bamboo-new-york", "name": "Red Bamboo", "image_url": "https://s3-media4.fl.yelpcdn.com/bphoto/dvbsjK-TA2KpUyMun7T7Nw/o.jpg", "is_closed": false, "url": "https://www.yelp.com/biz/red-bamboo-new-york?adjust_creative=9gNmiWYX8uTbFBeTTvJMdA&utm_campaign=yelp_api_v3&utm_medium=api_v3_business_search&utm_source=9gNmiWYX8uTbFBeTTvJMdA", "review_count": 1824, "categories": [{"alias": "vegetarian", "title": "Vegetarian"}, {"alias": "soulfood", "title": "Soul Food"}, {"alias": "vegan", "title": "Vegan"}], "rating": 4.0, "coordinates": {"latitude": 40.7311846, "longitude": -74.00042619999999}, "transactions": ["delivery", "pickup"], "price": "$$", "location": {"address1": "140 W 4th St", "address2": "Ste A", "address3": "", "city": "New York", "zip_code": "10012", "country": "US", "state": "NY", "display_address": ["140 W 4th St", "Ste A", "New York, NY 10012"]}, "phone": "+12122601212", "display_phone": "(212) 260-1212", "distance": 4054.879823650619}, {"id": "9y6UQ2GYKe08-WF_1jTX0A", "alias": "touch-of-spice-indian-cuisine-weehawken", "name": "Touch Of Spice - Indian Cuisine", "image_url": "https://s3-media3.fl.yelpcdn.com/bphoto/A9cwqE3ecZ6Ny-tUdwvdzg/o.jpg", "is_closed": false, "url": "https://www.yelp.com/biz/touch-of-spice-indian-cuisine-weehawken?adjust_creative=9gNmiWYX8uTbFBeTTvJMdA&utm_campaign=yelp_api_v3&utm_medium=api_v3_business_search&utm_source=9gNmiWYX8uTbFBeTTvJMdA", "review_count": 226, "categories": [{"alias": "indpak", "title": "Indian"}], "rating": 3.5, "coordinates": {"latitude": 40.77494, "longitude": -74.01993}, "transactions": ["delivery", "pickup"], "price": "$$", "location": {"address1": "4114 Park Ave", "address2": null, "address3": "", "city": "Weehawken", "zip_code": "07086", "country": "US", "state": "NJ", "display_address": ["4114 Park Ave", "Weehawken, NJ 07086"]}, "phone": "+12014729735", "display_phone": "(201) 472-9735", "distance": 4594.824800494847}, {"id": "rpzgv0Y6fIT6RcBsxFsrSg", "alias": "paratha-wala-forest-hills-2", "name": "Paratha Wala", "image_url": "https://s3-media1.fl.yelpcdn.com/bphoto/x5jCWQrCV0U1fqluJ5KDSQ/o.jpg", "is_closed": false, "url": "https://www.yelp.com/biz/paratha-wala-forest-hills-2?adjust_creative=9gNmiWYX8uTbFBeTTvJMdA&utm_campaign=yelp_api_v3&utm_medium=api_v3_business_search&utm_source=9gNmiWYX8uTbFBeTTvJMdA", "review_count": 505, "categories": [{"alias": "indpak", "title": "Indian"}, {"alias": "halal", "title": "Halal"}, {"alias": "bangladeshi", "title": "Bangladeshi"}], "rating": 4.5, "coordinates": {"latitude": 40.71044, "longitude": -73.84942}, "transactions": ["restaurant_reservation", "delivery", "pickup"], "price": "$$", "location": {"address1": "103-09 Metropolitan Ave", "address2": null, "address3": "", "city": "Forest Hills", "zip_code": "11375", "country": "US", "state": "NY", "display_address": ["103-09 Metropolitan Ave", "Forest Hills, NY 11375"]}, "phone": "+13475615319", "display_phone": "(347) 561-5319", "distance": 11482.36162175618}, {"id": "hKKDfUPcDX_c-RCWBMOr1w", "alias": "bombay-sandwich-co-new-york-40", "name": "Bombay Sandwich Co.", "image_url": "https://s3-media3.fl.yelpcdn.com/bphoto/4jSC6d7ZdENa3i88Gx1ngg/o.jpg", "is_closed": false, "url": "https://www.yelp.com/biz/bombay-sandwich-co-new-york-40?adjust_creative=9gNmiWYX8uTbFBeTTvJMdA&utm_campaign=yelp_api_v3&utm_medium=api_v3_business_search&utm_source=9gNmiWYX8uTbFBeTTvJMdA", "review_count": 457, "categories": [{"alias": "indpak", "title": "Indian"}, {"alias": "vegetarian", "title": "Vegetarian"}, {"alias": "sandwiches", "title": "Sandwiches"}], "rating": 4.0, "coordinates": {"latitude": 40.7450715521913, "longitude": -73.990359620218}, "transactions": ["delivery", "pickup"], "price": "$$", "location": {"address1": "48 W 27th St", "address2": "", "address3": "", "city": "New York", "zip_code": "10001", "country": "US", "state": "NY", "display_address": ["48 W 27th St", "New York, NY 10001"]}, "phone": "+16467819756", "display_phone": "(646) 781-9756", "distance": 2350.4873540700246}, {"id": "_Hig4rf_SEAhq13eBdJ4CQ", "alias": "kismat-indian-restaurant-new-york-3", "name": "Kismat Indian Restaurant", "image_url": "https://s3-media4.fl.yelpcdn.com/bphoto/nsk8YQ1XvCmogaylORL3bg/o.jpg", "is_closed": false, "url": "https://www.yelp.com/biz/kismat-indian-restaurant-new-york-3?adjust_creative=9gNmiWYX8uTbFBeTTvJMdA&utm_campaign=yelp_api_v3&utm_medium=api_v3_business_search&utm_source=9gNmiWYX8uTbFBeTTvJMdA", "review_count": 392, "categories": [{"alias": "indpak", "title": "Indian"}], "rating": 3.5, "coordinates": {"latitude": 40.85533018425771, "longitude": -73.9370321}, "transactions": ["delivery", "pickup"], "price": "$$", "location": {"address1": "603 Fort Washington Ave", "address2": null, "address3": "", "city": "New York", "zip_code": "10040", "country": "US", "state": "NY", "display_address": ["603 Fort Washington Ave", "New York, NY 10040"]}, "phone": "+12127958633", "display_phone": "(212) 795-8633", "distance": 11037.21360150509}, {"id": "DOdbSGm9ULZlVz-1-Jjhmg", "alias": "chote-nawab-new-york", "name": "Chote Nawab", "image_url": "https://s3-media4.fl.yelpcdn.com/bphoto/M4GQje9qZ_aK4o67XGf2gQ/o.jpg", "is_closed": false, "url": "https://www.yelp.com/biz/chote-nawab-new-york?adjust_creative=9gNmiWYX8uTbFBeTTvJMdA&utm_campaign=yelp_api_v3&utm_medium=api_v3_business_search&utm_source=9gNmiWYX8uTbFBeTTvJMdA", "review_count": 589, "categories": [{"alias": "indpak", "title": "Indian"}], "rating": 3.5, "coordinates": {"latitude": 40.742462, "longitude": -73.982322}, "transactions": ["delivery", "pickup", "restaurant_reservation"], "price": "$$", "location": {"address1": "115 Lexington Ave", "address2": "", "address3": "", "city": "New York", "zip_code": "10016", "country": "US", "state": "NY", "display_address": ["115 Lexington Ave", "New York, NY 10016"]}, "phone": "+12126794603", "display_phone": "(212) 679-4603", "distance": 2146.7220460054427}, {"id": "ogEtpbCgxv38PyB3ebivqQ", "alias": "yaar-indian-restaurant-astoria", "name": "Yaar Indian Restaurant", "image_url": "https://s3-media1.fl.yelpcdn.com/bphoto/Kfp9HbXxci-EddnpMcXCig/o.jpg", "is_closed": false, "url": "https://www.yelp.com/biz/yaar-indian-restaurant-astoria?adjust_creative=9gNmiWYX8uTbFBeTTvJMdA&utm_campaign=yelp_api_v3&utm_medium=api_v3_business_search&utm_source=9gNmiWYX8uTbFBeTTvJMdA", "review_count": 443, "categories": [{"alias": "indpak", "title": "Indian"}, {"alias": "halal", "title": "Halal"}], "rating": 4.5, "coordinates": {"latitude": 40.774803026853, "longitude": -73.9120166023413}, "transactions": ["delivery", "pickup"], "price": "$$", "location": {"address1": "22-55 31st St", "address2": null, "address3": "", "city": "Astoria", "zip_code": "11105", "country": "US", "state": "NY", "display_address": ["22-55 31st St", "Astoria, NY 11105"]}, "phone": "+17187210205", "display_phone": "(718) 721-0205", "distance": 5149.332274204251}, {"id": "ZRzG614HER-6fhZ3-MrEHw", "alias": "tagmo-new-york", "name": "TAGMO", "image_url": "https://s3-media2.fl.yelpcdn.com/bphoto/x2lWsl7MTyD27OgDlhjyWQ/o.jpg", "is_closed": false, "url": "https://www.yelp.com/biz/tagmo-new-york?adjust_creative=9gNmiWYX8uTbFBeTTvJMdA&utm_campaign=yelp_api_v3&utm_medium=api_v3_business_search&utm_source=9gNmiWYX8uTbFBeTTvJMdA", "review_count": 58, "categories": [{"alias": "indpak", "title": "Indian"}], "rating": 4.5, "coordinates": {"latitude": 40.70762, "longitude": -74.00214}, "transactions": ["delivery", "pickup"], "price": "$$", "location": {"address1": "226 Front St", "address2": null, "address3": "", "city": "New York", "zip_code": "10038", "country": "US", "state": "NY", "display_address": ["226 Front St", "New York, NY 10038"]}, "phone": "+12122852253", "display_phone": "(212) 285-2253", "distance": 6351.507119797573}, {"id": "fjjzAn0j6zCs2SNViuNfwQ", "alias": "kailash-parbat-new-york-2", "name": "Kailash Parbat", "image_url": "https://s3-media2.fl.yelpcdn.com/bphoto/uB7KDarGarDAIMK5pZJhrg/o.jpg", "is_closed": false, "url": "https://www.yelp.com/biz/kailash-parbat-new-york-2?adjust_creative=9gNmiWYX8uTbFBeTTvJMdA&utm_campaign=yelp_api_v3&utm_medium=api_v3_business_search&utm_source=9gNmiWYX8uTbFBeTTvJMdA", "review_count": 365, "categories": [{"alias": "indpak", "title": "Indian"}, {"alias": "vegetarian", "title": "Vegetarian"}], "rating": 3.5, "coordinates": {"latitude": 40.74206, "longitude": -73.98273}, "transactions": ["delivery", "pickup"], "price": "$$", "location": {"address1": "99 Lexington Ave", "address2": null, "address3": "", "city": "New York", "zip_code": "10016", "country": "US", "state": "NY", "display_address": ["99 Lexington Ave", "New York, NY 10016"]}, "phone": "+12126794238", "display_phone": "(212) 679-4238", "distance": 2198.727813186005}, {"id": "EbX_9tqAJs4gW51gZpOB7g", "alias": "rasa-new-york", "name": "Rasa", "image_url": "https://s3-media4.fl.yelpcdn.com/bphoto/3WhLSoWj5fByW_mH8t59uw/o.jpg", "is_closed": false, "url": "https://www.yelp.com/biz/rasa-new-york?adjust_creative=9gNmiWYX8uTbFBeTTvJMdA&utm_campaign=yelp_api_v3&utm_medium=api_v3_business_search&utm_source=9gNmiWYX8uTbFBeTTvJMdA", "review_count": 834, "categories": [{"alias": "malaysian", "title": "Malaysian"}, {"alias": "thai", "title": "Thai"}, {"alias": "halal", "title": "Halal"}], "rating": 4.0, "coordinates": {"latitude": 40.7327654, "longitude": -73.9975674}, "transactions": ["delivery", "pickup"], "price": "$$", "location": {"address1": "25 W 8th St", "address2": null, "address3": "", "city": "New York", "zip_code": "10011", "country": "US", "state": "NY", "display_address": ["25 W 8th St", "New York, NY 10011"]}, "phone": "+12122541888", "display_phone": "(212) 254-1888", "distance": 3766.264924561013}], "total": 902, "region": {"center": {"longitude": -73.96957397460938, "latitude": 40.75917470627005}}}