{"businesses": [{"id": "Gxlxu7Rug2tM_V7sS4x6fQ", "alias": "tadka-indian-cuisine-long-island-city", "name": "Tadka Indian Cuisine", "image_url": "https://s3-media4.fl.yelpcdn.com/bphoto/Cw6UXn9VlTM-pf66YCi8Jw/o.jpg", "is_closed": false, "url": "https://www.yelp.com/biz/tadka-indian-cuisine-long-island-city?adjust_creative=9gNmiWYX8uTbFBeTTvJMdA&utm_campaign=yelp_api_v3&utm_medium=api_v3_business_search&utm_source=9gNmiWYX8uTbFBeTTvJMdA", "review_count": 39, "categories": [{"alias": "indpak", "title": "Indian"}, {"alias": "diners", "title": "Diners"}, {"alias": "buffets", "title": "Buffets"}], "rating": 4.0, "coordinates": {"latitude": 40.75096, "longitude": -73.94578}, "transactions": ["pickup", "delivery"], "location": {"address1": "13-15 43rd Ave", "address2": "", "address3": null, "city": "Long Island City", "zip_code": "11101", "country": "US", "state": "NY", "display_address": ["13-15 43rd Ave", "Long Island City, NY 11101"]}, "phone": "+17187847444", "display_phone": "(718) 784-7444", "distance": 2198.9140053037804}, {"id": "dxK7_NNqLDYG39VGZI9B3w", "alias": "himalayan-curry-house-new-york", "name": "Himalayan Curry house", "image_url": "https://s3-media3.fl.yelpcdn.com/bphoto/W41wgmYdIhm_ca06zTd1_g/o.jpg", "is_closed": false, "url": "https://www.yelp.com/biz/himalayan-curry-house-new-york?adjust_creative=9gNmiWYX8uTbFBeTTvJMdA&utm_campaign=yelp_api_v3&utm_medium=api_v3_business_search&utm_source=9gNmiWYX8uTbFBeTTvJMdA", "review_count": 65, "categories": [{"alias": "indpak", "title": "Indian"}], "rating": 4.0, "coordinates": {"latitude": 40.8023275567219, "longitude": -73.9662716345275}, "transactions": ["pickup", "delivery"], "location": {"address1": "254 W 108th St", "address2": "", "address3": null, "city": "New York", "zip_code": "10025", "country": "US", "state": "NY", "display_address": ["254 W 108th St", "New York, NY 10025"]}, "phone": "+12127497800", "display_phone": "(212) 749-7800", "distance": 4839.842948674057}, {"id": "XUataECnaOfdo4a87NqEFg", "alias": "samudra-jackson-heights", "name": "Samudra", "image_url": "https://s3-media3.fl.yelpcdn.com/bphoto/Nxo9S5HfXx-nWIPFGHiYEA/o.jpg", "is_closed": false, "url": "https://www.yelp.com/biz/samudra-jackson-heights?adjust_creative=9gNmiWYX8uTbFBeTTvJMdA&utm_campaign=yelp_api_v3&utm_medium=api_v3_business_search&utm_source=9gNmiWYX8uTbFBeTTvJMdA", "review_count": 623, "categories": [{"alias": "indpak", "title": "Indian"}, {"alias": "vegetarian", "title": "Vegetarian"}], "rating": 4.0, "coordinates": {"latitude": 40.7490953, "longitude": -73.8903772}, "transactions": ["pickup", "delivery"], "price": "$$", "location": {"address1": "75-18 37th Ave", "address2": "", "address3": "", "city": "Jackson Heights", "zip_code": "11372", "country": "US", "state": "NY", "display_address": ["75-18 37th Ave", "Jackson Heights, NY 11372"]}, "phone": "+17182551757", "display_phone": "(718) 255-1757", "distance": 6764.402110547122}, {"id": "bgMbt6XbOaAu5VNXr5kCdQ", "alias": "polash-new-york", "name": "Polash", "image_url": "https://s3-media3.fl.yelpcdn.com/bphoto/EmECjzfMLtujmPkZCKUQjQ/o.jpg", "is_closed": false, "url": "https://www.yelp.com/biz/polash-new-york?adjust_creative=9gNmiWYX8uTbFBeTTvJMdA&utm_campaign=yelp_api_v3&utm_medium=api_v3_business_search&utm_source=9gNmiWYX8uTbFBeTTvJMdA", "review_count": 225, "categories": [{"alias": "indpak", "title": "Indian"}], "rating": 4.0, "coordinates": {"latitude": 40.79965, "longitude": -73.93855}, "transactions": ["pickup", "delivery"], "price": "$$", "location": {"address1": "2179 3rd Ave", "address2": "", "address3": "", "city": "New York", "zip_code": "10035", "country": "US", "state": "NY", "display_address": ["2179 3rd Ave", "New York, NY 10035"]}, "phone": "+12124100276", "display_phone": "(212) 410-0276", "distance": 5204.630828525822}, {"id": "ml3ASw5_B5XLnd9kE8xx3g", "alias": "salt-and-pepper-new-york-2", "name": "Salt & Pepper", "image_url": "https://s3-media4.fl.yelpcdn.com/bphoto/tplr5orjaq10bykubE4tIw/o.jpg", "is_closed": false, "url": "https://www.yelp.com/biz/salt-and-pepper-new-york-2?adjust_creative=9gNmiWYX8uTbFBeTTvJMdA&utm_campaign=yelp_api_v3&utm_medium=api_v3_business_search&utm_source=9gNmiWYX8uTbFBeTTvJMdA", "review_count": 99, "categories": [{"alias": "indpak", "title": "Indian"}, {"alias": "spanish", "title": "Spanish"}, {"alias": "pakistani", "title": "Pakistani"}], "rating": 3.0, "coordinates": {"latitude": 40.7498789, "longitude": -73.9900547}, "transactions": ["pickup", "delivery"], "price": "$", "location": {"address1": "139 W 33rd St", "address2": "", "address3": "", "city": "New York", "zip_code": "10001", "country": "US", "state": "NY", "display_address": ["139 W 33rd St", "New York, NY 10001"]}, "phone": "+12122681919", "display_phone": "(212) 268-1919", "distance": 2011.0875675503776}, {"id": "7lztzQTF79er1RydVnPiDg", "alias": "noi-due-new-york-2", "name": "Noi Due", "image_url": "https://s3-media2.fl.yelpcdn.com/bphoto/hyok2IToKGs_JQ9-U2067w/o.jpg", "is_closed": false, "url": "https://www.yelp.com/biz/noi-due-new-york-2?adjust_creative=9gNmiWYX8uTbFBeTTvJMdA&utm_campaign=yelp_api_v3&utm_medium=api_v3_business_search&utm_source=9gNmiWYX8uTbFBeTTvJMdA", "review_count": 257, "categories": [{"alias": "kosher", "title": "Kosher"}, {"alias": "italian", "title": "Italian"}, {"alias": "pizza", "title": "Pizza"}], "rating": 3.5, "coordinates": {"latitude": 40.7848351, "longitude": -73.9730166}, "transactions": ["pickup", "delivery"], "price": "$$$", "location": {"address1": "491 Columbus Ave", "address2": "", "address3": "", "city": "New York", "zip_code": "10024", "country": "US", "state": "NY", "display_address": ["491 Columbus Ave", "New York, NY 10024"]}, "phone": "+12127122222", "display_phone": "(212) 712-2222", "distance": 2867.9919143800657}, {"id": "1SgiWHlFN5mp5gNLSGx2Ww", "alias": "panna-ii-garden-indian-restaurant-new-york", "name": "Panna II Garden Indian Restaurant", "image_url": "https://s3-media3.fl.yelpcdn.com/bphoto/ANaKH1CzcKE70lKb8c7HXw/o.jpg", "is_closed": false, "url": "https://www.yelp.com/biz/panna-ii-garden-indian-restaurant-new-york?adjust_creative=9gNmiWYX8uTbFBeTTvJMdA&utm_campaign=yelp_api_v3&utm_medium=api_v3_business_search&utm_source=9gNmiWYX8uTbFBeTTvJMdA", "review_count": 1169, "categories": [{"alias": "indpak", "title": "Indian"}], "rating": 3.0, "coordinates": {"latitude": 40.72626, "longitude": -73.9865}, "transactions": ["delivery", "pickup"], "price": "$$", "location": {"address1": "93 1st Ave", "address2": "Ste 2", "address3": "", "city": "New York", "zip_code": "10003", "country": "US", "state": "NY", "display_address": ["93 1st Ave", "Ste 2", "New York, NY 10003"]}, "phone": "+12125984610", "display_phone": "(212) 598-4610", "distance": 3927.1826151629552}, {"id": "6JNvLxm0PqgiuoiSXC9OOg", "alias": "neem-indian-cuisine-new-york", "name": "Neem Indian Cuisine", "image_url": "https://s3-media4.fl.yelpcdn.com/bphoto/-EhiM4A5Y3M2PUFGp-aQrw/o.jpg", "is_closed": false, "url": "https://www.yelp.com/biz/neem-indian-cuisine-new-york?adjust_creative=9gNmiWYX8uTbFBeTTvJMdA&utm_campaign=yelp_api_v3&utm_medium=api_v3_business_search&utm_source=9gNmiWYX8uTbFBeTTvJMdA", "review_count": 100, "categories": [{"alias": "indpak", "title": "Indian"}, {"alias": "vegetarian", "title": "Vegetarian"}, {"alias": "burgers", "title": "Burgers"}], "rating": 4.5, "coordinates": {"latitude": 40.886547, "longitude": -73.909968}, "transactions": ["pickup", "delivery"], "price": "$$", "location": {"address1": "3549 Johnson Ave", "address2": null, "address3": "", "city": "New York", "zip_code": "10463", "country": "US", "state": "NY", "display_address": ["3549 Johnson Ave", "New York, NY 10463"]}, "phone": "+13474273953", "display_phone": "(347) 427-3953", "distance": 15012.064429360353}, {"id": "o5sUOmtzcHAeSWtUuFJ00g", "alias": "anjappar-chettinad-restaurant-new-york-5", "name": "Anjappar Chettinad Restaurant", "image_url": "https://s3-media3.fl.yelpcdn.com/bphoto/BjSSzKVFS-WbMAxGTyecyw/o.jpg", "is_closed": false, "url": "https://www.yelp.com/biz/anjappar-chettinad-restaurant-new-york-5?adjust_creative=9gNmiWYX8uTbFBeTTvJMdA&utm_campaign=yelp_api_v3&utm_medium=api_v3_business_search&utm_source=9gNmiWYX8uTbFBeTTvJMdA", "review_count": 372, "categories": [{"alias": "indpak", "title": "Indian"}], "rating": 3.0, "coordinates": {"latitude": 40.742603, "longitude": -73.982795}, "transactions": ["pickup", "delivery"], "price": "$$", "location": {"address1": "116 Lexington Ave", "address2": "", "address3": "", "city": "New York", "zip_code": "10016", "country": "US", "state": "NY", "display_address": ["116 Lexington Ave", "New York, NY 10016"]}, "phone": "+12122653663", "display_phone": "(212) 265-3663", "distance": 2151.230436000636}, {"id": "WiH4AnftXMuv6pI4X5Z7_A", "alias": "lahore-restaurant-secaucus", "name": "Lahore Restaurant", "image_url": "https://s3-media2.fl.yelpcdn.com/bphoto/tDbBuMuaKTpWJb3F6Ptnng/o.jpg", "is_closed": false, "url": "https://www.yelp.com/biz/lahore-restaurant-secaucus?adjust_creative=9gNmiWYX8uTbFBeTTvJMdA&utm_campaign=yelp_api_v3&utm_medium=api_v3_business_search&utm_source=9gNmiWYX8uTbFBeTTvJMdA", "review_count": 94, "categories": [{"alias": "halal", "title": "Halal"}, {"alias": "pakistani", "title": "Pakistani"}], "rating": 4.0, "coordinates": {"latitude": 40.78977, "longitude": -74.05742}, "transactions": ["pickup", "delivery"], "price": "$$", "location": {"address1": "1277 Paterson Plank Rd", "address2": "", "address3": null, "city": "Secaucus", "zip_code": "07094", "country": "US", "state": "NJ", "display_address": ["1277 Paterson Plank Rd", "Secaucus, NJ 07094"]}, "phone": "+12012102311", "display_phone": "(201) 210-2311", "distance": 8143.75017342998}, {"id": "ByJBXa3HwPqw8eSPfDObkg", "alias": "mint-heights-brooklyn-2", "name": "Mint Heights", "image_url": "https://s3-media2.fl.yelpcdn.com/bphoto/bQpEp3wOsq2taHiNbpIrTg/o.jpg", "is_closed": false, "url": "https://www.yelp.com/biz/mint-heights-brooklyn-2?adjust_creative=9gNmiWYX8uTbFBeTTvJMdA&utm_campaign=yelp_api_v3&utm_medium=api_v3_business_search&utm_source=9gNmiWYX8uTbFBeTTvJMdA", "review_count": 91, "categories": [{"alias": "indpak", "title": "Indian"}], "rating": 4.5, "coordinates": {"latitude": 40.699657772028765, "longitude": -73.99217437260721}, "transactions": ["pickup", "delivery"], "location": {"address1": "46 Henry St", "address2": "", "address3": null, "city": "Brooklyn", "zip_code": "11201", "country": "US", "state": "NY", "display_address": ["46 Henry St", "Brooklyn, NY 11201"]}, "phone": "+13479160325", "display_phone": "(347) 916-0325", "distance": 6886.527436273617}, {"id": "hfCU-GH8GP6vjAknXUyhKQ", "alias": "cardamom-indian-cuisine-sunnyside-2", "name": "Cardamom Indian cuisine", "image_url": "https://s3-media3.fl.yelpcdn.com/bphoto/5Y_ok3pGOxyAdGk7Teez7g/o.jpg", "is_closed": false, "url": "https://www.yelp.com/biz/cardamom-indian-cuisine-sunnyside-2?adjust_creative=9gNmiWYX8uTbFBeTTvJMdA&utm_campaign=yelp_api_v3&utm_medium=api_v3_business_search&utm_source=9gNmiWYX8uTbFBeTTvJMdA", "review_count": 237, "categories": [{"alias": "indpak", "title": "Indian"}], "rating": 4.5, "coordinates": {"latitude": 40.74384695079039, "longitude": -73.921224}, "transactions": ["pickup", "delivery"], "price": "$$", "location": {"address1": "43-45 43rd St Queens Blvd", "address2": "", "address3": null, "city": "Sunnyside", "zip_code": "11104", "country": "US", "state": "NY", "display_address": ["43-45 43rd St Queens Blvd", "Sunnyside, NY 11104"]}, "phone": "+17187069718", "display_phone": "(718) 706-9718", "distance": 4415.01847035204}, {"id": "YJ88ZwMU499QfkD52qSJBw", "alias": "brick-lane-curry-house-jersey-city", "name": "Brick Lane Curry House", "image_url": "https://s3-media3.fl.yelpcdn.com/bphoto/BB1eEeOVExCq5Cr6j57hjA/o.jpg", "is_closed": false, "url": "https://www.yelp.com/biz/brick-lane-curry-house-jersey-city?adjust_creative=9gNmiWYX8uTbFBeTTvJMdA&utm_campaign=yelp_api_v3&utm_medium=api_v3_business_search&utm_source=9gNmiWYX8uTbFBeTTvJMdA", "review_count": 98, "categories": [{"alias": "indpak", "title": "Indian"}], "rating": 4.0, "coordinates": {"latitude": 40.72046, "longitude": -74.04345}, "transactions": ["pickup", "delivery"], "location": {"address1": "136 Newark Ave", "address2": null, "address3": null, "city": "Jersey City", "zip_code": "07302", "country": "US", "state": "NJ", "display_address": ["136 Newark Ave", "Jersey City, NJ 07302"]}, "phone": "+12014024950", "display_phone": "(201) 402-4950", "distance": 7565.548949715584}, {"id": "tfGKVbzMHq4mhVBzrDnVWQ", "alias": "lahori-kabab-restaurant-new-york", "name": "Lahori Kabab Restaurant", "image_url": "https://s3-media2.fl.yelpcdn.com/bphoto/lWx3YB9reg9wjQJwsL0V3A/o.jpg", "is_closed": false, "url": "https://www.yelp.com/biz/lahori-kabab-restaurant-new-york?adjust_creative=9gNmiWYX8uTbFBeTTvJMdA&utm_campaign=yelp_api_v3&utm_medium=api_v3_business_search&utm_source=9gNmiWYX8uTbFBeTTvJMdA", "review_count": 102, "categories": [{"alias": "pakistani", "title": "Pakistani"}], "rating": 3.5, "coordinates": {"latitude": 40.742411, "longitude": -73.9829868}, "transactions": ["pickup", "delivery"], "price": "$", "location": {"address1": "106 Lexington Ave", "address2": "", "address3": "", "city": "New York", "zip_code": "10016", "country": "US", "state": "NY", "display_address": ["106 Lexington Ave", "New York, NY 10016"]}, "phone": "+12124001166", "display_phone": "(212) 400-1166", "distance": 2179.721836901388}, {"id": "DY3RKjbIT3G8URhVEvQ_UA", "alias": "shirleys-india-new-rochelle", "name": "Shirley's India", "image_url": "https://s3-media3.fl.yelpcdn.com/bphoto/3wyNTjhlQZ6BL16FpTp1PQ/o.jpg", "is_closed": false, "url": "https://www.yelp.com/biz/shirleys-india-new-rochelle?adjust_creative=9gNmiWYX8uTbFBeTTvJMdA&utm_campaign=yelp_api_v3&utm_medium=api_v3_business_search&utm_source=9gNmiWYX8uTbFBeTTvJMdA", "review_count": 58, "categories": [{"alias": "indpak", "title": "Indian"}], "rating": 4.5, "coordinates": {"latitude": 40.90748312207788, "longitude": -73.7823219116449}, "transactions": ["pickup", "delivery"], "price": "$$", "location": {"address1": "1 Leroy Pl", "address2": null, "address3": "", "city": "New Rochelle", "zip_code": "10805", "country": "US", "state": "NY", "display_address": ["1 Leroy Pl", "New Rochelle, NY 10805"]}, "phone": "+19146326736", "display_phone": "(914) 632-6736", "distance": 22806.569097584335}, {"id": "PdzL9svqapSqH4o8bF86Pw", "alias": "punjabi-grocery-and-deli-new-york", "name": "Punjabi Grocery & Deli", "image_url": "https://s3-media3.fl.yelpcdn.com/bphoto/R0fHwVmDFShE5a3psYmtCw/o.jpg", "is_closed": false, "url": "https://www.yelp.com/biz/punjabi-grocery-and-deli-new-york?adjust_creative=9gNmiWYX8uTbFBeTTvJMdA&utm_campaign=yelp_api_v3&utm_medium=api_v3_business_search&utm_source=9gNmiWYX8uTbFBeTTvJMdA", "review_count": 453, "categories": [{"alias": "indpak", "title": "Indian"}, {"alias": "grocery", "title": "Grocery"}, {"alias": "delis", "title": "Delis"}], "rating": 4.5, "coordinates": {"latitude": 40.7227225423661, "longitude": -73.9866224576721}, "transactions": ["delivery"], "price": "$", "location": {"address1": "114 E 1st St", "address2": "", "address3": "", "city": "New York", "zip_code": "10009", "country": "US", "state": "NY", "display_address": ["114 E 1st St", "New York, NY 10009"]}, "phone": "+12125333356", "display_phone": "(212) 533-3356", "distance": 4300.251814966074}, {"id": "-mQG7oEHSAMr9dBDrrqI2g", "alias": "deep-indian-kitchen-indikitch-new-york-22", "name": "deep indian kitchen - indikitch", "image_url": "https://s3-media3.fl.yelpcdn.com/bphoto/86I3IcvPFKcyfoJlmBGqRg/o.jpg", "is_closed": false, "url": "https://www.yelp.com/biz/deep-indian-kitchen-indikitch-new-york-22?adjust_creative=9gNmiWYX8uTbFBeTTvJMdA&utm_campaign=yelp_api_v3&utm_medium=api_v3_business_search&utm_source=9gNmiWYX8uTbFBeTTvJMdA", "review_count": 187, "categories": [{"alias": "indpak", "title": "Indian"}], "rating": 3.5, "coordinates": {"latitude": 40.75763, "longitude": -73.9817}, "transactions": ["pickup", "delivery"], "price": "$$", "location": {"address1": "1190 Avenue Of The Americas", "address2": "", "address3": "Rockefeller Center", "city": "New York", "zip_code": "10036", "country": "US", "state": "NY", "display_address": ["1190 Avenue Of The Americas", "Rockefeller Center", "New York, NY 10036"]}, "phone": "+16464819905", "display_phone": "(646) 481-9905", "distance": 1035.163817808368}, {"id": "yb9o5T88FPUXYOzxyXlUcw", "alias": "ganesh-temple-canteen-flushing", "name": "Ganesh Temple Canteen", "image_url": "https://s3-media3.fl.yelpcdn.com/bphoto/Xb2CKU2PFH3wrIZX145w6w/o.jpg", "is_closed": false, "url": "https://www.yelp.com/biz/ganesh-temple-canteen-flushing?adjust_creative=9gNmiWYX8uTbFBeTTvJMdA&utm_campaign=yelp_api_v3&utm_medium=api_v3_business_search&utm_source=9gNmiWYX8uTbFBeTTvJMdA", "review_count": 288, "categories": [{"alias": "indpak", "title": "Indian"}, {"alias": "vegetarian", "title": "Vegetarian"}, {"alias": "vegan", "title": "Vegan"}], "rating": 4.5, "coordinates": {"latitude": 40.75262, "longitude": -73.816511}, "transactions": ["pickup", "delivery"], "price": "$", "location": {"address1": "143-09 Holly Ave", "address2": "", "address3": "", "city": "Flushing", "zip_code": "11355", "country": "US", "state": "NY", "display_address": ["143-09 Holly Ave", "Flushing, NY 11355"]}, "phone": "+17184608493", "display_phone": "(718) 460-8493", "distance": 12913.050423930763}, {"id": "FZ0fKxW-d6Qc70IjDQIQKA", "alias": "my-biryani-manhattan", "name": "My Biryani", "image_url": "https://s3-media3.fl.yelpcdn.com/bphoto/vZxmUgDf5ISdZXVa7B2j8w/o.jpg", "is_closed": false, "url": "https://www.yelp.com/biz/my-biryani-manhattan?adjust_creative=9gNmiWYX8uTbFBeTTvJMdA&utm_campaign=yelp_api_v3&utm_medium=api_v3_business_search&utm_source=9gNmiWYX8uTbFBeTTvJMdA", "review_count": 18, "categories": [{"alias": "pakistani", "title": "Pakistani"}, {"alias": "indpak", "title": "Indian"}, {"alias": "foodtrucks", "title": "Food Trucks"}], "rating": 4.5, "coordinates": {"latitude": 40.75605, "longitude": -73.98386}, "transactions": [], "location": {"address1": "1133 6th avenue , 44th street", "address2": null, "address3": "", "city": "Manhattan", "zip_code": "10036", "country": "US", "state": "NY", "display_address": ["1133 6th avenue , 44th street", "Manhattan, NY 10036"]}, "phone": "+13132441552", "display_phone": "(313) 244-1552", "distance": 1214.3587095189105}, {"id": "rp_TaJRjaNmOCb8vJ2S_sw", "alias": "blossom-on-columbus-new-york", "name": "Blossom on Columbus", "image_url": "https://s3-media1.fl.yelpcdn.com/bphoto/lF3OfhS6vXWExNEL12SwVQ/o.jpg", "is_closed": false, "url": "https://www.yelp.com/biz/blossom-on-columbus-new-york?adjust_creative=9gNmiWYX8uTbFBeTTvJMdA&utm_campaign=yelp_api_v3&utm_medium=api_v3_business_search&utm_source=9gNmiWYX8uTbFBeTTvJMdA", "review_count": 498, "categories": [{"alias": "vegan", "title": "Vegan"}], "rating": 4.0, "coordinates": {"latitude": 40.7853146, "longitude": -73.9728638}, "transactions": ["pickup", "delivery"], "price": "$$", "location": {"address1": "507 Columbus Ave", "address2": "", "address3": "", "city": "New York", "zip_code": "10024", "country": "US", "state": "NY", "display_address": ["507 Columbus Ave", "New York, NY 10024"]}, "phone": "+12128752600", "display_phone": "(212) 875-2600", "distance": 2925.7417166842292}, {"id": "U3hvDT5CtQrnpg2zhJg3mQ", "alias": "kashmir-9-cuisine-of-pakistan-new-york", "name": "Kashmir 9 - Cuisine of Pakistan", "image_url": "https://s3-media3.fl.yelpcdn.com/bphoto/UcTQKk69VUu0HQ3K7TW67Q/o.jpg", "is_closed": false, "url": "https://www.yelp.com/biz/kashmir-9-cuisine-of-pakistan-new-york?adjust_creative=9gNmiWYX8uTbFBeTTvJMdA&utm_campaign=yelp_api_v3&utm_medium=api_v3_business_search&utm_source=9gNmiWYX8uTbFBeTTvJMdA", "review_count": 219, "categories": [{"alias": "halal", "title": "Halal"}, {"alias": "pakistani", "title": "Pakistani"}, {"alias": "indpak", "title": "Indian"}], "rating": 3.5, "coordinates": {"latitude": 40.7549782340085, "longitude": -73.9948511123657}, "transactions": ["pickup", "delivery"], "price": "$", "location": {"address1": "478 9th Ave", "address2": "", "address3": null, "city": "New York", "zip_code": "10018", "country": "US", "state": "NY", "display_address": ["478 9th Ave", "New York, NY 10018"]}, "phone": "+12127367745", "display_phone": "(212) 736-7745", "distance": 2179.5865803406664}, {"id": "-C0NqgITsdu5Oet0eFQNbg", "alias": "laree-adda-jersey-city-2", "name": "Laree Adda", "image_url": "https://s3-media4.fl.yelpcdn.com/bphoto/qQLVX1Dprw1_dlyTm4s_4g/o.jpg", "is_closed": false, "url": "https://www.yelp.com/biz/laree-adda-jersey-city-2?adjust_creative=9gNmiWYX8uTbFBeTTvJMdA&utm_campaign=yelp_api_v3&utm_medium=api_v3_business_search&utm_source=9gNmiWYX8uTbFBeTTvJMdA", "review_count": 117, "categories": [{"alias": "indpak", "title": "Indian"}, {"alias": "pakistani", "title": "Pakistani"}], "rating": 4.0, "coordinates": {"latitude": 40.718138, "longitude": -74.044042}, "transactions": ["pickup", "delivery"], "location": {"address1": "287 Grove St", "address2": "", "address3": null, "city": "Jersey City", "zip_code": "07302", "country": "US", "state": "NJ", "display_address": ["287 Grove St", "Jersey City, NJ 07302"]}, "phone": "+12014354900", "display_phone": "(201) 435-4900", "distance": 7755.495737452928}, {"id": "JZ45uaCB6SLBYng22_dplQ", "alias": "lasani-new-york", "name": "Lasani", "image_url": "https://s3-media3.fl.yelpcdn.com/bphoto/yGCPeq9sVodZTmMgosKc4g/o.jpg", "is_closed": false, "url": "https://www.yelp.com/biz/lasani-new-york?adjust_creative=9gNmiWYX8uTbFBeTTvJMdA&utm_campaign=yelp_api_v3&utm_medium=api_v3_business_search&utm_source=9gNmiWYX8uTbFBeTTvJMdA", "review_count": 19, "categories": [{"alias": "mediterranean", "title": "Mediterranean"}, {"alias": "pakistani", "title": "Pakistani"}, {"alias": "indpak", "title": "Indian"}], "rating": 4.0, "coordinates": {"latitude": 40.75714, "longitude": -73.993802}, "transactions": ["pickup", "delivery"], "location": {"address1": "539 9th Ave", "address2": null, "address3": null, "city": "New York", "zip_code": "10018", "country": "US", "state": "NY", "display_address": ["539 9th Ave", "New York, NY 10018"]}, "phone": "+19177447484", "display_phone": "(917) 744-7484", "distance": 2062.0146357718468}, {"id": "ZqOxAKVZEZTa4XS4zthp3Q", "alias": "bombay-grill-brooklyn-5", "name": "Bombay Grill", "image_url": "https://s3-media4.fl.yelpcdn.com/bphoto/fkyi6KQZM1LzRP-Fntk8yg/o.jpg", "is_closed": false, "url": "https://www.yelp.com/biz/bombay-grill-brooklyn-5?adjust_creative=9gNmiWYX8uTbFBeTTvJMdA&utm_campaign=yelp_api_v3&utm_medium=api_v3_business_search&utm_source=9gNmiWYX8uTbFBeTTvJMdA", "review_count": 284, "categories": [{"alias": "indpak", "title": "Indian"}], "rating": 4.5, "coordinates": {"latitude": 40.68395749161352, "longitude": -73.9543181843268}, "transactions": ["pickup", "delivery"], "price": "$$", "location": {"address1": "1176 Bedford Ave", "address2": "", "address3": "", "city": "Brooklyn", "zip_code": "11216", "country": "US", "state": "NY", "display_address": ["1176 Bedford Ave", "Brooklyn, NY 11216"]}, "phone": "+17184840004", "display_phone": "(718) 484-0004", "distance": 8462.000240804133}, {"id": "wQjQHZKH_DxwntbSe1QdxQ", "alias": "brick-lane-curry-house-new-york", "name": "Brick Lane Curry House", "image_url": "https://s3-media2.fl.yelpcdn.com/bphoto/g8hmycGKCratV6ofRLYl0Q/o.jpg", "is_closed": false, "url": "https://www.yelp.com/biz/brick-lane-curry-house-new-york?adjust_creative=9gNmiWYX8uTbFBeTTvJMdA&utm_campaign=yelp_api_v3&utm_medium=api_v3_business_search&utm_source=9gNmiWYX8uTbFBeTTvJMdA", "review_count": 1006, "categories": [{"alias": "indpak", "title": "Indian"}, {"alias": "british", "title": "British"}, {"alias": "halal", "title": "Halal"}], "rating": 3.5, "coordinates": {"latitude": 40.7265407754881, "longitude": -73.9893999248542}, "transactions": ["pickup", "delivery"], "price": "$$", "location": {"address1": "79 2nd Ave", "address2": null, "address3": "", "city": "New York", "zip_code": "10003", "country": "US", "state": "NY", "display_address": ["79 2nd Ave", "New York, NY 10003"]}, "phone": "+12129792900", "display_phone": "(212) 979-2900", "distance": 3994.673310131439}, {"id": "icb_B-WaQm_T38MpQHsLcA", "alias": "goa-new-york-new-york", "name": "Goa New York", "image_url": "https://s3-media2.fl.yelpcdn.com/bphoto/00togkEx9olr6M0kJzs-qw/o.jpg", "is_closed": false, "url": "https://www.yelp.com/biz/goa-new-york-new-york?adjust_creative=9gNmiWYX8uTbFBeTTvJMdA&utm_campaign=yelp_api_v3&utm_medium=api_v3_business_search&utm_source=9gNmiWYX8uTbFBeTTvJMdA", "review_count": 15, "categories": [{"alias": "indpak", "title": "Indian"}], "rating": 3.5, "coordinates": {"latitude": 40.71733, "longitude": -74.0052}, "transactions": [], "location": {"address1": "78 Leonard St", "address2": null, "address3": "", "city": "New York", "zip_code": "10013", "country": "US", "state": "NY", "display_address": ["78 Leonard St", "New York, NY 10013"]}, "phone": "+16464904372", "display_phone": "(646) 490-4372", "distance": 5549.53290471233}, {"id": "7-mcmUETyMifs3rbpvCObA", "alias": "yeti-spice-grill-new-york", "name": "Yeti Spice Grill", "image_url": "https://s3-media3.fl.yelpcdn.com/bphoto/tA_7tHa6B7elG0gcR_f67w/o.jpg", "is_closed": false, "url": "https://www.yelp.com/biz/yeti-spice-grill-new-york?adjust_creative=9gNmiWYX8uTbFBeTTvJMdA&utm_campaign=yelp_api_v3&utm_medium=api_v3_business_search&utm_source=9gNmiWYX8uTbFBeTTvJMdA", "review_count": 63, "categories": [{"alias": "indpak", "title": "Indian"}, {"alias": "desserts", "title": "Desserts"}, {"alias": "kebab", "title": "Kebab"}], "rating": 4.5, "coordinates": {"latitude": 40.7802334786396, "longitude": -73.9467215538025}, "transactions": ["pickup", "delivery"], "price": "$$", "location": {"address1": "1764 1st Ave", "address2": "", "address3": null, "city": "New York", "zip_code": "10128", "country": "US", "state": "NY", "display_address": ["1764 1st Ave", "New York, NY 10128"]}, "phone": "+16465900942", "display_phone": "(646) 590-0942", "distance": 3030.9637331197105}, {"id": "JvV8sTgUX6abRQPzb3hLgg", "alias": "asian-curry-hut-new-york-2", "name": "Asian Curry Hut", "image_url": "https://s3-media3.fl.yelpcdn.com/bphoto/N3hHOb-Y9aKjmtPbWuCbgw/o.jpg", "is_closed": false, "url": "https://www.yelp.com/biz/asian-curry-hut-new-york-2?adjust_creative=9gNmiWYX8uTbFBeTTvJMdA&utm_campaign=yelp_api_v3&utm_medium=api_v3_business_search&utm_source=9gNmiWYX8uTbFBeTTvJMdA", "review_count": 130, "categories": [{"alias": "indpak", "title": "Indian"}], "rating": 3.5, "coordinates": {"latitude": 40.75674, "longitude": -73.99347}, "transactions": ["pickup", "delivery"], "price": "$$", "location": {"address1": "534 9th Ave", "address2": "", "address3": "", "city": "New York", "zip_code": "10018", "country": "US", "state": "NY", "display_address": ["534 9th Ave", "New York, NY 10018"]}, "phone": "+12129675885", "display_phone": "(212) 967-5885", "distance": 2032.5129851369738}, {"id": "ATrDmKiZ-YrAcG3hR7LLgg", "alias": "tadka-fine-indian-cuisine-secaucus-2", "name": "Tadka Fine Indian Cuisine", "image_url": "https://s3-media3.fl.yelpcdn.com/bphoto/9FSndM5eBg5uKvXtYiP5Fg/o.jpg", "is_closed": false, "url": "https://www.yelp.com/biz/tadka-fine-indian-cuisine-secaucus-2?adjust_creative=9gNmiWYX8uTbFBeTTvJMdA&utm_campaign=yelp_api_v3&utm_medium=api_v3_business_search&utm_source=9gNmiWYX8uTbFBeTTvJMdA", "review_count": 130, "categories": [{"alias": "indpak", "title": "Indian"}], "rating": 3.5, "coordinates": {"latitude": 40.79015, "longitude": -74.05819}, "transactions": ["pickup", "delivery"], "price": "$$", "location": {"address1": "1297 Paterson Plank Rd", "address2": null, "address3": "", "city": "Secaucus", "zip_code": "07094", "country": "US", "state": "NJ", "display_address": ["1297 Paterson Plank Rd", "Secaucus, NJ 07094"]}, "phone": "+12017701919", "display_phone": "(201) 770-1919", "distance": 8219.985101182067}, {"id": "0s8rxDQhglhh28BLz-80qw", "alias": "mysttik-masaala-new-york-18", "name": "Mysttik Masaala", "image_url": "https://s3-media3.fl.yelpcdn.com/bphoto/McJTmv1_HDbIpaD_LNXvrg/o.jpg", "is_closed": false, "url": "https://www.yelp.com/biz/mysttik-masaala-new-york-18?adjust_creative=9gNmiWYX8uTbFBeTTvJMdA&utm_campaign=yelp_api_v3&utm_medium=api_v3_business_search&utm_source=9gNmiWYX8uTbFBeTTvJMdA", "review_count": 20, "categories": [{"alias": "indpak", "title": "Indian"}, {"alias": "streetvendors", "title": "Street Vendors"}], "rating": 5.0, "coordinates": {"latitude": 40.75074, "longitude": -73.97936}, "transactions": ["pickup", "delivery"], "location": {"address1": "90 Park Ave", "address2": "Corner of 40th Street", "address3": "", "city": "New York", "zip_code": "10016", "country": "US", "state": "NY", "display_address": ["90 Park Ave", "Corner of 40th Street", "New York, NY 10016"]}, "phone": "", "display_phone": "", "distance": 1247.5353968227334}, {"id": "4Jr7xtN_KvSf6b2zWWW5Ng", "alias": "tikka-masala-long-island-city", "name": "Tikka Masala", "image_url": "https://s3-media2.fl.yelpcdn.com/bphoto/Hwvlf9wHPIeBhXsA3_bp3A/o.jpg", "is_closed": false, "url": "https://www.yelp.com/biz/tikka-masala-long-island-city?adjust_creative=9gNmiWYX8uTbFBeTTvJMdA&utm_campaign=yelp_api_v3&utm_medium=api_v3_business_search&utm_source=9gNmiWYX8uTbFBeTTvJMdA", "review_count": 29, "categories": [{"alias": "indpak", "title": "Indian"}, {"alias": "seafood", "title": "Seafood"}], "rating": 3.5, "coordinates": {"latitude": 40.74277, "longitude": -73.95271}, "transactions": ["pickup", "delivery"], "location": {"address1": "10-57 Jackson Ave", "address2": "", "address3": null, "city": "Long Island City", "zip_code": "11101", "country": "US", "state": "NY", "display_address": ["10-57 Jackson Ave", "Long Island City, NY 11101"]}, "phone": "+17182556752", "display_phone": "(718) 255-6752", "distance": 2310.0543734579924}, {"id": "WWpOWqOgS9ClYvxYVzR0lg", "alias": "tikka-indian-grill-brooklyn-5", "name": "Tikka Indian Grill", "image_url": "https://s3-media4.fl.yelpcdn.com/bphoto/D7IP2LGd9qwoE7bXnuSqZQ/o.jpg", "is_closed": false, "url": "https://www.yelp.com/biz/tikka-indian-grill-brooklyn-5?adjust_creative=9gNmiWYX8uTbFBeTTvJMdA&utm_campaign=yelp_api_v3&utm_medium=api_v3_business_search&utm_source=9gNmiWYX8uTbFBeTTvJMdA", "review_count": 372, "categories": [{"alias": "indpak", "title": "Indian"}, {"alias": "desserts", "title": "Desserts"}, {"alias": "soup", "title": "Soup"}], "rating": 4.0, "coordinates": {"latitude": 40.71441, "longitude": -73.96078}, "transactions": ["pickup", "delivery"], "price": "$$", "location": {"address1": "185 Grand St", "address2": "", "address3": "", "city": "Brooklyn", "zip_code": "11211", "country": "US", "state": "NY", "display_address": ["185 Grand St", "Brooklyn, NY 11211"]}, "phone": "+17187682262", "display_phone": "(718) 768-2262", "distance": 5029.479075903048}, {"id": "YDtIHtfvWd4W36wq6UAjoA", "alias": "kitchen-grill-indian-restaurant-brooklyn", "name": "Kitchen Grill Indian Restaurant", "image_url": "https://s3-media2.fl.yelpcdn.com/bphoto/VtbRfMtUIlSv1-gky6m4BA/o.jpg", "is_closed": false, "url": "https://www.yelp.com/biz/kitchen-grill-indian-restaurant-brooklyn?adjust_creative=9gNmiWYX8uTbFBeTTvJMdA&utm_campaign=yelp_api_v3&utm_medium=api_v3_business_search&utm_source=9gNmiWYX8uTbFBeTTvJMdA", "review_count": 329, "categories": [{"alias": "indpak", "title": "Indian"}], "rating": 4.5, "coordinates": {"latitude": 40.6827929, "longitude": -73.9644377}, "transactions": ["pickup", "delivery"], "price": "$$", "location": {"address1": "914A Fulton St", "address2": "", "address3": "", "city": "Brooklyn", "zip_code": "11238", "country": "US", "state": "NY", "display_address": ["914A Fulton St", "Brooklyn, NY 11238"]}, "phone": "+17187897800", "display_phone": "(718) 789-7800", "distance": 8504.282872208978}, {"id": "noBCTbD1Ylf5QR7PXy-rkA", "alias": "cafe-himalaya-new-york-2", "name": "Cafe Himalaya", "image_url": "https://s3-media3.fl.yelpcdn.com/bphoto/SPjTRhdYULveQZlZOzlSDQ/o.jpg", "is_closed": false, "url": "https://www.yelp.com/biz/cafe-himalaya-new-york-2?adjust_creative=9gNmiWYX8uTbFBeTTvJMdA&utm_campaign=yelp_api_v3&utm_medium=api_v3_business_search&utm_source=9gNmiWYX8uTbFBeTTvJMdA", "review_count": 667, "categories": [{"alias": "himalayan", "title": "Himalayan/Nepalese"}], "rating": 4.0, "coordinates": {"latitude": 40.7232289034083, "longitude": -73.9879441220901}, "transactions": ["pickup", "delivery"], "price": "$$", "location": {"address1": "78 E 1st St", "address2": "", "address3": "", "city": "New York", "zip_code": "10009", "country": "US", "state": "NY", "display_address": ["78 E 1st St", "New York, NY 10009"]}, "phone": "+12123580160", "display_phone": "(212) 358-0160", "distance": 4286.156815419381}, {"id": "h0Z2RZBZbiqS-Yw22WyTaQ", "alias": "maharaja-palace-new-york-2", "name": "Maharaja Palace", "image_url": "https://s3-media3.fl.yelpcdn.com/bphoto/SCIf-kl-Ek5qTNVrJzZyUg/o.jpg", "is_closed": false, "url": "https://www.yelp.com/biz/maharaja-palace-new-york-2?adjust_creative=9gNmiWYX8uTbFBeTTvJMdA&utm_campaign=yelp_api_v3&utm_medium=api_v3_business_search&utm_source=9gNmiWYX8uTbFBeTTvJMdA", "review_count": 182, "categories": [{"alias": "indpak", "title": "Indian"}, {"alias": "diners", "title": "Diners"}, {"alias": "vegetarian", "title": "Vegetarian"}], "rating": 3.5, "coordinates": {"latitude": 40.8033065717907, "longitude": -73.9562846158103}, "transactions": ["pickup", "delivery"], "price": "$$", "location": {"address1": "2113 Frederick Douglass Blvd", "address2": "", "address3": "", "city": "New York", "zip_code": "10026", "country": "US", "state": "NY", "display_address": ["2113 Frederick Douglass Blvd", "New York, NY 10026"]}, "phone": "+12122228934", "display_phone": "(212) 222-8934", "distance": 5033.185715682454}, {"id": "jUkSkpxsJxiTa5C-H5pnyw", "alias": "tikka-n-talk-forest-hills", "name": "Tikka N Talk", "image_url": "https://s3-media4.fl.yelpcdn.com/bphoto/g5tbXy-Yq-sk38lfqVhtmg/o.jpg", "is_closed": false, "url": "https://www.yelp.com/biz/tikka-n-talk-forest-hills?adjust_creative=9gNmiWYX8uTbFBeTTvJMdA&utm_campaign=yelp_api_v3&utm_medium=api_v3_business_search&utm_source=9gNmiWYX8uTbFBeTTvJMdA", "review_count": 119, "categories": [{"alias": "indpak", "title": "Indian"}, {"alias": "halal", "title": "Halal"}, {"alias": "breakfast_brunch", "title": "Breakfast & Brunch"}], "rating": 4.5, "coordinates": {"latitude": 40.72097, "longitude": -73.84639}, "transactions": ["pickup", "delivery"], "price": "$$", "location": {"address1": "70-11 Austin St", "address2": "Lower Level", "address3": "", "city": "Forest Hills", "zip_code": "11375", "country": "US", "state": "NY", "display_address": ["70-11 Austin St", "Lower Level", "Forest Hills, NY 11375"]}, "phone": "+17185752018", "display_phone": "(718) 575-2018", "distance": 11223.756107417053}, {"id": "niivJKBqY5wToDukqZHetQ", "alias": "karma-kafe-hoboken", "name": "Karma Kafe", "image_url": "https://s3-media2.fl.yelpcdn.com/bphoto/27WF0dgdA3rptU1Se1TSxQ/o.jpg", "is_closed": false, "url": "https://www.yelp.com/biz/karma-kafe-hoboken?adjust_creative=9gNmiWYX8uTbFBeTTvJMdA&utm_campaign=yelp_api_v3&utm_medium=api_v3_business_search&utm_source=9gNmiWYX8uTbFBeTTvJMdA", "review_count": 766, "categories": [{"alias": "indpak", "title": "Indian"}], "rating": 4.0, "coordinates": {"latitude": 40.74238, "longitude": -74.02909}, "transactions": ["pickup", "delivery"], "price": "$$", "location": {"address1": "505 Washington St", "address2": "", "address3": "", "city": "Hoboken", "zip_code": "07030", "country": "US", "state": "NJ", "display_address": ["505 Washington St", "Hoboken, NJ 07030"]}, "phone": "+12016100900", "display_phone": "(201) 610-0900", "distance": 5351.632991725452}, {"id": "KhzQ-9jzOLOtrKXSxoC-uw", "alias": "bombay-grill-new-york-2", "name": "Bombay Grill", "image_url": "", "is_closed": false, "url": "https://www.yelp.com/biz/bombay-grill-new-york-2?adjust_creative=9gNmiWYX8uTbFBeTTvJMdA&utm_campaign=yelp_api_v3&utm_medium=api_v3_business_search&utm_source=9gNmiWYX8uTbFBeTTvJMdA", "review_count": 1, "categories": [{"alias": "indpak", "title": "Indian"}, {"alias": "buffets", "title": "Buffets"}], "rating": 5.0, "coordinates": {"latitude": 40.74218, "longitude": -74.001106}, "transactions": ["pickup", "delivery"], "location": {"address1": "155 8th Ave", "address2": "", "address3": "", "city": "New York", "zip_code": "10011", "country": "US", "state": "NY", "display_address": ["155 8th Ave", "New York, NY 10011"]}, "phone": "+12129297020", "display_phone": "(212) 929-7020", "distance": 3258.1351936450574}, {"id": "3N3XesISm5tg_nsjL10eFA", "alias": "chapati-house-new-york-2", "name": "Chapati House", "image_url": "https://s3-media3.fl.yelpcdn.com/bphoto/5m5wIUV14Uh2-RHWj7RZPg/o.jpg", "is_closed": false, "url": "https://www.yelp.com/biz/chapati-house-new-york-2?adjust_creative=9gNmiWYX8uTbFBeTTvJMdA&utm_campaign=yelp_api_v3&utm_medium=api_v3_business_search&utm_source=9gNmiWYX8uTbFBeTTvJMdA", "review_count": 233, "categories": [{"alias": "indpak", "title": "Indian"}], "rating": 4.0, "coordinates": {"latitude": 40.814613, "longitude": -73.95959}, "transactions": ["pickup", "delivery"], "price": "$", "location": {"address1": "3153 Broadway", "address2": "", "address3": "", "city": "New York", "zip_code": "10027", "country": "US", "state": "NY", "display_address": ["3153 Broadway", "New York, NY 10027"]}, "phone": "+12127497200", "display_phone": "(212) 749-7200", "distance": 6221.493417080089}, {"id": "8Nva_eS_FxPOqVuUOvqz_Q", "alias": "indian-summer-harlem-new-york", "name": "Indian Summer Harlem", "image_url": "https://s3-media3.fl.yelpcdn.com/bphoto/RkewTF9fA91MJ0UpnRHYng/o.jpg", "is_closed": false, "url": "https://www.yelp.com/biz/indian-summer-harlem-new-york?adjust_creative=9gNmiWYX8uTbFBeTTvJMdA&utm_campaign=yelp_api_v3&utm_medium=api_v3_business_search&utm_source=9gNmiWYX8uTbFBeTTvJMdA", "review_count": 155, "categories": [{"alias": "indpak", "title": "Indian"}], "rating": 4.5, "coordinates": {"latitude": 40.805898, "longitude": -73.947324}, "transactions": ["pickup", "delivery"], "price": "$$", "location": {"address1": "239 Lenox Ave", "address2": null, "address3": "", "city": "New York", "zip_code": "10027", "country": "US", "state": "NY", "display_address": ["239 Lenox Ave", "New York, NY 10027"]}, "phone": "+16469520300", "display_phone": "(646) 952-0300", "distance": 5523.04280876768}, {"id": "HGNqWrRYJNyhJSS8yia8HQ", "alias": "ruchi-new-york-2", "name": "Ruchi", "image_url": "https://s3-media4.fl.yelpcdn.com/bphoto/ObuvCgVjtkDw_TqWibuMqg/o.jpg", "is_closed": false, "url": "https://www.yelp.com/biz/ruchi-new-york-2?adjust_creative=9gNmiWYX8uTbFBeTTvJMdA&utm_campaign=yelp_api_v3&utm_medium=api_v3_business_search&utm_source=9gNmiWYX8uTbFBeTTvJMdA", "review_count": 387, "categories": [{"alias": "indpak", "title": "Indian"}], "rating": 3.5, "coordinates": {"latitude": 40.709532, "longitude": -74.012702}, "transactions": ["pickup", "delivery"], "price": "$$", "location": {"address1": "120 Cedar St", "address2": "", "address3": "", "city": "New York", "zip_code": "10006", "country": "US", "state": "NY", "display_address": ["120 Cedar St", "New York, NY 10006"]}, "phone": "+12122278454", "display_phone": "(212) 227-8454", "distance": 6608.731400428163}, {"id": "eTe0fY7PUIKuxgSdxgkD_A", "alias": "silli-point-indian-fusion-cliffside-park", "name": "Silli Point Indian Fusion", "image_url": "https://s3-media4.fl.yelpcdn.com/bphoto/TVleoZavj4WuUMJWhFjUOQ/o.jpg", "is_closed": false, "url": "https://www.yelp.com/biz/silli-point-indian-fusion-cliffside-park?adjust_creative=9gNmiWYX8uTbFBeTTvJMdA&utm_campaign=yelp_api_v3&utm_medium=api_v3_business_search&utm_source=9gNmiWYX8uTbFBeTTvJMdA", "review_count": 336, "categories": [{"alias": "indpak", "title": "Indian"}, {"alias": "halal", "title": "Halal"}, {"alias": "vegan", "title": "Vegan"}], "rating": 4.0, "coordinates": {"latitude": 40.82439932623717, "longitude": -73.98454408544258}, "transactions": ["pickup", "delivery"], "price": "$$", "location": {"address1": "629 Palisade Ave", "address2": "", "address3": "", "city": "Cliffside Park", "zip_code": "07010", "country": "US", "state": "NJ", "display_address": ["629 Palisade Ave", "Cliffside Park, NJ 07010"]}, "phone": "+12019410271", "display_phone": "(201) 941-0271", "distance": 7361.317529413257}, {"id": "TcuWyuZAORVnQBPCMNbTgw", "alias": "beyond-sushi-new-york-4", "name": "Beyond Sushi", "image_url": "https://s3-media2.fl.yelpcdn.com/bphoto/BzonFoSIbiNWfbUNOOcrkw/o.jpg", "is_closed": false, "url": "https://www.yelp.com/biz/beyond-sushi-new-york-4?adjust_creative=9gNmiWYX8uTbFBeTTvJMdA&utm_campaign=yelp_api_v3&utm_medium=api_v3_business_search&utm_source=9gNmiWYX8uTbFBeTTvJMdA", "review_count": 812, "categories": [{"alias": "vegan", "title": "Vegan"}, {"alias": "vegetarian", "title": "Vegetarian"}, {"alias": "gluten_free", "title": "Gluten-Free"}], "rating": 4.5, "coordinates": {"latitude": 40.76331, "longitude": -73.97717}, "transactions": ["pickup", "delivery"], "price": "$$", "location": {"address1": "62 W 56th St", "address2": "", "address3": "", "city": "New York", "zip_code": "10019", "country": "US", "state": "NY", "display_address": ["62 W 56th St", "New York, NY 10019"]}, "phone": "+16469645097", "display_phone": "(646) 964-5097", "distance": 796.886845746668}, {"id": "ik7LcD1fkzVbVQ6Sntd4LA", "alias": "indian-spice-brooklyn", "name": "Indian Spice", "image_url": "https://s3-media2.fl.yelpcdn.com/bphoto/0_ExXHaJR-vKnk-CfPmYaQ/o.jpg", "is_closed": false, "url": "https://www.yelp.com/biz/indian-spice-brooklyn?adjust_creative=9gNmiWYX8uTbFBeTTvJMdA&utm_campaign=yelp_api_v3&utm_medium=api_v3_business_search&utm_source=9gNmiWYX8uTbFBeTTvJMdA", "review_count": 173, "categories": [{"alias": "indpak", "title": "Indian"}], "rating": 4.0, "coordinates": {"latitude": 40.6660303077582, "longitude": -73.9819402992725}, "transactions": ["pickup", "delivery"], "price": "$$", "location": {"address1": "351 7th Ave", "address2": "", "address3": "", "city": "Brooklyn", "zip_code": "11215", "country": "US", "state": "NY", "display_address": ["351 7th Ave", "Brooklyn, NY 11215"]}, "phone": "+17187687777", "display_phone": "(718) 768-7777", "distance": 10409.486273066583}, {"id": "7rTl_d-dqlK5dGG31ogSBg", "alias": "nanking-south-ozone-park-6", "name": "Nanking", "image_url": "https://s3-media4.fl.yelpcdn.com/bphoto/BhLAirDSu2OrSsEncohuIg/o.jpg", "is_closed": false, "url": "https://www.yelp.com/biz/nanking-south-ozone-park-6?adjust_creative=9gNmiWYX8uTbFBeTTvJMdA&utm_campaign=yelp_api_v3&utm_medium=api_v3_business_search&utm_source=9gNmiWYX8uTbFBeTTvJMdA", "review_count": 382, "categories": [{"alias": "indpak", "title": "Indian"}, {"alias": "thai", "title": "Thai"}, {"alias": "chinese", "title": "Chinese"}], "rating": 4.0, "coordinates": {"latitude": 40.67484, "longitude": -73.80398}, "transactions": ["pickup", "delivery"], "price": "$$", "location": {"address1": "134-07 Rockaway Blvd", "address2": "", "address3": "", "city": "South Ozone Park", "zip_code": "11420", "country": "US", "state": "NY", "display_address": ["134-07 Rockaway Blvd", "South Ozone Park, NY 11420"]}, "phone": "+17183233555", "display_phone": "(718) 323-3555", "distance": 16822.35541402847}, {"id": "2YufTvP05BC9VORwAcOl_g", "alias": "desi-bbq-halal-long-island-city-2", "name": "Desi BBQ Halal", "image_url": "https://s3-media2.fl.yelpcdn.com/bphoto/MaNdEPhMqkGfrz6RXorLTA/o.jpg", "is_closed": false, "url": "https://www.yelp.com/biz/desi-bbq-halal-long-island-city-2?adjust_creative=9gNmiWYX8uTbFBeTTvJMdA&utm_campaign=yelp_api_v3&utm_medium=api_v3_business_search&utm_source=9gNmiWYX8uTbFBeTTvJMdA", "review_count": 52, "categories": [{"alias": "pakistani", "title": "Pakistani"}, {"alias": "halal", "title": "Halal"}, {"alias": "indpak", "title": "Indian"}], "rating": 4.5, "coordinates": {"latitude": 40.7535956, "longitude": -73.9237429}, "transactions": ["pickup", "delivery"], "price": "$", "location": {"address1": "36-02 Steinway St", "address2": null, "address3": "", "city": "Long Island City", "zip_code": "11101", "country": "US", "state": "NY", "display_address": ["36-02 Steinway St", "Long Island City, NY 11101"]}, "phone": "+17186501750", "display_phone": "(718) 650-1750", "distance": 3909.8447031633823}, {"id": "ODpSYoZ8fkaX3UaDzBLhsg", "alias": "kamal-palace-north-arlington", "name": "Kamal Palace", "image_url": "https://s3-media2.fl.yelpcdn.com/bphoto/77FNLuwrCMGwyV-vMNnO2w/o.jpg", "is_closed": false, "url": "https://www.yelp.com/biz/kamal-palace-north-arlington?adjust_creative=9gNmiWYX8uTbFBeTTvJMdA&utm_campaign=yelp_api_v3&utm_medium=api_v3_business_search&utm_source=9gNmiWYX8uTbFBeTTvJMdA", "review_count": 254, "categories": [{"alias": "indpak", "title": "Indian"}], "rating": 4.0, "coordinates": {"latitude": 40.798642, "longitude": -74.126354}, "transactions": ["pickup", "delivery"], "price": "$$", "location": {"address1": "623 Ridge Rd", "address2": null, "address3": "", "city": "North Arlington", "zip_code": "07031", "country": "US", "state": "NJ", "display_address": ["623 Ridge Rd", "North Arlington, NJ 07031"]}, "phone": "+12019918282", "display_phone": "(201) 991-8282", "distance": 13910.006713788567}, {"id": "gveiLCZPJ-Fv_LjmrhWgSA", "alias": "inday-new-york-8", "name": "INDAY", "image_url": "https://s3-media3.fl.yelpcdn.com/bphoto/p-rdvVJWX6EYNBvuM1DXIw/o.jpg", "is_closed": false, "url": "https://www.yelp.com/biz/inday-new-york-8?adjust_creative=9gNmiWYX8uTbFBeTTvJMdA&utm_campaign=yelp_api_v3&utm_medium=api_v3_business_search&utm_source=9gNmiWYX8uTbFBeTTvJMdA", "review_count": 21, "categories": [{"alias": "salad", "title": "Salad"}, {"alias": "juicebars", "title": "Juice Bars & Smoothies"}, {"alias": "indpak", "title": "Indian"}], "rating": 4.5, "coordinates": {"latitude": 40.751655, "longitude": -73.979768}, "transactions": ["pickup", "delivery"], "location": {"address1": "285 Madison Ave", "address2": null, "address3": "", "city": "New York", "zip_code": "10017", "country": "US", "state": "NY", "display_address": ["285 Madison Ave", "New York, NY 10017"]}, "phone": "+19177242616", "display_phone": "(917) 724-2616", "distance": 1201.0008406853271}, {"id": "ugYhnKrr3Q1TVV15R0EEWQ", "alias": "antalia-nyc-new-york-3", "name": "AnTalia NYC", "image_url": "https://s3-media3.fl.yelpcdn.com/bphoto/ghdcVvF8tthyLNDSVzpS3w/o.jpg", "is_closed": false, "url": "https://www.yelp.com/biz/antalia-nyc-new-york-3?adjust_creative=9gNmiWYX8uTbFBeTTvJMdA&utm_campaign=yelp_api_v3&utm_medium=api_v3_business_search&utm_source=9gNmiWYX8uTbFBeTTvJMdA", "review_count": 457, "categories": [{"alias": "turkish", "title": "Turkish"}, {"alias": "mediterranean", "title": "Mediterranean"}, {"alias": "halal", "title": "Halal"}], "rating": 4.0, "coordinates": {"latitude": 40.755991, "longitude": -73.980313}, "transactions": ["pickup", "delivery"], "price": "$$", "location": {"address1": "17 W 45th St", "address2": null, "address3": "", "city": "New York", "zip_code": "10036", "country": "US", "state": "NY", "display_address": ["17 W 45th St", "New York, NY 10036"]}, "phone": "+12122213333", "display_phone": "(212) 221-3333", "distance": 973.4643293342617}, {"id": "9MO5UogFuvqAriOA9RlqKA", "alias": "saravana-bhavan-new-york-4", "name": "Saravana Bhavan", "image_url": "https://s3-media1.fl.yelpcdn.com/bphoto/E7ET6SngRlP55AVGlAk99w/o.jpg", "is_closed": false, "url": "https://www.yelp.com/biz/saravana-bhavan-new-york-4?adjust_creative=9gNmiWYX8uTbFBeTTvJMdA&utm_campaign=yelp_api_v3&utm_medium=api_v3_business_search&utm_source=9gNmiWYX8uTbFBeTTvJMdA", "review_count": 9, "categories": [{"alias": "vegetarian", "title": "Vegetarian"}], "rating": 4.0, "coordinates": {"latitude": 40.7038, "longitude": -74.00816}, "transactions": ["pickup", "delivery"], "location": {"address1": "32 Old Slip", "address2": "", "address3": null, "city": "New York", "zip_code": "10005", "country": "US", "state": "NY", "display_address": ["32 Old Slip", "New York, NY 10005"]}, "phone": "+19175133582", "display_phone": "(917) 513-3582", "distance": 6955.215005822682}], "total": 902, "region": {"center": {"longitude": -73.96957397460938, "latitude": 40.75917470627005}}}