{"businesses": [{"id": "uwx3yy7Wu5u55EiXRv03aQ", "alias": "ali-baba-hoboken-2", "name": "Ali Baba", "image_url": "https://s3-media2.fl.yelpcdn.com/bphoto/BY4Vlxl5UU3pKw1sTs3K-A/o.jpg", "is_closed": false, "url": "https://www.yelp.com/biz/ali-baba-hoboken-2?adjust_creative=9gNmiWYX8uTbFBeTTvJMdA&utm_campaign=yelp_api_v3&utm_medium=api_v3_business_search&utm_source=9gNmiWYX8uTbFBeTTvJMdA", "review_count": 347, "categories": [{"alias": "mediterranean", "title": "Mediterranean"}, {"alias": "mideastern", "title": "Middle Eastern"}, {"alias": "halal", "title": "Halal"}], "rating": 4.5, "coordinates": {"latitude": 40.747742, "longitude": -74.028024}, "transactions": ["delivery", "pickup"], "price": "$$", "location": {"address1": "912 Washington St", "address2": "", "address3": "", "city": "Hoboken", "zip_code": "07030", "country": "US", "state": "NJ", "display_address": ["912 Washington St", "Hoboken, NJ 07030"]}, "phone": "+12016535319", "display_phone": "(201) 653-5319", "distance": 5080.2426515745765}, {"id": "vksCRTDJO6ZrM_JFRxnG9w", "alias": "desi-junction-new-york", "name": "Desi Junction", "image_url": "https://s3-media2.fl.yelpcdn.com/bphoto/TpiY9RXaZ3cYxT5bD63_RQ/o.jpg", "is_closed": false, "url": "https://www.yelp.com/biz/desi-junction-new-york?adjust_creative=9gNmiWYX8uTbFBeTTvJMdA&utm_campaign=yelp_api_v3&utm_medium=api_v3_business_search&utm_source=9gNmiWYX8uTbFBeTTvJMdA", "review_count": 4, "categories": [{"alias": "indpak", "title": "Indian"}, {"alias": "pakistani", "title": "Pakistani"}], "rating": 3.5, "coordinates": {"latitude": 40.763465, "longitude": -73.992317}, "transactions": ["delivery", "pickup"], "price": "$", "location": {"address1": "688 10th Ave", "address2": "", "address3": "", "city": "New York", "zip_code": "10019", "country": "US", "state": "NY", "display_address": ["688 10th Ave", "New York, NY 10019"]}, "phone": "", "display_phone": "", "distance": 1973.2397871798844}, {"id": "IFZ3_d01uflGixWrrD8_gg", "alias": "ariana-afghan-kebab-restaurant-new-york", "name": "Ariana Afghan Kebab Restaurant", "image_url": "https://s3-media2.fl.yelpcdn.com/bphoto/0SWjr3Vd07P0bWjxnlY86Q/o.jpg", "is_closed": false, "url": "https://www.yelp.com/biz/ariana-afghan-kebab-restaurant-new-york?adjust_creative=9gNmiWYX8uTbFBeTTvJMdA&utm_campaign=yelp_api_v3&utm_medium=api_v3_business_search&utm_source=9gNmiWYX8uTbFBeTTvJMdA", "review_count": 551, "categories": [{"alias": "afghani", "title": "Afghan"}, {"alias": "halal", "title": "Halal"}, {"alias": "kebab", "title": "Kebab"}], "rating": 4.0, "coordinates": {"latitude": 40.76515, "longitude": -73.98813}, "transactions": ["delivery", "pickup"], "price": "$$", "location": {"address1": "787 9th Ave", "address2": "Apt 3N", "address3": "", "city": "New York", "zip_code": "10019", "country": "US", "state": "NY", "display_address": ["787 9th Ave", "Apt 3N", "New York, NY 10019"]}, "phone": "+12122622323", "display_phone": "(212) 262-2323", "distance": 1693.4824511131626}, {"id": "Na55QhymZh3cje8Ac2vCvg", "alias": "nimbooda-brooklyn", "name": "Nimbooda", "image_url": "https://s3-media4.fl.yelpcdn.com/bphoto/wD3hUBQ1eiqVwBSSNp4QWw/o.jpg", "is_closed": false, "url": "https://www.yelp.com/biz/nimbooda-brooklyn?adjust_creative=9gNmiWYX8uTbFBeTTvJMdA&utm_campaign=yelp_api_v3&utm_medium=api_v3_business_search&utm_source=9gNmiWYX8uTbFBeTTvJMdA", "review_count": 183, "categories": [{"alias": "indpak", "title": "Indian"}, {"alias": "vegetarian", "title": "Vegetarian"}], "rating": 4.0, "coordinates": {"latitude": 40.67825, "longitude": -73.96419}, "transactions": ["delivery", "pickup"], "price": "$$", "location": {"address1": "664 Washington Ave", "address2": null, "address3": "", "city": "Brooklyn", "zip_code": "11238", "country": "US", "state": "NY", "display_address": ["664 Washington Ave", "Brooklyn, NY 11238"]}, "phone": "+17186224616", "display_phone": "(718) 622-4616", "distance": 9006.883966315478}, {"id": "S0naNES84cWfTU1414S2Eg", "alias": "asya-indian-kitchen-brooklyn", "name": "Asya Indian Kitchen", "image_url": "https://s3-media1.fl.yelpcdn.com/bphoto/wtCq_9NamHpHkyPQfR1Iow/o.jpg", "is_closed": false, "url": "https://www.yelp.com/biz/asya-indian-kitchen-brooklyn?adjust_creative=9gNmiWYX8uTbFBeTTvJMdA&utm_campaign=yelp_api_v3&utm_medium=api_v3_business_search&utm_source=9gNmiWYX8uTbFBeTTvJMdA", "review_count": 12, "categories": [{"alias": "indpak", "title": "Indian"}], "rating": 5.0, "coordinates": {"latitude": 40.68087, "longitude": -73.97463}, "transactions": ["delivery", "pickup"], "location": {"address1": "479 Bergen St", "address2": "", "address3": null, "city": "Brooklyn", "zip_code": "11217", "country": "US", "state": "NY", "display_address": ["479 Bergen St", "Brooklyn, NY 11217"]}, "phone": "+13477213734", "display_phone": "(347) 721-3734", "distance": 8713.36540148788}, {"id": "RZQDDJBb7X417wcobUyv0g", "alias": "london-tandoori-brooklyn", "name": "London Tandoori", "image_url": "https://s3-media2.fl.yelpcdn.com/bphoto/uVsYwoggB4DzDvUOpNm5XQ/o.jpg", "is_closed": false, "url": "https://www.yelp.com/biz/london-tandoori-brooklyn?adjust_creative=9gNmiWYX8uTbFBeTTvJMdA&utm_campaign=yelp_api_v3&utm_medium=api_v3_business_search&utm_source=9gNmiWYX8uTbFBeTTvJMdA", "review_count": 33, "categories": [{"alias": "indpak", "title": "Indian"}], "rating": 3.5, "coordinates": {"latitude": 40.713843, "longitude": -73.951128}, "transactions": ["delivery", "pickup"], "location": {"address1": "524 Metropolitan Ave", "address2": null, "address3": "", "city": "Brooklyn", "zip_code": "11211", "country": "US", "state": "NY", "display_address": ["524 Metropolitan Ave", "Brooklyn, NY 11211"]}, "phone": "+13478896401", "display_phone": "(347) 889-6401", "distance": 5269.409186817779}, {"id": "sQ_L8O9WMU4apxSTVa9JKg", "alias": "agra-taj-mahal-brooklyn", "name": "Agra Taj Mahal", "image_url": "https://s3-media2.fl.yelpcdn.com/bphoto/wkEHZgAKvZtKY-m2Q6WEUg/o.jpg", "is_closed": false, "url": "https://www.yelp.com/biz/agra-taj-mahal-brooklyn?adjust_creative=9gNmiWYX8uTbFBeTTvJMdA&utm_campaign=yelp_api_v3&utm_medium=api_v3_business_search&utm_source=9gNmiWYX8uTbFBeTTvJMdA", "review_count": 158, "categories": [{"alias": "indpak", "title": "Indian"}], "rating": 3.5, "coordinates": {"latitude": 40.7332729, "longitude": -73.9550299}, "transactions": ["delivery", "pickup"], "price": "$$", "location": {"address1": "1005 Manhattan Ave", "address2": "", "address3": "", "city": "Brooklyn", "zip_code": "11222", "country": "US", "state": "NY", "display_address": ["1005 Manhattan Ave", "Brooklyn, NY 11222"]}, "phone": "+17183892200", "display_phone": "(718) 389-2200", "distance": 3129.922322584382}, {"id": "P5mFtOSiQmplOj0yVP13PQ", "alias": "rasoi-restaurant-jersey-city", "name": "Rasoi Restaurant", "image_url": "https://s3-media3.fl.yelpcdn.com/bphoto/24MBvspK2asyUlhyHLPOBg/o.jpg", "is_closed": false, "url": "https://www.yelp.com/biz/rasoi-restaurant-jersey-city?adjust_creative=9gNmiWYX8uTbFBeTTvJMdA&utm_campaign=yelp_api_v3&utm_medium=api_v3_business_search&utm_source=9gNmiWYX8uTbFBeTTvJMdA", "review_count": 465, "categories": [{"alias": "indpak", "title": "Indian"}], "rating": 3.5, "coordinates": {"latitude": 40.73587, "longitude": -74.06535}, "transactions": ["delivery", "pickup"], "price": "$$", "location": {"address1": "810 Newark Ave", "address2": "", "address3": "", "city": "Jersey City", "zip_code": "07306", "country": "US", "state": "NJ", "display_address": ["810 Newark Ave", "Jersey City, NJ 07306"]}, "phone": "+12012228850", "display_phone": "(201) 222-8850", "distance": 8490.0123627816}, {"id": "CN-ZjeSCht_lOcEsuVSfgA", "alias": "raaz-jersey-city", "name": "Raaz", "image_url": "https://s3-media4.fl.yelpcdn.com/bphoto/EA6zGI8AJEWDQIMMajYzKQ/o.jpg", "is_closed": false, "url": "https://www.yelp.com/biz/raaz-jersey-city?adjust_creative=9gNmiWYX8uTbFBeTTvJMdA&utm_campaign=yelp_api_v3&utm_medium=api_v3_business_search&utm_source=9gNmiWYX8uTbFBeTTvJMdA", "review_count": 250, "categories": [{"alias": "indpak", "title": "Indian"}], "rating": 3.5, "coordinates": {"latitude": 40.727503, "longitude": -74.034882}, "transactions": ["delivery", "pickup"], "price": "$$", "location": {"address1": "537 Washington Blvd", "address2": "", "address3": "", "city": "Jersey City", "zip_code": "07310", "country": "US", "state": "NJ", "display_address": ["537 Washington Blvd", "Jersey City, NJ 07310"]}, "phone": "+12015330111", "display_phone": "(201) 533-0111", "distance": 6532.512466337462}, {"id": "oOz--_ORMzLSee92b_ksaQ", "alias": "masala-box-bayside", "name": "Masala Box", "image_url": "https://s3-media1.fl.yelpcdn.com/bphoto/nJH5Oqa9AwCOzIPxNCnCNQ/o.jpg", "is_closed": false, "url": "https://www.yelp.com/biz/masala-box-bayside?adjust_creative=9gNmiWYX8uTbFBeTTvJMdA&utm_campaign=yelp_api_v3&utm_medium=api_v3_business_search&utm_source=9gNmiWYX8uTbFBeTTvJMdA", "review_count": 286, "categories": [{"alias": "indpak", "title": "Indian"}], "rating": 4.0, "coordinates": {"latitude": 40.76245, "longitude": -73.77073}, "transactions": ["delivery", "pickup"], "price": "$$", "location": {"address1": "4202 Bell Blvd", "address2": "", "address3": "", "city": "Bayside", "zip_code": "11361", "country": "US", "state": "NY", "display_address": ["4202 Bell Blvd", "Bayside, NY 11361"]}, "phone": "+17182812699", "display_phone": "(718) 281-2699", "distance": 16751.070593227592}, {"id": "lnI9toC-uAhBIbtHDMxvcA", "alias": "indika-house-brooklyn", "name": "Indika House", "image_url": "https://s3-media3.fl.yelpcdn.com/bphoto/hFD0a5SaICalC1Z_ROBXCw/o.jpg", "is_closed": false, "url": "https://www.yelp.com/biz/indika-house-brooklyn?adjust_creative=9gNmiWYX8uTbFBeTTvJMdA&utm_campaign=yelp_api_v3&utm_medium=api_v3_business_search&utm_source=9gNmiWYX8uTbFBeTTvJMdA", "review_count": 118, "categories": [{"alias": "indpak", "title": "Indian"}, {"alias": "asianfusion", "title": "Asian Fusion"}], "rating": 4.5, "coordinates": {"latitude": 40.69716, "longitude": -73.9353}, "transactions": ["delivery", "pickup"], "price": "$$", "location": {"address1": "943 Broadway", "address2": null, "address3": "", "city": "Brooklyn", "zip_code": "11206", "country": "US", "state": "NY", "display_address": ["943 Broadway", "Brooklyn, NY 11206"]}, "phone": "+17184843600", "display_phone": "(718) 484-3600", "distance": 7476.539597522628}, {"id": "gc5VOvoqzM8UQJwV1mhdkA", "alias": "taj-kabab-king-brooklyn", "name": "Taj Kabab King", "image_url": "https://s3-media4.fl.yelpcdn.com/bphoto/8HVyzN_LGeSk9lgCESMdNQ/o.jpg", "is_closed": false, "url": "https://www.yelp.com/biz/taj-kabab-king-brooklyn?adjust_creative=9gNmiWYX8uTbFBeTTvJMdA&utm_campaign=yelp_api_v3&utm_medium=api_v3_business_search&utm_source=9gNmiWYX8uTbFBeTTvJMdA", "review_count": 325, "categories": [{"alias": "indpak", "title": "Indian"}], "rating": 3.5, "coordinates": {"latitude": 40.710938, "longitude": -73.9491}, "transactions": ["delivery", "pickup"], "price": "$$", "location": {"address1": "568 Grand St", "address2": "", "address3": "", "city": "Brooklyn", "zip_code": "11211", "country": "US", "state": "NY", "display_address": ["568 Grand St", "Brooklyn, NY 11211"]}, "phone": "+17187821722", "display_phone": "(718) 782-1722", "distance": 5630.822414491628}, {"id": "Qz5E5sPtETWD3kwEUsBZpw", "alias": "kabul-kabab-house-flushing", "name": "Kabul Kabab House", "image_url": "https://s3-media4.fl.yelpcdn.com/bphoto/zeYKdq9OdTN4nA9RCMR0jg/o.jpg", "is_closed": false, "url": "https://www.yelp.com/biz/kabul-kabab-house-flushing?adjust_creative=9gNmiWYX8uTbFBeTTvJMdA&utm_campaign=yelp_api_v3&utm_medium=api_v3_business_search&utm_source=9gNmiWYX8uTbFBeTTvJMdA", "review_count": 535, "categories": [{"alias": "afghani", "title": "Afghan"}, {"alias": "halal", "title": "Halal"}], "rating": 4.0, "coordinates": {"latitude": 40.753857, "longitude": -73.827635}, "transactions": ["delivery", "pickup"], "price": "$$", "location": {"address1": "42-51 Main St", "address2": "", "address3": "", "city": "Flushing", "zip_code": "11355", "country": "US", "state": "NY", "display_address": ["42-51 Main St", "Flushing, NY 11355"]}, "phone": "+17184611919", "display_phone": "(718) 461-1919", "distance": 11969.995125298006}, {"id": "1PUcqJywIblaVBH_leywTA", "alias": "inday-new-york-9", "name": "Inday", "image_url": "https://s3-media2.fl.yelpcdn.com/bphoto/UjZ4TaYYLVtiJ6_Xhu-UQQ/o.jpg", "is_closed": false, "url": "https://www.yelp.com/biz/inday-new-york-9?adjust_creative=9gNmiWYX8uTbFBeTTvJMdA&utm_campaign=yelp_api_v3&utm_medium=api_v3_business_search&utm_source=9gNmiWYX8uTbFBeTTvJMdA", "review_count": 6, "categories": [{"alias": "indpak", "title": "Indian"}], "rating": 4.0, "coordinates": {"latitude": 40.70209426705473, "longitude": -74.01188010306561}, "transactions": [], "location": {"address1": "One New York Plz", "address2": null, "address3": "", "city": "New York", "zip_code": "10004", "country": "US", "state": "NY", "display_address": ["One New York Plz", "New York, NY 10004"]}, "phone": "", "display_phone": "", "distance": 7279.612224098127}, {"id": "AmsFqdP6BULcAGYEn1EFZg", "alias": "urban-tandoor-harrison", "name": "Urban Tandoor", "image_url": "https://s3-media2.fl.yelpcdn.com/bphoto/ySAttKybR5zT1qIs2P6bvg/o.jpg", "is_closed": false, "url": "https://www.yelp.com/biz/urban-tandoor-harrison?adjust_creative=9gNmiWYX8uTbFBeTTvJMdA&utm_campaign=yelp_api_v3&utm_medium=api_v3_business_search&utm_source=9gNmiWYX8uTbFBeTTvJMdA", "review_count": 132, "categories": [{"alias": "indpak", "title": "Indian"}, {"alias": "beerbar", "title": "Beer Bar"}], "rating": 4.0, "coordinates": {"latitude": 40.746238, "longitude": -74.159862}, "transactions": ["delivery", "pickup"], "price": "$$", "location": {"address1": "206 Harrison Ave", "address2": null, "address3": "", "city": "Harrison", "zip_code": "07029", "country": "US", "state": "NJ", "display_address": ["206 Harrison Ave", "Harrison, NJ 07029"]}, "phone": "+19734971000", "display_phone": "(973) 497-1000", "distance": 16095.853534924932}, {"id": "1gK-0_lGqjxbwiHWcXXdzg", "alias": "abcv-new-york-2", "name": "ABCV", "image_url": "https://s3-media1.fl.yelpcdn.com/bphoto/6BLWlvMip29MFaC8Gjz39Q/o.jpg", "is_closed": false, "url": "https://www.yelp.com/biz/abcv-new-york-2?adjust_creative=9gNmiWYX8uTbFBeTTvJMdA&utm_campaign=yelp_api_v3&utm_medium=api_v3_business_search&utm_source=9gNmiWYX8uTbFBeTTvJMdA", "review_count": 643, "categories": [{"alias": "newamerican", "title": "American (New)"}, {"alias": "vegetarian", "title": "Vegetarian"}, {"alias": "bars", "title": "Bars"}], "rating": 4.0, "coordinates": {"latitude": 40.738058, "longitude": -73.989289}, "transactions": ["delivery", "pickup"], "price": "$$$", "location": {"address1": "38 E 19th St", "address2": "", "address3": null, "city": "New York", "zip_code": "10003", "country": "US", "state": "NY", "display_address": ["38 E 19th St", "New York, NY 10003"]}, "phone": "+12124755829", "display_phone": "(212) 475-5829", "distance": 2876.0383076788917}, {"id": "q2HGvziLlfQGChoDPFjTCQ", "alias": "szechaun-mirchi-jersey-city", "name": "Szechaun Mirchi", "image_url": "https://s3-media1.fl.yelpcdn.com/bphoto/BJ61PmuYWz1772ptczaV4w/o.jpg", "is_closed": false, "url": "https://www.yelp.com/biz/szechaun-mirchi-jersey-city?adjust_creative=9gNmiWYX8uTbFBeTTvJMdA&utm_campaign=yelp_api_v3&utm_medium=api_v3_business_search&utm_source=9gNmiWYX8uTbFBeTTvJMdA", "review_count": 85, "categories": [{"alias": "indpak", "title": "Indian"}, {"alias": "asianfusion", "title": "Asian Fusion"}, {"alias": "thai", "title": "Thai"}], "rating": 4.0, "coordinates": {"latitude": 40.73621, "longitude": -74.067281}, "transactions": ["delivery", "pickup"], "price": "$$", "location": {"address1": "850 Newark Ave", "address2": "", "address3": null, "city": "Jersey City", "zip_code": "07306", "country": "US", "state": "NJ", "display_address": ["850 Newark Ave", "Jersey City, NJ 07306"]}, "phone": "+12017433720", "display_phone": "(201) 743-3720", "distance": 8617.871234752163}, {"id": "tgvibHhySfASSEqJbScCiQ", "alias": "nurlan-uyghur-restaurant-flushing-2", "name": "Nurlan Uyghur Restaurant", "image_url": "https://s3-media4.fl.yelpcdn.com/bphoto/sRDXPzKlIXm8R-O9jC5JjA/o.jpg", "is_closed": false, "url": "https://www.yelp.com/biz/nurlan-uyghur-restaurant-flushing-2?adjust_creative=9gNmiWYX8uTbFBeTTvJMdA&utm_campaign=yelp_api_v3&utm_medium=api_v3_business_search&utm_source=9gNmiWYX8uTbFBeTTvJMdA", "review_count": 102, "categories": [{"alias": "halal", "title": "Halal"}, {"alias": "uzbek", "title": "Uzbek"}, {"alias": "asianfusion", "title": "Asian Fusion"}], "rating": 4.5, "coordinates": {"latitude": 40.751702, "longitude": -73.825982}, "transactions": ["delivery", "pickup"], "price": "$$", "location": {"address1": "43-39 Main St", "address2": null, "address3": "", "city": "Flushing", "zip_code": "11355", "country": "US", "state": "NY", "display_address": ["43-39 Main St", "Flushing, NY 11355"]}, "phone": "+13475423324", "display_phone": "(347) 542-3324", "distance": 12123.317180912945}, {"id": "JG-kUlqIEdlFoC__q0BzhA", "alias": "phalia-new-york", "name": "Phalia", "image_url": "https://s3-media2.fl.yelpcdn.com/bphoto/GexMBNJ-ZtZQXfXWCtwOLg/o.jpg", "is_closed": false, "url": "https://www.yelp.com/biz/phalia-new-york?adjust_creative=9gNmiWYX8uTbFBeTTvJMdA&utm_campaign=yelp_api_v3&utm_medium=api_v3_business_search&utm_source=9gNmiWYX8uTbFBeTTvJMdA", "review_count": 2, "categories": [{"alias": "indpak", "title": "Indian"}, {"alias": "pakistani", "title": "Pakistani"}], "rating": 4.5, "coordinates": {"latitude": 40.74294, "longitude": -73.98241}, "transactions": ["delivery", "pickup"], "location": {"address1": "126 Lexington Ave", "address2": "", "address3": null, "city": "New York", "zip_code": "10016", "country": "US", "state": "NY", "display_address": ["126 Lexington Ave", "New York, NY 10016"]}, "phone": "+16463705380", "display_phone": "(646) 370-5380", "distance": 2105.0546018795485}, {"id": "k1XZsff99d2JyX_jLwCaAA", "alias": "taj-mahal-indian-restaurant-brooklyn-3", "name": "Taj Mahal Indian Restaurant", "image_url": "https://s3-media1.fl.yelpcdn.com/bphoto/qmsrpI-aSXT9lc77NBMQRQ/o.jpg", "is_closed": false, "url": "https://www.yelp.com/biz/taj-mahal-indian-restaurant-brooklyn-3?adjust_creative=9gNmiWYX8uTbFBeTTvJMdA&utm_campaign=yelp_api_v3&utm_medium=api_v3_business_search&utm_source=9gNmiWYX8uTbFBeTTvJMdA", "review_count": 391, "categories": [{"alias": "indpak", "title": "Indian"}, {"alias": "halal", "title": "Halal"}], "rating": 4.0, "coordinates": {"latitude": 40.63239283761084, "longitude": -74.0271556377411}, "transactions": ["delivery", "pickup"], "price": "$$", "location": {"address1": "7315 3rd Ave", "address2": "", "address3": "", "city": "Brooklyn", "zip_code": "11209", "country": "US", "state": "NY", "display_address": ["7315 3rd Ave", "Brooklyn, NY 11209"]}, "phone": "+17188361512", "display_phone": "(718) 836-1512", "distance": 14909.895582544283}, {"id": "QaXo7ZhglTcSWHLQ8QNY4A", "alias": "bk-jani-brooklyn-2", "name": "BK JANI", "image_url": "https://s3-media4.fl.yelpcdn.com/bphoto/bW-UDzJiWBrUvwBv3yB2GA/o.jpg", "is_closed": false, "url": "https://www.yelp.com/biz/bk-jani-brooklyn-2?adjust_creative=9gNmiWYX8uTbFBeTTvJMdA&utm_campaign=yelp_api_v3&utm_medium=api_v3_business_search&utm_source=9gNmiWYX8uTbFBeTTvJMdA", "review_count": 70, "categories": [{"alias": "pakistani", "title": "Pakistani"}], "rating": 4.0, "coordinates": {"latitude": 40.690933, "longitude": -73.983087}, "transactions": ["delivery", "pickup"], "price": "$$", "location": {"address1": "445 Albee Sq", "address2": null, "address3": null, "city": "Brooklyn", "zip_code": "11201", "country": "US", "state": "NY", "display_address": ["445 Albee Sq", "Brooklyn, NY 11201"]}, "phone": "", "display_phone": "", "distance": 7673.090137383131}, {"id": "iKmkvUxijMno9LExbNRrAw", "alias": "forest-hills-indian-cuisine-forest-hills", "name": "Forest Hills Indian Cuisine", "image_url": "https://s3-media2.fl.yelpcdn.com/bphoto/iIDHAQ6D2yK8wwNpRTh0ag/o.jpg", "is_closed": false, "url": "https://www.yelp.com/biz/forest-hills-indian-cuisine-forest-hills?adjust_creative=9gNmiWYX8uTbFBeTTvJMdA&utm_campaign=yelp_api_v3&utm_medium=api_v3_business_search&utm_source=9gNmiWYX8uTbFBeTTvJMdA", "review_count": 62, "categories": [{"alias": "indpak", "title": "Indian"}], "rating": 4.0, "coordinates": {"latitude": 40.7212239, "longitude": -73.8549107}, "transactions": [], "location": {"address1": "7151 Yellowstone Blvd", "address2": "", "address3": null, "city": "Forest Hills", "zip_code": "11375", "country": "US", "state": "NY", "display_address": ["7151 Yellowstone Blvd", "Forest Hills, NY 11375"]}, "phone": "+17186746298", "display_phone": "(718) 674-6298", "distance": 10552.82418591641}, {"id": "LC5qKRk3zy7f1eTONkSd3A", "alias": "dhania-fine-indian-cuisine-brooklyn-2", "name": "Dhania Fine Indian Cuisine", "image_url": "https://s3-media1.fl.yelpcdn.com/bphoto/R_0KqvGKTLQg98ZEUsfQuA/o.jpg", "is_closed": false, "url": "https://www.yelp.com/biz/dhania-fine-indian-cuisine-brooklyn-2?adjust_creative=9gNmiWYX8uTbFBeTTvJMdA&utm_campaign=yelp_api_v3&utm_medium=api_v3_business_search&utm_source=9gNmiWYX8uTbFBeTTvJMdA", "review_count": 36, "categories": [{"alias": "indpak", "title": "Indian"}], "rating": 4.5, "coordinates": {"latitude": 40.674467, "longitude": -73.950531}, "transactions": ["delivery", "pickup"], "price": "$$", "location": {"address1": "787 Prospect Pl", "address2": null, "address3": "", "city": "Brooklyn", "zip_code": "11216", "country": "US", "state": "NY", "display_address": ["787 Prospect Pl", "Brooklyn, NY 11216"]}, "phone": "+13476273095", "display_phone": "(347) 627-3095", "distance": 9554.556362992558}, {"id": "WrMu2G5M2im56uYKTd4Bgw", "alias": "curry-in-a-hurry-new-york", "name": "Curry In A Hurry", "image_url": "https://s3-media4.fl.yelpcdn.com/bphoto/e-lZPmbv46tYMvOUYuS8Ag/o.jpg", "is_closed": false, "url": "https://www.yelp.com/biz/curry-in-a-hurry-new-york?adjust_creative=9gNmiWYX8uTbFBeTTvJMdA&utm_campaign=yelp_api_v3&utm_medium=api_v3_business_search&utm_source=9gNmiWYX8uTbFBeTTvJMdA", "review_count": 516, "categories": [{"alias": "indpak", "title": "Indian"}], "rating": 3.0, "coordinates": {"latitude": 40.74268, "longitude": -73.9822499}, "transactions": ["delivery", "pickup"], "price": "$$", "location": {"address1": "119 Lexington Ave", "address2": "", "address3": "", "city": "New York", "zip_code": "10016", "country": "US", "state": "NY", "display_address": ["119 Lexington Ave", "New York, NY 10016"]}, "phone": "+12126830900", "display_phone": "(212) 683-0900", "distance": 2119.3559773083084}, {"id": "qL5SIZRFDfNO-L_HLeuvPQ", "alias": "curry-in-handi-brooklyn", "name": "Curry In Handi", "image_url": "https://s3-media3.fl.yelpcdn.com/bphoto/q0hdFaEcisQZdjdEJg0aHQ/o.jpg", "is_closed": false, "url": "https://www.yelp.com/biz/curry-in-handi-brooklyn?adjust_creative=9gNmiWYX8uTbFBeTTvJMdA&utm_campaign=yelp_api_v3&utm_medium=api_v3_business_search&utm_source=9gNmiWYX8uTbFBeTTvJMdA", "review_count": 17, "categories": [{"alias": "halal", "title": "Halal"}, {"alias": "indpak", "title": "Indian"}, {"alias": "vegetarian", "title": "Vegetarian"}], "rating": 5.0, "coordinates": {"latitude": 40.7023348786146, "longitude": -73.9369236}, "transactions": ["delivery", "pickup"], "location": {"address1": "443 Bushwick Ave", "address2": null, "address3": "", "city": "Brooklyn", "zip_code": "11206", "country": "US", "state": "NY", "display_address": ["443 Bushwick Ave", "Brooklyn, NY 11206"]}, "phone": "+17183811333", "display_phone": "(718) 381-1333", "distance": 6893.117637040412}, {"id": "321dvWH3DwQE4uaVJX2Kvg", "alias": "sigri-indian-bbq-newark", "name": "Sigri Indian BBQ", "image_url": "https://s3-media3.fl.yelpcdn.com/bphoto/NnpB93OVPGNRyeRbdaqVLA/o.jpg", "is_closed": false, "url": "https://www.yelp.com/biz/sigri-indian-bbq-newark?adjust_creative=9gNmiWYX8uTbFBeTTvJMdA&utm_campaign=yelp_api_v3&utm_medium=api_v3_business_search&utm_source=9gNmiWYX8uTbFBeTTvJMdA", "review_count": 71, "categories": [{"alias": "indpak", "title": "Indian"}, {"alias": "bbq", "title": "Barbeque"}], "rating": 4.0, "coordinates": {"latitude": 40.74240619195804, "longitude": -74.17369730817033}, "transactions": ["delivery", "pickup"], "price": "$", "location": {"address1": "155 University Ave", "address2": null, "address3": "", "city": "Newark", "zip_code": "07102", "country": "US", "state": "NJ", "display_address": ["155 University Ave", "Newark, NJ 07102"]}, "phone": "+19735961114", "display_phone": "(973) 596-1114", "distance": 17295.388951015244}, {"id": "O6UPwu3bb4cvucni_d5ocA", "alias": "bombay-masala-indian-dining-brooklyn-3", "name": "Bombay Masala Indian Dining", "image_url": "https://s3-media1.fl.yelpcdn.com/bphoto/3HfmBsHKnwyfAwMpT0VgJg/o.jpg", "is_closed": false, "url": "https://www.yelp.com/biz/bombay-masala-indian-dining-brooklyn-3?adjust_creative=9gNmiWYX8uTbFBeTTvJMdA&utm_campaign=yelp_api_v3&utm_medium=api_v3_business_search&utm_source=9gNmiWYX8uTbFBeTTvJMdA", "review_count": 22, "categories": [{"alias": "indpak", "title": "Indian"}], "rating": 4.0, "coordinates": {"latitude": 40.633334, "longitude": -74.026852}, "transactions": ["delivery", "pickup"], "location": {"address1": "7205 3rd Ave", "address2": null, "address3": null, "city": "Brooklyn", "zip_code": "11209", "country": "US", "state": "NY", "display_address": ["7205 3rd Ave", "Brooklyn, NY 11209"]}, "phone": "+17183335395", "display_phone": "(718) 333-5395", "distance": 14801.86882470581}, {"id": "bB74yGzEa3N3k4YYU2rcXQ", "alias": "tong-jackson-heights", "name": "Tong", "image_url": "https://s3-media2.fl.yelpcdn.com/bphoto/JSTqdjFyUMcJUZ1UH_z_iQ/o.jpg", "is_closed": false, "url": "https://www.yelp.com/biz/tong-jackson-heights?adjust_creative=9gNmiWYX8uTbFBeTTvJMdA&utm_campaign=yelp_api_v3&utm_medium=api_v3_business_search&utm_source=9gNmiWYX8uTbFBeTTvJMdA", "review_count": 55, "categories": [{"alias": "bangladeshi", "title": "Bangladeshi"}, {"alias": "foodtrucks", "title": "Food Trucks"}], "rating": 5.0, "coordinates": {"latitude": 40.748542632468485, "longitude": -73.89288446952933}, "transactions": [], "location": {"address1": "37-08 73rd St", "address2": "", "address3": null, "city": "Jackson Heights", "zip_code": "11372", "country": "US", "state": "NY", "display_address": ["37-08 73rd St", "Jackson Heights, NY 11372"]}, "phone": "+19292576996", "display_phone": "(929) 257-6996", "distance": 6567.033089121821}, {"id": "TTwPVEHeSeyFMLF6cik8Lw", "alias": "raj-mahal-new-york", "name": "Raj Mahal", "image_url": "https://s3-media1.fl.yelpcdn.com/bphoto/PPBSfJxyjLZ0YM-mzedEow/o.jpg", "is_closed": false, "url": "https://www.yelp.com/biz/raj-mahal-new-york?adjust_creative=9gNmiWYX8uTbFBeTTvJMdA&utm_campaign=yelp_api_v3&utm_medium=api_v3_business_search&utm_source=9gNmiWYX8uTbFBeTTvJMdA", "review_count": 218, "categories": [{"alias": "indpak", "title": "Indian"}, {"alias": "seafood", "title": "Seafood"}], "rating": 3.0, "coordinates": {"latitude": 40.72684, "longitude": -73.98746}, "transactions": ["delivery", "pickup"], "price": "$$", "location": {"address1": "322 E 6th St", "address2": "Ste 1", "address3": "", "city": "New York", "zip_code": "10003", "country": "US", "state": "NY", "display_address": ["322 E 6th St", "Ste 1", "New York, NY 10003"]}, "phone": "+12129823632", "display_phone": "(212) 982-3632", "distance": 3903.1801989374}, {"id": "T5aGLWBjIZoV0pSW80nJXA", "alias": "amiya-jersey-city-4", "name": "Amiya", "image_url": "https://s3-media4.fl.yelpcdn.com/bphoto/oT2j3CSAo5zD6R1qspluvg/o.jpg", "is_closed": false, "url": "https://www.yelp.com/biz/amiya-jersey-city-4?adjust_creative=9gNmiWYX8uTbFBeTTvJMdA&utm_campaign=yelp_api_v3&utm_medium=api_v3_business_search&utm_source=9gNmiWYX8uTbFBeTTvJMdA", "review_count": 456, "categories": [{"alias": "indpak", "title": "Indian"}, {"alias": "buffets", "title": "Buffets"}, {"alias": "bars", "title": "Bars"}], "rating": 3.5, "coordinates": {"latitude": 40.71638242842502, "longitude": -74.03521448255054}, "transactions": ["delivery", "pickup"], "price": "$$", "location": {"address1": "101 Hudson St", "address2": "", "address3": "", "city": "Jersey City", "zip_code": "07302", "country": "US", "state": "NJ", "display_address": ["101 Hudson St", "Jersey City, NJ 07302"]}, "phone": "+12014338000", "display_phone": "(201) 433-8000", "distance": 7295.647799158491}, {"id": "1ckkPS7KtGSu_xXXWKcbvQ", "alias": "tandoori-masala-brooklyn", "name": "Tandoori Masala", "image_url": "https://s3-media4.fl.yelpcdn.com/bphoto/YF77DrvGGpw25Oig4FN5zg/o.jpg", "is_closed": false, "url": "https://www.yelp.com/biz/tandoori-masala-brooklyn?adjust_creative=9gNmiWYX8uTbFBeTTvJMdA&utm_campaign=yelp_api_v3&utm_medium=api_v3_business_search&utm_source=9gNmiWYX8uTbFBeTTvJMdA", "review_count": 192, "categories": [{"alias": "indpak", "title": "Indian"}], "rating": 4.0, "coordinates": {"latitude": 40.6840199, "longitude": -73.91184}, "transactions": ["delivery", "pickup"], "price": "$$", "location": {"address1": "1695 Broadway", "address2": "", "address3": "", "city": "Brooklyn", "zip_code": "11207", "country": "US", "state": "NY", "display_address": ["1695 Broadway", "Brooklyn, NY 11207"]}, "phone": "+13473782397", "display_phone": "(347) 378-2397", "distance": 9682.401997432213}, {"id": "4QnmpXjTj18g8LdOEczliQ", "alias": "shahi-darbar-jackson-heights", "name": "Shahi Darbar", "image_url": "https://s3-media3.fl.yelpcdn.com/bphoto/C17-XBD1dYV2CJwUjYo7ww/o.jpg", "is_closed": false, "url": "https://www.yelp.com/biz/shahi-darbar-jackson-heights?adjust_creative=9gNmiWYX8uTbFBeTTvJMdA&utm_campaign=yelp_api_v3&utm_medium=api_v3_business_search&utm_source=9gNmiWYX8uTbFBeTTvJMdA", "review_count": 34, "categories": [{"alias": "halal", "title": "Halal"}, {"alias": "indpak", "title": "Indian"}, {"alias": "mediterranean", "title": "Mediterranean"}], "rating": 4.0, "coordinates": {"latitude": 40.747374, "longitude": -73.892809}, "transactions": ["delivery", "pickup"], "location": {"address1": "72-24 Broadway", "address2": null, "address3": "", "city": "Jackson Heights", "zip_code": "11372", "country": "US", "state": "NY", "display_address": ["72-24 Broadway", "Jackson Heights, NY 11372"]}, "phone": "+19295220011", "display_phone": "(929) 522-0011", "distance": 6597.951633370477}, {"id": "I04QBDZ28aCeGf_XepTo7Q", "alias": "palace-of-india-restaurant-and-bar-brooklyn", "name": "Palace of India Restaurant and Bar", "image_url": "https://s3-media1.fl.yelpcdn.com/bphoto/HhHZozZdtytWIOe1VjcQiw/o.jpg", "is_closed": false, "url": "https://www.yelp.com/biz/palace-of-india-restaurant-and-bar-brooklyn?adjust_creative=9gNmiWYX8uTbFBeTTvJMdA&utm_campaign=yelp_api_v3&utm_medium=api_v3_business_search&utm_source=9gNmiWYX8uTbFBeTTvJMdA", "review_count": 27, "categories": [{"alias": "indpak", "title": "Indian"}, {"alias": "bars", "title": "Bars"}], "rating": 4.0, "coordinates": {"latitude": 40.697094338674596, "longitude": -73.90637295250781}, "transactions": ["delivery", "pickup"], "price": "$$", "location": {"address1": "913 Wyckoff Ave", "address2": null, "address3": null, "city": "Brooklyn", "zip_code": "11385", "country": "US", "state": "NY", "display_address": ["913 Wyckoff Ave", "Brooklyn, NY 11385"]}, "phone": "+17184567700", "display_phone": "(718) 456-7700", "distance": 8718.598691842397}, {"id": "OxQ1lGq3uzl8_fgW67rXdQ", "alias": "tikka-indian-grill-kew-gardens-3", "name": "Tikka Indian Grill", "image_url": "https://s3-media4.fl.yelpcdn.com/bphoto/aIMRe0EtcXS4Emft_aCvxQ/o.jpg", "is_closed": false, "url": "https://www.yelp.com/biz/tikka-indian-grill-kew-gardens-3?adjust_creative=9gNmiWYX8uTbFBeTTvJMdA&utm_campaign=yelp_api_v3&utm_medium=api_v3_business_search&utm_source=9gNmiWYX8uTbFBeTTvJMdA", "review_count": 282, "categories": [{"alias": "indpak", "title": "Indian"}, {"alias": "vegetarian", "title": "Vegetarian"}], "rating": 4.0, "coordinates": {"latitude": 40.7058236, "longitude": -73.8311437}, "transactions": ["delivery", "pickup"], "price": "$$", "location": {"address1": "119-30 Metropolitan Ave", "address2": "", "address3": null, "city": "Kew Gardens", "zip_code": "11415", "country": "US", "state": "NY", "display_address": ["119-30 Metropolitan Ave", "Kew Gardens, NY 11415"]}, "phone": "+17184801307", "display_phone": "(718) 480-1307", "distance": 13107.30544984788}, {"id": "61AiMsA1KrjSYpTJl0ZyGg", "alias": "virasat-cafe-queens", "name": "Virasat Cafe", "image_url": "https://s3-media1.fl.yelpcdn.com/bphoto/PrqLIiLRYhROGqgoatPTRg/o.jpg", "is_closed": false, "url": "https://www.yelp.com/biz/virasat-cafe-queens?adjust_creative=9gNmiWYX8uTbFBeTTvJMdA&utm_campaign=yelp_api_v3&utm_medium=api_v3_business_search&utm_source=9gNmiWYX8uTbFBeTTvJMdA", "review_count": 2, "categories": [{"alias": "indpak", "title": "Indian"}, {"alias": "bakeries", "title": "Bakeries"}], "rating": 4.0, "coordinates": {"latitude": 40.7531109, "longitude": -73.9290452}, "transactions": [], "location": {"address1": "37-39 34th St", "address2": "", "address3": null, "city": "Queens", "zip_code": "11106", "country": "US", "state": "NY", "display_address": ["37-39 34th St", "Queens, NY 11106"]}, "phone": "", "display_phone": "", "distance": 3468.002663604463}, {"id": "Scs2L-4imyt_lorJ6biFKA", "alias": "while-in-kathmandu-ridgewood", "name": "While In Kathmandu", "image_url": "https://s3-media2.fl.yelpcdn.com/bphoto/zNs-fPjarnITrqDeRFsxoA/o.jpg", "is_closed": false, "url": "https://www.yelp.com/biz/while-in-kathmandu-ridgewood?adjust_creative=9gNmiWYX8uTbFBeTTvJMdA&utm_campaign=yelp_api_v3&utm_medium=api_v3_business_search&utm_source=9gNmiWYX8uTbFBeTTvJMdA", "review_count": 227, "categories": [{"alias": "cafes", "title": "Cafes"}, {"alias": "bars", "title": "Bars"}, {"alias": "himalayan", "title": "Himalayan/Nepalese"}], "rating": 4.5, "coordinates": {"latitude": 40.7020642, "longitude": -73.9067213}, "transactions": ["delivery", "pickup"], "price": "$$", "location": {"address1": "758 Seneca Ave", "address2": null, "address3": "", "city": "Ridgewood", "zip_code": "11385", "country": "US", "state": "NY", "display_address": ["758 Seneca Ave", "Ridgewood, NY 11385"]}, "phone": "+17183863416", "display_phone": "(718) 386-3416", "distance": 8262.659427837607}, {"id": "oSMFe-10TyH40NIXG0Zahw", "alias": "vaibhav-indian-spice-journey-jersey-city-6", "name": "Vaibhav Indian Spice Journey", "image_url": "https://s3-media1.fl.yelpcdn.com/bphoto/8q95AttIUVx3A-rm-71jiA/o.jpg", "is_closed": false, "url": "https://www.yelp.com/biz/vaibhav-indian-spice-journey-jersey-city-6?adjust_creative=9gNmiWYX8uTbFBeTTvJMdA&utm_campaign=yelp_api_v3&utm_medium=api_v3_business_search&utm_source=9gNmiWYX8uTbFBeTTvJMdA", "review_count": 429, "categories": [{"alias": "indpak", "title": "Indian"}, {"alias": "chinese", "title": "Chinese"}, {"alias": "halal", "title": "Halal"}], "rating": 3.5, "coordinates": {"latitude": 40.73503, "longitude": -74.0624069}, "transactions": ["delivery", "pickup"], "price": "$$", "location": {"address1": "737 Newark Ave", "address2": "", "address3": "", "city": "Jersey City", "zip_code": "07306", "country": "US", "state": "NJ", "display_address": ["737 Newark Ave", "Jersey City, NJ 07306"]}, "phone": "+12015339500", "display_phone": "(201) 533-9500", "distance": 8268.348988276019}, {"id": "NqnCmOlPIJ_QBQzvZ28djA", "alias": "sapthagiri-taste-of-india-jersey-city-2", "name": "Sapthagiri Taste Of India", "image_url": "https://s3-media3.fl.yelpcdn.com/bphoto/JPbwLIfLE94TPgxSrP3ezg/o.jpg", "is_closed": false, "url": "https://www.yelp.com/biz/sapthagiri-taste-of-india-jersey-city-2?adjust_creative=9gNmiWYX8uTbFBeTTvJMdA&utm_campaign=yelp_api_v3&utm_medium=api_v3_business_search&utm_source=9gNmiWYX8uTbFBeTTvJMdA", "review_count": 472, "categories": [{"alias": "indpak", "title": "Indian"}, {"alias": "vegetarian", "title": "Vegetarian"}], "rating": 3.5, "coordinates": {"latitude": 40.73512018198014, "longitude": -74.06250224217419}, "transactions": ["delivery", "pickup"], "price": "$$", "location": {"address1": "737 Newark Ave", "address2": null, "address3": "", "city": "Jersey City", "zip_code": "07306", "country": "US", "state": "NJ", "display_address": ["737 Newark Ave", "Jersey City, NJ 07306"]}, "phone": "+12015338400", "display_phone": "(201) 533-8400", "distance": 8272.693270510796}, {"id": "-_LtKO0FdpINUMAWMfDOOQ", "alias": "al-naimat-restaurant-and-sweets-jackson-heights", "name": "Al Naimat Restaurant & Sweets", "image_url": "https://s3-media2.fl.yelpcdn.com/bphoto/C9YJIZsZWSMGvzhYwy7R6Q/o.jpg", "is_closed": false, "url": "https://www.yelp.com/biz/al-naimat-restaurant-and-sweets-jackson-heights?adjust_creative=9gNmiWYX8uTbFBeTTvJMdA&utm_campaign=yelp_api_v3&utm_medium=api_v3_business_search&utm_source=9gNmiWYX8uTbFBeTTvJMdA", "review_count": 148, "categories": [{"alias": "pakistani", "title": "Pakistani"}, {"alias": "desserts", "title": "Desserts"}, {"alias": "coffee", "title": "Coffee & Tea"}], "rating": 4.0, "coordinates": {"latitude": 40.74882, "longitude": -73.891538}, "transactions": ["delivery", "pickup"], "price": "$", "location": {"address1": "3703 74th St", "address2": "", "address3": "", "city": "Jackson Heights", "zip_code": "11372", "country": "US", "state": "NY", "display_address": ["3703 74th St", "Jackson Heights, NY 11372"]}, "phone": "+17184761100", "display_phone": "(718) 476-1100", "distance": 6662.775164647789}, {"id": "80u4xIY1kp_25AUh9BW0Bw", "alias": "kanan-indian-restaurant-brooklyn", "name": "Kanan Indian Restaurant", "image_url": "https://s3-media3.fl.yelpcdn.com/bphoto/o7YWuSL0kAEoJ92KFTGwsQ/o.jpg", "is_closed": false, "url": "https://www.yelp.com/biz/kanan-indian-restaurant-brooklyn?adjust_creative=9gNmiWYX8uTbFBeTTvJMdA&utm_campaign=yelp_api_v3&utm_medium=api_v3_business_search&utm_source=9gNmiWYX8uTbFBeTTvJMdA", "review_count": 150, "categories": [{"alias": "indpak", "title": "Indian"}, {"alias": "vegan", "title": "Vegan"}], "rating": 4.0, "coordinates": {"latitude": 40.6716593194782, "longitude": -73.9908374121948}, "transactions": ["delivery", "pickup"], "price": "$$", "location": {"address1": "452 3rd Ave", "address2": "", "address3": null, "city": "Brooklyn", "zip_code": "11215", "country": "US", "state": "NY", "display_address": ["452 3rd Ave", "Brooklyn, NY 11215"]}, "phone": "+17187683777", "display_phone": "(718) 768-3777", "distance": 9894.897070536943}, {"id": "_kaQarBVxm8rHnyeFlCwTQ", "alias": "cafe-22-new-york-2", "name": "Cafe 22", "image_url": "https://s3-media3.fl.yelpcdn.com/bphoto/4ktYUHuMjvlMyppwEYRyFg/o.jpg", "is_closed": false, "url": "https://www.yelp.com/biz/cafe-22-new-york-2?adjust_creative=9gNmiWYX8uTbFBeTTvJMdA&utm_campaign=yelp_api_v3&utm_medium=api_v3_business_search&utm_source=9gNmiWYX8uTbFBeTTvJMdA", "review_count": 15, "categories": [{"alias": "cafes", "title": "Cafes"}, {"alias": "buffets", "title": "Buffets"}], "rating": 4.0, "coordinates": {"latitude": 40.75599, "longitude": -73.98724}, "transactions": [], "price": "$", "location": {"address1": "5 Times Sq", "address2": "Fl 22", "address3": "", "city": "New York", "zip_code": "10036", "country": "US", "state": "NY", "display_address": ["5 Times Sq", "Fl 22", "New York, NY 10036"]}, "phone": "", "display_phone": "", "distance": 1553.2546928133106}, {"id": "Ep_4L21-xzvkh75YIkaYgQ", "alias": "badshah-to-go-new-york-2", "name": "Badshah To-Go", "image_url": "https://s3-media1.fl.yelpcdn.com/bphoto/R91L0QHKI0DYyo_GXYNxNw/o.jpg", "is_closed": false, "url": "https://www.yelp.com/biz/badshah-to-go-new-york-2?adjust_creative=9gNmiWYX8uTbFBeTTvJMdA&utm_campaign=yelp_api_v3&utm_medium=api_v3_business_search&utm_source=9gNmiWYX8uTbFBeTTvJMdA", "review_count": 19, "categories": [{"alias": "indpak", "title": "Indian"}], "rating": 4.0, "coordinates": {"latitude": 40.70983, "longitude": -74.0079322}, "transactions": ["delivery", "pickup"], "location": {"address1": "80 Nassau St", "address2": "", "address3": null, "city": "New York", "zip_code": "10038", "country": "US", "state": "NY", "display_address": ["80 Nassau St", "New York, NY 10038"]}, "phone": "+19174093702", "display_phone": "(917) 409-3702", "distance": 6367.987772629032}, {"id": "VMSO12sjs6W415PSogC7PA", "alias": "paratha-junction-jersey-city-2", "name": "Paratha Junction", "image_url": "https://s3-media2.fl.yelpcdn.com/bphoto/JhCrs48cY2GQWW_xMpznog/o.jpg", "is_closed": false, "url": "https://www.yelp.com/biz/paratha-junction-jersey-city-2?adjust_creative=9gNmiWYX8uTbFBeTTvJMdA&utm_campaign=yelp_api_v3&utm_medium=api_v3_business_search&utm_source=9gNmiWYX8uTbFBeTTvJMdA", "review_count": 180, "categories": [{"alias": "indpak", "title": "Indian"}], "rating": 3.0, "coordinates": {"latitude": 40.7352836673254, "longitude": -74.0638660967438}, "transactions": ["delivery", "pickup"], "price": "$$", "location": {"address1": "779 Newark Ave", "address2": null, "address3": "", "city": "Jersey City", "zip_code": "07306", "country": "US", "state": "NJ", "display_address": ["779 Newark Ave", "Jersey City, NJ 07306"]}, "phone": "+12015331555", "display_phone": "(201) 533-1555", "distance": 8375.704149815723}, {"id": "nqGp208f_wdqoLfNQgn_Ig", "alias": "haat-bazaar-jackson-heights", "name": "Haat Bazaar", "image_url": "https://s3-media2.fl.yelpcdn.com/bphoto/Edu0kaPnQdL-b6EtTop90A/o.jpg", "is_closed": false, "url": "https://www.yelp.com/biz/haat-bazaar-jackson-heights?adjust_creative=9gNmiWYX8uTbFBeTTvJMdA&utm_campaign=yelp_api_v3&utm_medium=api_v3_business_search&utm_source=9gNmiWYX8uTbFBeTTvJMdA", "review_count": 130, "categories": [{"alias": "bangladeshi", "title": "Bangladeshi"}, {"alias": "indpak", "title": "Indian"}, {"alias": "halal", "title": "Halal"}], "rating": 4.0, "coordinates": {"latitude": 40.748491, "longitude": -73.892382}, "transactions": [], "price": "$$", "location": {"address1": "3711 73rd St", "address2": "Ste 73", "address3": "", "city": "Jackson Heights", "zip_code": "11372", "country": "US", "state": "NY", "display_address": ["3711 73rd St", "Ste 73", "Jackson Heights, NY 11372"]}, "phone": "+19176530946", "display_phone": "(917) 653-0946", "distance": 6608.5909096501655}, {"id": "eht_0com4C1sQbl9qCzlag", "alias": "hungry-bird-bronx-2", "name": "Hungry Bird", "image_url": "https://s3-media3.fl.yelpcdn.com/bphoto/o0oSYlDrz3K-wvJuX7lKXg/o.jpg", "is_closed": false, "url": "https://www.yelp.com/biz/hungry-bird-bronx-2?adjust_creative=9gNmiWYX8uTbFBeTTvJMdA&utm_campaign=yelp_api_v3&utm_medium=api_v3_business_search&utm_source=9gNmiWYX8uTbFBeTTvJMdA", "review_count": 233, "categories": [{"alias": "indpak", "title": "Indian"}], "rating": 4.0, "coordinates": {"latitude": 40.82844363093081, "longitude": -73.91674001499564}, "transactions": ["delivery", "pickup"], "price": "$$", "location": {"address1": "980 Morris Ave", "address2": "", "address3": "", "city": "Bronx", "zip_code": "10456", "country": "US", "state": "NY", "display_address": ["980 Morris Ave", "Bronx, NY 10456"]}, "phone": "+19178014900", "display_phone": "(917) 801-4900", "distance": 8894.253539286843}, {"id": "x-T3WaLPnbVrxc-ruzFhyQ", "alias": "mughlai-indian-cuisine-new-york-9", "name": "Mughlai Indian Cuisine", "image_url": "https://s3-media4.fl.yelpcdn.com/bphoto/yrqaq7dGHVI3X1xK_k_EhA/o.jpg", "is_closed": false, "url": "https://www.yelp.com/biz/mughlai-indian-cuisine-new-york-9?adjust_creative=9gNmiWYX8uTbFBeTTvJMdA&utm_campaign=yelp_api_v3&utm_medium=api_v3_business_search&utm_source=9gNmiWYX8uTbFBeTTvJMdA", "review_count": 6, "categories": [{"alias": "indpak", "title": "Indian"}], "rating": 4.5, "coordinates": {"latitude": 40.70953534633694, "longitude": -74.01278923745791}, "transactions": ["delivery", "pickup"], "location": {"address1": "120 Cedar St", "address2": "", "address3": null, "city": "New York", "zip_code": "10006", "country": "US", "state": "NY", "display_address": ["120 Cedar St", "New York, NY 10006"]}, "phone": "+16463988985", "display_phone": "(646) 398-8985", "distance": 6612.4652354003465}, {"id": "l4fwf8VwAokv3MWT45Ab7g", "alias": "bunna-cafe-brooklyn", "name": "Bunna Cafe", "image_url": "https://s3-media2.fl.yelpcdn.com/bphoto/XS4_NNg-8DStX2TiRKMfIw/o.jpg", "is_closed": false, "url": "https://www.yelp.com/biz/bunna-cafe-brooklyn?adjust_creative=9gNmiWYX8uTbFBeTTvJMdA&utm_campaign=yelp_api_v3&utm_medium=api_v3_business_search&utm_source=9gNmiWYX8uTbFBeTTvJMdA", "review_count": 782, "categories": [{"alias": "ethiopian", "title": "Ethiopian"}, {"alias": "vegan", "title": "Vegan"}, {"alias": "african", "title": "African"}], "rating": 4.5, "coordinates": {"latitude": 40.705042, "longitude": -73.928078}, "transactions": ["delivery", "pickup"], "price": "$$", "location": {"address1": "1084 Flushing Ave", "address2": "", "address3": "", "city": "Brooklyn", "zip_code": "11237", "country": "US", "state": "NY", "display_address": ["1084 Flushing Ave", "Brooklyn, NY 11237"]}, "phone": "+13472952227", "display_phone": "(347) 295-2227", "distance": 6961.094022370302}, {"id": "BSZ68sheaUGhOIZvaFa-WA", "alias": "de-tandoori-knight-brooklyn", "name": "de tandoori knight", "image_url": "https://s3-media4.fl.yelpcdn.com/bphoto/VAIMQ3NJr6Js_kUxqVl-dw/o.jpg", "is_closed": false, "url": "https://www.yelp.com/biz/de-tandoori-knight-brooklyn?adjust_creative=9gNmiWYX8uTbFBeTTvJMdA&utm_campaign=yelp_api_v3&utm_medium=api_v3_business_search&utm_source=9gNmiWYX8uTbFBeTTvJMdA", "review_count": 18, "categories": [{"alias": "halal", "title": "Halal"}, {"alias": "indpak", "title": "Indian"}, {"alias": "pakistani", "title": "Pakistani"}], "rating": 4.5, "coordinates": {"latitude": 40.707853645213426, "longitude": -73.9556597}, "transactions": ["delivery", "pickup"], "location": {"address1": "353 Broadway", "address2": "Flr 1", "address3": "", "city": "Brooklyn", "zip_code": "11211", "country": "US", "state": "NY", "display_address": ["353 Broadway", "Flr 1", "Brooklyn, NY 11211"]}, "phone": "+13477630203", "display_phone": "(347) 763-0203", "distance": 5825.820753433883}, {"id": "7CM15wd5d8WC_pHR674YXA", "alias": "hummus-kitchen-new-york-6", "name": "Hummus Kitchen", "image_url": "https://s3-media4.fl.yelpcdn.com/bphoto/lPvg0V5Knh9My316DkRmhg/o.jpg", "is_closed": false, "url": "https://www.yelp.com/biz/hummus-kitchen-new-york-6?adjust_creative=9gNmiWYX8uTbFBeTTvJMdA&utm_campaign=yelp_api_v3&utm_medium=api_v3_business_search&utm_source=9gNmiWYX8uTbFBeTTvJMdA", "review_count": 1096, "categories": [{"alias": "mediterranean", "title": "Mediterranean"}, {"alias": "vegetarian", "title": "Vegetarian"}, {"alias": "kosher", "title": "Kosher"}], "rating": 4.0, "coordinates": {"latitude": 40.7763650431587, "longitude": -73.9529693360589}, "transactions": ["delivery", "pickup"], "price": "$$", "location": {"address1": "1613 2nd Ave", "address2": "", "address3": "", "city": "New York", "zip_code": "10028", "country": "US", "state": "NY", "display_address": ["1613 2nd Ave", "New York, NY 10028"]}, "phone": "+12129880090", "display_phone": "(212) 988-0090", "distance": 2368.3623289836214}, {"id": "HY7Hx-z5lq1vAacDwYBfoA", "alias": "diwan-grill-indian-cuisine-brooklyn-2", "name": "Diwan Grill Indian Cuisine", "image_url": "https://s3-media3.fl.yelpcdn.com/bphoto/xD1t0gmOsiBWWpGgd3A0-Q/o.jpg", "is_closed": false, "url": "https://www.yelp.com/biz/diwan-grill-indian-cuisine-brooklyn-2?adjust_creative=9gNmiWYX8uTbFBeTTvJMdA&utm_campaign=yelp_api_v3&utm_medium=api_v3_business_search&utm_source=9gNmiWYX8uTbFBeTTvJMdA", "review_count": 123, "categories": [{"alias": "indpak", "title": "Indian"}, {"alias": "desserts", "title": "Desserts"}], "rating": 4.5, "coordinates": {"latitude": 40.675363, "longitude": -73.956548}, "transactions": ["delivery", "pickup"], "price": "$$", "location": {"address1": "678 Franklin Ave", "address2": "", "address3": null, "city": "Brooklyn", "zip_code": "11238", "country": "US", "state": "NY", "display_address": ["678 Franklin Ave", "Brooklyn, NY 11238"]}, "phone": "+17182307852", "display_phone": "(718) 230-7852", "distance": 9383.847566486173}], "total": 902, "region": {"center": {"longitude": -73.96957397460938, "latitude": 40.75917470627005}}}