{"businesses": [{"id": "WxvqAc0wQtmjHwZl-QwEZw", "alias": "biriyani-darbar-jersey-city", "name": "biriyani darbar", "image_url": "", "is_closed": false, "url": "https://www.yelp.com/biz/biriyani-darbar-jersey-city?adjust_creative=9gNmiWYX8uTbFBeTTvJMdA&utm_campaign=yelp_api_v3&utm_medium=api_v3_business_search&utm_source=9gNmiWYX8uTbFBeTTvJMdA", "review_count": 2, "categories": [{"alias": "indpak", "title": "Indian"}, {"alias": "soup", "title": "Soup"}, {"alias": "seafood", "title": "Seafood"}], "rating": 4.5, "coordinates": {"latitude": 40.735312, "longitude": -74.06371}, "transactions": [], "location": {"address1": "769 Newark Ave", "address2": "", "address3": null, "city": "Jersey City", "zip_code": "07306", "country": "US", "state": "NJ", "display_address": ["769 Newark Ave", "Jersey City, NJ 07306"]}, "phone": "+12014990158", "display_phone": "(201) 499-0158", "distance": 8362.232634904847}, {"id": "BKABojUN3G9vUrG3AlDZgQ", "alias": "wild-ginger-brooklyn-6", "name": "Wild Ginger", "image_url": "https://s3-media1.fl.yelpcdn.com/bphoto/wBBG-DSDF_SXYNSzM0qblw/o.jpg", "is_closed": false, "url": "https://www.yelp.com/biz/wild-ginger-brooklyn-6?adjust_creative=9gNmiWYX8uTbFBeTTvJMdA&utm_campaign=yelp_api_v3&utm_medium=api_v3_business_search&utm_source=9gNmiWYX8uTbFBeTTvJMdA", "review_count": 171, "categories": [{"alias": "asianfusion", "title": "Asian Fusion"}, {"alias": "vegan", "title": "Vegan"}], "rating": 4.0, "coordinates": {"latitude": 40.718859, "longitude": -73.955371}, "transactions": ["delivery", "pickup"], "price": "$$", "location": {"address1": "182 N 10th St", "address2": "", "address3": "", "city": "Brooklyn", "zip_code": "11211", "country": "US", "state": "NY", "display_address": ["182 N 10th St", "Brooklyn, NY 11211"]}, "phone": "+17182188828", "display_phone": "(718) 218-8828", "distance": 4635.782330556937}, {"id": "aerH0RTL3juqiLZbhwYVrw", "alias": "ginger-tree-no-title", "name": "Ginger Tree", "image_url": "https://s3-media4.fl.yelpcdn.com/bphoto/B3wqPPy2wSiHYW37gs7Y-Q/o.jpg", "is_closed": false, "url": "https://www.yelp.com/biz/ginger-tree-no-title?adjust_creative=9gNmiWYX8uTbFBeTTvJMdA&utm_campaign=yelp_api_v3&utm_medium=api_v3_business_search&utm_source=9gNmiWYX8uTbFBeTTvJMdA", "review_count": 1, "categories": [{"alias": "indpak", "title": "Indian"}, {"alias": "buffets", "title": "Buffets"}, {"alias": "karaoke", "title": "Karaoke"}], "rating": 3.0, "coordinates": {"latitude": 52.524503, "longitude": -1.464943}, "transactions": [], "location": {"address1": "7 Bond Street", "address2": "Nuneaton", "address3": "", "city": "Aberdeen", "zip_code": "CV11 4DA", "country": "GB", "state": "ABE", "display_address": ["7 Bond Street", "Nuneaton", "Aberdeen CV11 4DA", "United Kingdom"]}, "phone": "+442476388308", "display_phone": "+44 24 7638 8308", "distance": 4191.644826923919}, {"id": "p-DR97oh1JEjdknKaPK0Pw", "alias": "fafda-jalebi-house-passaic-3", "name": "Fafda Jalebi House", "image_url": "https://s3-media3.fl.yelpcdn.com/bphoto/W_kOFTgWbiVY9i8WKnDDLA/o.jpg", "is_closed": false, "url": "https://www.yelp.com/biz/fafda-jalebi-house-passaic-3?adjust_creative=9gNmiWYX8uTbFBeTTvJMdA&utm_campaign=yelp_api_v3&utm_medium=api_v3_business_search&utm_source=9gNmiWYX8uTbFBeTTvJMdA", "review_count": 3, "categories": [{"alias": "indpak", "title": "Indian"}, {"alias": "sandwiches", "title": "Sandwiches"}], "rating": 3.5, "coordinates": {"latitude": 40.8601, "longitude": -74.12825}, "transactions": ["delivery", "pickup"], "location": {"address1": "8 Garden St", "address2": "", "address3": null, "city": "Passaic", "zip_code": "07055", "country": "US", "state": "NJ", "display_address": ["8 Garden St", "Passaic, NJ 07055"]}, "phone": "+12012144312", "display_phone": "(201) 214-4312", "distance": 17458.157529483364}, {"id": "0LX7zIAweqw6qW_MDJWI9g", "alias": "flame-indian-grill-bayonne", "name": "flame indian grill", "image_url": "https://s3-media2.fl.yelpcdn.com/bphoto/dt6Pb9yAFe8AZ5QR438gYA/o.jpg", "is_closed": false, "url": "https://www.yelp.com/biz/flame-indian-grill-bayonne?adjust_creative=9gNmiWYX8uTbFBeTTvJMdA&utm_campaign=yelp_api_v3&utm_medium=api_v3_business_search&utm_source=9gNmiWYX8uTbFBeTTvJMdA", "review_count": 34, "categories": [{"alias": "indpak", "title": "Indian"}, {"alias": "halal", "title": "Halal"}, {"alias": "fooddeliveryservices", "title": "Food Delivery Services"}], "rating": 4.5, "coordinates": {"latitude": 40.66281, "longitude": -74.11902}, "transactions": ["delivery", "pickup"], "location": {"address1": "464 Broadway", "address2": null, "address3": "", "city": "Bayonne", "zip_code": "07002", "country": "US", "state": "NJ", "display_address": ["464 Broadway", "Bayonne, NJ 07002"]}, "phone": "+12014432930", "display_phone": "(201) 443-2930", "distance": 16543.30541445021}, {"id": "hswirO2tzhjdopGrjEE3xg", "alias": "halal-cart-new-york-5", "name": "Halal Cart", "image_url": "https://s3-media4.fl.yelpcdn.com/bphoto/5emgUf5qf3KBStN_besH_A/o.jpg", "is_closed": false, "url": "https://www.yelp.com/biz/halal-cart-new-york-5?adjust_creative=9gNmiWYX8uTbFBeTTvJMdA&utm_campaign=yelp_api_v3&utm_medium=api_v3_business_search&utm_source=9gNmiWYX8uTbFBeTTvJMdA", "review_count": 15, "categories": [{"alias": "indpak", "title": "Indian"}, {"alias": "foodstands", "title": "Food Stands"}, {"alias": "pakistani", "title": "Pakistani"}], "rating": 4.5, "coordinates": {"latitude": 40.7519506788492, "longitude": -73.980059211846}, "transactions": [], "price": "$", "location": {"address1": "41st & Madison", "address2": "", "address3": "", "city": "New York", "zip_code": "10017", "country": "US", "state": "NY", "display_address": ["41st & Madison", "New York, NY 10017"]}, "phone": "", "display_phone": "", "distance": 1193.8366930470438}, {"id": "VakC43fJQAT5c6f3rqPlOw", "alias": "indian-fast-food-cart-new-york", "name": "Indian Fast Food Cart", "image_url": "https://s3-media1.fl.yelpcdn.com/bphoto/fyW9C-ov_JVVA6_8uCSclg/o.jpg", "is_closed": false, "url": "https://www.yelp.com/biz/indian-fast-food-cart-new-york?adjust_creative=9gNmiWYX8uTbFBeTTvJMdA&utm_campaign=yelp_api_v3&utm_medium=api_v3_business_search&utm_source=9gNmiWYX8uTbFBeTTvJMdA", "review_count": 28, "categories": [{"alias": "indpak", "title": "Indian"}, {"alias": "foodstands", "title": "Food Stands"}], "rating": 3.5, "coordinates": {"latitude": 40.7590263066947, "longitude": -73.9725049020592}, "transactions": [], "price": "$", "location": {"address1": "Park Ave & 53rd St", "address2": "", "address3": "", "city": "New York", "zip_code": "10022", "country": "US", "state": "NY", "display_address": ["Park Ave & 53rd St", "New York, NY 10022"]}, "phone": "", "display_phone": "", "distance": 247.1175251884029}, {"id": "NviTYTPyYDipj3AoLTPsvA", "alias": "hyderabad-house-jc-jersey-city", "name": "Hyderabad house JC", "image_url": "https://s3-media2.fl.yelpcdn.com/bphoto/56OFmfweh-x9BlIHUHbQdQ/o.jpg", "is_closed": false, "url": "https://www.yelp.com/biz/hyderabad-house-jc-jersey-city?adjust_creative=9gNmiWYX8uTbFBeTTvJMdA&utm_campaign=yelp_api_v3&utm_medium=api_v3_business_search&utm_source=9gNmiWYX8uTbFBeTTvJMdA", "review_count": 6, "categories": [{"alias": "indpak", "title": "Indian"}], "rating": 4.0, "coordinates": {"latitude": 40.73069, "longitude": -74.0561}, "transactions": ["delivery", "pickup"], "location": {"address1": "523 Newark Ave", "address2": null, "address3": "", "city": "Jersey City", "zip_code": "07306", "country": "US", "state": "NJ", "display_address": ["523 Newark Ave", "Jersey City, NJ 07306"]}, "phone": "+12018762943", "display_phone": "(201) 876-2943", "distance": 7944.044997164655}, {"id": "MeyBDyi-wxPm9ytY9Npalw", "alias": "desi-dhaba-jersey-city", "name": "Desi Dhaba", "image_url": "https://s3-media2.fl.yelpcdn.com/bphoto/jj08p7Egde58B52x3pmuXA/o.jpg", "is_closed": false, "url": "https://www.yelp.com/biz/desi-dhaba-jersey-city?adjust_creative=9gNmiWYX8uTbFBeTTvJMdA&utm_campaign=yelp_api_v3&utm_medium=api_v3_business_search&utm_source=9gNmiWYX8uTbFBeTTvJMdA", "review_count": 2, "categories": [{"alias": "indpak", "title": "Indian"}, {"alias": "foodstands", "title": "Food Stands"}], "rating": 2.5, "coordinates": {"latitude": 40.717364419652, "longitude": -74.0352404016294}, "transactions": [], "location": {"address1": "4A Columbus Dr", "address2": "", "address3": "", "city": "Jersey City", "zip_code": "07302", "country": "US", "state": "NJ", "display_address": ["4A Columbus Dr", "Jersey City, NJ 07302"]}, "phone": "+12012349935", "display_phone": "(201) 234-9935", "distance": 7226.546333110099}, {"id": "VHcq1oC_IMGD6WQ9Nb3tdw", "alias": "sonia-cafe-brooklyn-2", "name": "Sonia Cafe", "image_url": "https://s3-media1.fl.yelpcdn.com/bphoto/Kl5m8qFbf5mrNIyK32_Lmw/o.jpg", "is_closed": false, "url": "https://www.yelp.com/biz/sonia-cafe-brooklyn-2?adjust_creative=9gNmiWYX8uTbFBeTTvJMdA&utm_campaign=yelp_api_v3&utm_medium=api_v3_business_search&utm_source=9gNmiWYX8uTbFBeTTvJMdA", "review_count": 1, "categories": [{"alias": "indpak", "title": "Indian"}, {"alias": "cafes", "title": "Cafes"}, {"alias": "bagels", "title": "Bagels"}], "rating": 4.0, "coordinates": {"latitude": 40.64464, "longitude": -73.97549}, "transactions": [], "location": {"address1": "505 Church Ave", "address2": "", "address3": null, "city": "Brooklyn", "zip_code": "11218", "country": "US", "state": "NY", "display_address": ["505 Church Ave", "Brooklyn, NY 11218"]}, "phone": "", "display_phone": "", "distance": 12746.198582448227}, {"id": "m1sfDqgDiKKyUaXo9DWVeQ", "alias": "bodhi-village-flushing", "name": "Bodhi Village", "image_url": "https://s3-media1.fl.yelpcdn.com/bphoto/PKSJsZQYQ9iNr95wiog5Ng/o.jpg", "is_closed": false, "url": "https://www.yelp.com/biz/bodhi-village-flushing?adjust_creative=9gNmiWYX8uTbFBeTTvJMdA&utm_campaign=yelp_api_v3&utm_medium=api_v3_business_search&utm_source=9gNmiWYX8uTbFBeTTvJMdA", "review_count": 346, "categories": [{"alias": "vegetarian", "title": "Vegetarian"}, {"alias": "chinese", "title": "Chinese"}, {"alias": "kosher", "title": "Kosher"}], "rating": 4.0, "coordinates": {"latitude": 40.746994, "longitude": -73.828388}, "transactions": ["delivery", "pickup"], "price": "$$", "location": {"address1": "136-20 Booth Memorial Ave", "address2": null, "address3": "", "city": "Flushing", "zip_code": "11355", "country": "US", "state": "NY", "display_address": ["136-20 Booth Memorial Ave", "Flushing, NY 11355"]}, "phone": "+17186839045", "display_phone": "(718) 683-9045", "distance": 11967.071604755483}, {"id": "fZOmB4eaVlnf6LIejL2vBg", "alias": "jalsa-grill-and-gravy-brooklyn-7", "name": "Jalsa - Grill & Gravy", "image_url": "https://s3-media3.fl.yelpcdn.com/bphoto/h6chZCs6Nb6X6zhBMYaSfA/o.jpg", "is_closed": false, "url": "https://www.yelp.com/biz/jalsa-grill-and-gravy-brooklyn-7?adjust_creative=9gNmiWYX8uTbFBeTTvJMdA&utm_campaign=yelp_api_v3&utm_medium=api_v3_business_search&utm_source=9gNmiWYX8uTbFBeTTvJMdA", "review_count": 189, "categories": [{"alias": "halal", "title": "Halal"}, {"alias": "indpak", "title": "Indian"}, {"alias": "vegan", "title": "Vegan"}], "rating": 4.5, "coordinates": {"latitude": 40.6382322, "longitude": -73.9688152}, "transactions": ["delivery", "pickup"], "price": "$$", "location": {"address1": "786 Coney Island Ave", "address2": "", "address3": null, "city": "Brooklyn", "zip_code": "11218", "country": "US", "state": "NY", "display_address": ["786 Coney Island Ave", "Brooklyn, NY 11218"]}, "phone": "+17185522534", "display_phone": "(718) 552-2534", "distance": 13448.330324887249}, {"id": "7q9Drd3DCB4hw8bPT-zLyA", "alias": "karmasala-indian-new-york", "name": "Karmasala Indian", "image_url": "https://s3-media2.fl.yelpcdn.com/bphoto/8JDjeMJcwTvhni4235hbBw/o.jpg", "is_closed": false, "url": "https://www.yelp.com/biz/karmasala-indian-new-york?adjust_creative=9gNmiWYX8uTbFBeTTvJMdA&utm_campaign=yelp_api_v3&utm_medium=api_v3_business_search&utm_source=9gNmiWYX8uTbFBeTTvJMdA", "review_count": 1, "categories": [{"alias": "indpak", "title": "Indian"}], "rating": 3.0, "coordinates": {"latitude": 40.721, "longitude": -73.99114}, "transactions": ["delivery"], "location": {"address1": "40 Rivington St", "address2": "", "address3": null, "city": "New York", "zip_code": "10002", "country": "US", "state": "NY", "display_address": ["40 Rivington St", "New York, NY 10002"]}, "phone": "+16469984176", "display_phone": "(646) 998-4176", "distance": 4610.21434647537}, {"id": "RXGa5YeRxilvUQFmbFPopQ", "alias": "the-last-stop-bronx", "name": "The Last Stop", "image_url": "https://s3-media3.fl.yelpcdn.com/bphoto/YRnlwxyCWOgfZTtfFrMnJw/o.jpg", "is_closed": false, "url": "https://www.yelp.com/biz/the-last-stop-bronx?adjust_creative=9gNmiWYX8uTbFBeTTvJMdA&utm_campaign=yelp_api_v3&utm_medium=api_v3_business_search&utm_source=9gNmiWYX8uTbFBeTTvJMdA", "review_count": 123, "categories": [{"alias": "bars", "title": "Bars"}, {"alias": "tradamerican", "title": "American (Traditional)"}, {"alias": "indpak", "title": "Indian"}], "rating": 4.5, "coordinates": {"latitude": 40.88976, "longitude": -73.89854}, "transactions": ["delivery"], "price": "$$", "location": {"address1": "5977 Broadway", "address2": "", "address3": null, "city": "Bronx", "zip_code": "10471", "country": "US", "state": "NY", "display_address": ["5977 Broadway", "Bronx, NY 10471"]}, "phone": "+13474496679", "display_phone": "(347) 449-6679", "distance": 15689.772761405158}, {"id": "w5OkGoc_gcA3EA399aV1Jg", "alias": "sri-ganeshs-dosa-house-jersey-city", "name": "Sri Ganesh's Dosa House", "image_url": "https://s3-media3.fl.yelpcdn.com/bphoto/UVemqUrpQ3SU0hPg5TIgsw/o.jpg", "is_closed": false, "url": "https://www.yelp.com/biz/sri-ganeshs-dosa-house-jersey-city?adjust_creative=9gNmiWYX8uTbFBeTTvJMdA&utm_campaign=yelp_api_v3&utm_medium=api_v3_business_search&utm_source=9gNmiWYX8uTbFBeTTvJMdA", "review_count": 197, "categories": [{"alias": "indpak", "title": "Indian"}, {"alias": "vegetarian", "title": "Vegetarian"}], "rating": 3.5, "coordinates": {"latitude": 40.73543, "longitude": -74.06535}, "transactions": ["delivery", "pickup"], "price": "$", "location": {"address1": "809 Newark Ave", "address2": null, "address3": "", "city": "Jersey City", "zip_code": "07306", "country": "US", "state": "NJ", "display_address": ["809 Newark Ave", "Jersey City, NJ 07306"]}, "phone": "+12012223883", "display_phone": "(201) 222-3883", "distance": 8487.883187789113}, {"id": "FdpEdKi4YbTu4t7B0tufIQ", "alias": "punjabi-dhaba-catering-and-sweets-south-richmond-hill", "name": "Punjabi Dhaba Catering & Sweets", "image_url": "https://s3-media3.fl.yelpcdn.com/bphoto/5XA2kXPxRWS_xBewl0xjSA/o.jpg", "is_closed": false, "url": "https://www.yelp.com/biz/punjabi-dhaba-catering-and-sweets-south-richmond-hill?adjust_creative=9gNmiWYX8uTbFBeTTvJMdA&utm_campaign=yelp_api_v3&utm_medium=api_v3_business_search&utm_source=9gNmiWYX8uTbFBeTTvJMdA", "review_count": 29, "categories": [{"alias": "catering", "title": "Caterers"}, {"alias": "indpak", "title": "Indian"}], "rating": 3.5, "coordinates": {"latitude": 40.689913, "longitude": -73.825223}, "transactions": [], "price": "$", "location": {"address1": "11916 101st Ave", "address2": null, "address3": null, "city": "South Richmond Hill", "zip_code": "11419", "country": "US", "state": "NY", "display_address": ["11916 101st Ave", "South Richmond Hill, NY 11419"]}, "phone": "+17184878002", "display_phone": "(718) 487-8002", "distance": 14391.544662862565}, {"id": "_oB3M47mlg3dJGKKIYkRIA", "alias": "jewel-of-india-manhattan", "name": "Jewel of India", "image_url": "https://s3-media2.fl.yelpcdn.com/bphoto/bX-v_23KjrkpdrqS6gwvkg/o.jpg", "is_closed": false, "url": "https://www.yelp.com/biz/jewel-of-india-manhattan?adjust_creative=9gNmiWYX8uTbFBeTTvJMdA&utm_campaign=yelp_api_v3&utm_medium=api_v3_business_search&utm_source=9gNmiWYX8uTbFBeTTvJMdA", "review_count": 15, "categories": [{"alias": "indpak", "title": "Indian"}], "rating": 2.5, "coordinates": {"latitude": 40.7266884, "longitude": -73.9874496}, "transactions": ["delivery", "pickup"], "price": "$$", "location": {"address1": "324 E 6th St", "address2": null, "address3": "", "city": "Manhattan", "zip_code": "10003", "country": "US", "state": "NY", "display_address": ["324 E 6th St", "Manhattan, NY 10003"]}, "phone": "+12125332245", "display_phone": "(212) 533-2245", "distance": 3905.057708345464}, {"id": "vGsmxR1ZO3n1tYo_6AgU_Q", "alias": "tuscany-indian-grill-new-york", "name": "Tuscany Indian Grill", "image_url": "https://s3-media1.fl.yelpcdn.com/bphoto/OeWv_CkbchjHC6Qybj7bXA/o.jpg", "is_closed": false, "url": "https://www.yelp.com/biz/tuscany-indian-grill-new-york?adjust_creative=9gNmiWYX8uTbFBeTTvJMdA&utm_campaign=yelp_api_v3&utm_medium=api_v3_business_search&utm_source=9gNmiWYX8uTbFBeTTvJMdA", "review_count": 2, "categories": [{"alias": "indpak", "title": "Indian"}], "rating": 3.0, "coordinates": {"latitude": 40.82352956434804, "longitude": -73.93817255608558}, "transactions": ["delivery", "pickup"], "location": {"address1": "2546 7th Ave", "address2": "", "address3": null, "city": "New York", "zip_code": "10039", "country": "US", "state": "NY", "display_address": ["2546 7th Ave", "New York, NY 10039"]}, "phone": "+12122344949", "display_phone": "(212) 234-4949", "distance": 7628.597137081838}, {"id": "Fj5RosdsJV24ZT8S6X-nNQ", "alias": "om-wok-jackson-heights", "name": "Om Wok", "image_url": "https://s3-media3.fl.yelpcdn.com/bphoto/ySIb4rymVvo68FUvxmBrBQ/o.jpg", "is_closed": false, "url": "https://www.yelp.com/biz/om-wok-jackson-heights?adjust_creative=9gNmiWYX8uTbFBeTTvJMdA&utm_campaign=yelp_api_v3&utm_medium=api_v3_business_search&utm_source=9gNmiWYX8uTbFBeTTvJMdA", "review_count": 86, "categories": [{"alias": "himalayan", "title": "Himalayan/Nepalese"}, {"alias": "indpak", "title": "Indian"}, {"alias": "chinese", "title": "Chinese"}], "rating": 3.5, "coordinates": {"latitude": 40.7565331, "longitude": -73.8782364}, "transactions": ["delivery", "pickup"], "price": "$$", "location": {"address1": "89-17 Northern Blvd", "address2": "", "address3": null, "city": "Jackson Heights", "zip_code": "11372", "country": "US", "state": "NY", "display_address": ["89-17 Northern Blvd", "Jackson Heights, NY 11372"]}, "phone": "+17186398800", "display_phone": "(718) 639-8800", "distance": 7698.726026139573}, {"id": "khZwIk7s0AqTk0jy0WPvkw", "alias": "agra-grill-bronx", "name": "Agra Grill", "image_url": "https://s3-media2.fl.yelpcdn.com/bphoto/DCW-ldowiC76_wxx6FChhA/o.jpg", "is_closed": false, "url": "https://www.yelp.com/biz/agra-grill-bronx?adjust_creative=9gNmiWYX8uTbFBeTTvJMdA&utm_campaign=yelp_api_v3&utm_medium=api_v3_business_search&utm_source=9gNmiWYX8uTbFBeTTvJMdA", "review_count": 83, "categories": [{"alias": "indpak", "title": "Indian"}], "rating": 4.0, "coordinates": {"latitude": 40.88465, "longitude": -73.86244}, "transactions": ["delivery", "pickup"], "price": "$$", "location": {"address1": "3835 White Plains Rd", "address2": "", "address3": "", "city": "Bronx", "zip_code": "10467", "country": "US", "state": "NY", "display_address": ["3835 White Plains Rd", "Bronx, NY 10467"]}, "phone": "+13473465228", "display_phone": "(347) 346-5228", "distance": 16607.35153814234}, {"id": "Ih9Zh1eRwPowzufbGVXfoA", "alias": "green-bean-cafe-new-york-2", "name": "Green Bean Cafe", "image_url": "https://s3-media1.fl.yelpcdn.com/bphoto/D9zxBgXVKFKAECqgnj3h2g/o.jpg", "is_closed": false, "url": "https://www.yelp.com/biz/green-bean-cafe-new-york-2?adjust_creative=9gNmiWYX8uTbFBeTTvJMdA&utm_campaign=yelp_api_v3&utm_medium=api_v3_business_search&utm_source=9gNmiWYX8uTbFBeTTvJMdA", "review_count": 156, "categories": [{"alias": "vegan", "title": "Vegan"}, {"alias": "organic_stores", "title": "Organic Stores"}, {"alias": "gluten_free", "title": "Gluten-Free"}], "rating": 4.0, "coordinates": {"latitude": 40.76914988318571, "longitude": -73.95235797703822}, "transactions": ["delivery", "pickup"], "price": "$", "location": {"address1": "1413 York Ave", "address2": null, "address3": "", "city": "New York", "zip_code": "10301", "country": "US", "state": "NY", "display_address": ["1413 York Ave", "New York, NY 10301"]}, "phone": "+12128611539", "display_phone": "(212) 861-1539", "distance": 1825.5316452867876}, {"id": "60LpoBux4MKHBLiQJfMbYQ", "alias": "mysttik-masaala-queens-6", "name": "Mysttik Masaala", "image_url": "https://s3-media4.fl.yelpcdn.com/bphoto/kcqhf9DR3-a6cgT6pfaHuw/o.jpg", "is_closed": false, "url": "https://www.yelp.com/biz/mysttik-masaala-queens-6?adjust_creative=9gNmiWYX8uTbFBeTTvJMdA&utm_campaign=yelp_api_v3&utm_medium=api_v3_business_search&utm_source=9gNmiWYX8uTbFBeTTvJMdA", "review_count": 14, "categories": [{"alias": "indpak", "title": "Indian"}, {"alias": "foodtrucks", "title": "Food Trucks"}], "rating": 4.5, "coordinates": {"latitude": 40.74751, "longitude": -73.94261}, "transactions": [], "location": {"address1": "2525 44th Dr", "address2": null, "address3": "", "city": "Queens", "zip_code": "11101", "country": "US", "state": "NY", "display_address": ["2525 44th Dr", "Queens, NY 11101"]}, "phone": "+19173063128", "display_phone": "(917) 306-3128", "distance": 2613.257546120143}, {"id": "kNzjRlXzL5XJInDqNwfMgA", "alias": "mysttik-masaala-astoria", "name": "Mysttik Masaala", "image_url": "https://s3-media2.fl.yelpcdn.com/bphoto/wEfFeCvJjOF-x-UJNE8hIQ/o.jpg", "is_closed": false, "url": "https://www.yelp.com/biz/mysttik-masaala-astoria?adjust_creative=9gNmiWYX8uTbFBeTTvJMdA&utm_campaign=yelp_api_v3&utm_medium=api_v3_business_search&utm_source=9gNmiWYX8uTbFBeTTvJMdA", "review_count": 9, "categories": [{"alias": "indpak", "title": "Indian"}, {"alias": "foodtrucks", "title": "Food Trucks"}], "rating": 4.5, "coordinates": {"latitude": 40.7665765, "longitude": -73.9203027}, "transactions": [], "location": {"address1": "32-07 30th Ave", "address2": "", "address3": null, "city": "Astoria", "zip_code": "11103", "country": "US", "state": "NY", "display_address": ["32-07 30th Ave", "Astoria, NY 11103"]}, "phone": "+19173063128", "display_phone": "(917) 306-3128", "distance": 4230.5079241028925}, {"id": "UiOUyzrVPTAAjNpGMFhFyQ", "alias": "dill-and-parsley-new-york-3", "name": "Dill & Parsley", "image_url": "https://s3-media2.fl.yelpcdn.com/bphoto/6P8nYDKaHSWRaSEcPL1FPA/o.jpg", "is_closed": false, "url": "https://www.yelp.com/biz/dill-and-parsley-new-york-3?adjust_creative=9gNmiWYX8uTbFBeTTvJMdA&utm_campaign=yelp_api_v3&utm_medium=api_v3_business_search&utm_source=9gNmiWYX8uTbFBeTTvJMdA", "review_count": 46, "categories": [{"alias": "mediterranean", "title": "Mediterranean"}, {"alias": "gluten_free", "title": "Gluten-Free"}, {"alias": "vegetarian", "title": "Vegetarian"}], "rating": 3.5, "coordinates": {"latitude": 40.756951, "longitude": -73.975883}, "transactions": ["delivery", "pickup"], "price": "$$", "location": {"address1": "425 Madison Ave", "address2": "", "address3": null, "city": "New York", "zip_code": "10017", "country": "US", "state": "NY", "display_address": ["425 Madison Ave", "New York, NY 10017"]}, "phone": "+16465951610", "display_phone": "(646) 595-1610", "distance": 592.4344062839438}, {"id": "xccpkSa-54SXLnvSJ9DYWw", "alias": "paratha-junction-new-york", "name": "Paratha Junction", "image_url": "", "is_closed": false, "url": "https://www.yelp.com/biz/paratha-junction-new-york?adjust_creative=9gNmiWYX8uTbFBeTTvJMdA&utm_campaign=yelp_api_v3&utm_medium=api_v3_business_search&utm_source=9gNmiWYX8uTbFBeTTvJMdA", "review_count": 2, "categories": [{"alias": "indpak", "title": "Indian"}], "rating": 3.0, "coordinates": {"latitude": 40.726652436588715, "longitude": -73.9893477}, "transactions": ["delivery", "pickup"], "location": {"address1": "79 2nd Ave", "address2": null, "address3": null, "city": "New York", "zip_code": "10003", "country": "US", "state": "NY", "display_address": ["79 2nd Ave", "New York, NY 10003"]}, "phone": "+19173532537", "display_phone": "(917) 353-2537", "distance": 3981.554569164315}, {"id": "ZRwOZWmQtGzRyORM8gZ-GQ", "alias": "masala-express-bayonne", "name": "Masala Express", "image_url": "https://s3-media1.fl.yelpcdn.com/bphoto/pgKZ2r6WuRrkw0RDpHyXLg/o.jpg", "is_closed": false, "url": "https://www.yelp.com/biz/masala-express-bayonne?adjust_creative=9gNmiWYX8uTbFBeTTvJMdA&utm_campaign=yelp_api_v3&utm_medium=api_v3_business_search&utm_source=9gNmiWYX8uTbFBeTTvJMdA", "review_count": 11, "categories": [{"alias": "indpak", "title": "Indian"}], "rating": 5.0, "coordinates": {"latitude": 40.6596514, "longitude": -74.12213490220537}, "transactions": ["delivery", "pickup"], "location": {"address1": "369 Broadway", "address2": null, "address3": "", "city": "Bayonne", "zip_code": "07002", "country": "US", "state": "NJ", "display_address": ["369 Broadway", "Bayonne, NJ 07002"]}, "phone": "+12012679588", "display_phone": "(201) 267-9588", "distance": 16965.39641602973}, {"id": "cWzdIJhEDZIjSGDpYGWy3Q", "alias": "buka-new-york-brooklyn", "name": "Buka New York", "image_url": "https://s3-media1.fl.yelpcdn.com/bphoto/aMmif9UvLRVNEnDFWiJxdw/o.jpg", "is_closed": false, "url": "https://www.yelp.com/biz/buka-new-york-brooklyn?adjust_creative=9gNmiWYX8uTbFBeTTvJMdA&utm_campaign=yelp_api_v3&utm_medium=api_v3_business_search&utm_source=9gNmiWYX8uTbFBeTTvJMdA", "review_count": 273, "categories": [{"alias": "bars", "title": "Bars"}, {"alias": "african", "title": "African"}, {"alias": "halal", "title": "Halal"}], "rating": 3.0, "coordinates": {"latitude": 40.68157157555701, "longitude": -73.95714175244409}, "transactions": ["delivery", "pickup"], "price": "$$", "location": {"address1": "1111 Fulton St", "address2": null, "address3": "", "city": "Brooklyn", "zip_code": "11238", "country": "US", "state": "NY", "display_address": ["1111 Fulton St", "Brooklyn, NY 11238"]}, "phone": "+13477630619", "display_phone": "(347) 763-0619", "distance": 8692.438298874104}, {"id": "phEamT8HRnu-RFFoCbJ5Bg", "alias": "ujala-kabab-jersey-city", "name": "Ujala Kabab", "image_url": "https://s3-media2.fl.yelpcdn.com/bphoto/WOgEQo05MmUmYxYHC4l02w/o.jpg", "is_closed": false, "url": "https://www.yelp.com/biz/ujala-kabab-jersey-city?adjust_creative=9gNmiWYX8uTbFBeTTvJMdA&utm_campaign=yelp_api_v3&utm_medium=api_v3_business_search&utm_source=9gNmiWYX8uTbFBeTTvJMdA", "review_count": 20, "categories": [{"alias": "halal", "title": "Halal"}, {"alias": "indpak", "title": "Indian"}], "rating": 4.0, "coordinates": {"latitude": 40.7753927984004, "longitude": -74.0307963014235}, "transactions": ["delivery", "pickup"], "location": {"address1": "3403 Kennedy Blvd", "address2": null, "address3": "", "city": "Jersey City", "zip_code": "07087", "country": "US", "state": "NJ", "display_address": ["3403 Kennedy Blvd", "Jersey City, NJ 07087"]}, "phone": "+12012227466", "display_phone": "(201) 222-7466", "distance": 7370.46506763218}, {"id": "9AL3VA_4H_PMw0GPriIGQw", "alias": "tangra-new-york", "name": "Tangra", "image_url": "https://s3-media3.fl.yelpcdn.com/bphoto/XwcccdWAhebl0GSv1bbc3g/o.jpg", "is_closed": false, "url": "https://www.yelp.com/biz/tangra-new-york?adjust_creative=9gNmiWYX8uTbFBeTTvJMdA&utm_campaign=yelp_api_v3&utm_medium=api_v3_business_search&utm_source=9gNmiWYX8uTbFBeTTvJMdA", "review_count": 81, "categories": [{"alias": "chinese", "title": "Chinese"}, {"alias": "indpak", "title": "Indian"}, {"alias": "seafood", "title": "Seafood"}], "rating": 3.5, "coordinates": {"latitude": 40.7421999, "longitude": -73.98262}, "transactions": ["delivery", "pickup"], "location": {"address1": "103 Lexington Ave", "address2": "", "address3": null, "city": "New York", "zip_code": "10016", "country": "US", "state": "NY", "display_address": ["103 Lexington Ave", "New York, NY 10016"]}, "phone": "+12128898818", "display_phone": "(212) 889-8818", "distance": 2184.080154798888}, {"id": "dzI6MzwKbrhJN5dEeUbX0w", "alias": "the-hummus-and-pita-new-york-4", "name": "The Hummus & Pita", "image_url": "https://s3-media1.fl.yelpcdn.com/bphoto/6uREHKjgoSTtAOIuf2T-jA/o.jpg", "is_closed": false, "url": "https://www.yelp.com/biz/the-hummus-and-pita-new-york-4?adjust_creative=9gNmiWYX8uTbFBeTTvJMdA&utm_campaign=yelp_api_v3&utm_medium=api_v3_business_search&utm_source=9gNmiWYX8uTbFBeTTvJMdA", "review_count": 691, "categories": [{"alias": "mediterranean", "title": "Mediterranean"}, {"alias": "mideastern", "title": "Middle Eastern"}, {"alias": "vegetarian", "title": "Vegetarian"}], "rating": 4.0, "coordinates": {"latitude": 40.73928, "longitude": -73.99605}, "transactions": ["delivery", "pickup"], "price": "$$", "location": {"address1": "585 6th Ave", "address2": "", "address3": "", "city": "New York", "zip_code": "10011", "country": "US", "state": "NY", "display_address": ["585 6th Ave", "New York, NY 10011"]}, "phone": "+12125107405", "display_phone": "(212) 510-7405", "distance": 3140.7520238027723}, {"id": "vTX77dgdGryT9zc6mKXEsQ", "alias": "laliguras-restaurant-jackson-heights", "name": "Laliguras Restaurant", "image_url": "https://s3-media2.fl.yelpcdn.com/bphoto/mMfBSE4zvydTDE4Xp1svwQ/o.jpg", "is_closed": false, "url": "https://www.yelp.com/biz/laliguras-restaurant-jackson-heights?adjust_creative=9gNmiWYX8uTbFBeTTvJMdA&utm_campaign=yelp_api_v3&utm_medium=api_v3_business_search&utm_source=9gNmiWYX8uTbFBeTTvJMdA", "review_count": 227, "categories": [{"alias": "himalayan", "title": "Himalayan/Nepalese"}, {"alias": "coffee", "title": "Coffee & Tea"}, {"alias": "soup", "title": "Soup"}], "rating": 4.0, "coordinates": {"latitude": 40.7476422051, "longitude": -73.8898337637}, "transactions": ["delivery", "pickup"], "price": "$", "location": {"address1": "3763 76th St", "address2": "", "address3": "", "city": "Jackson Heights", "zip_code": "11372", "country": "US", "state": "NY", "display_address": ["3763 76th St", "Jackson Heights, NY 11372"]}, "phone": "+17184240017", "display_phone": "(718) 424-0017", "distance": 6838.071741177761}, {"id": "Q3q5ODGrzCGjTUKaFEWJkw", "alias": "new-green-leaf-brooklyn", "name": "New Green Leaf", "image_url": "", "is_closed": false, "url": "https://www.yelp.com/biz/new-green-leaf-brooklyn?adjust_creative=9gNmiWYX8uTbFBeTTvJMdA&utm_campaign=yelp_api_v3&utm_medium=api_v3_business_search&utm_source=9gNmiWYX8uTbFBeTTvJMdA", "review_count": 5, "categories": [{"alias": "indpak", "title": "Indian"}], "rating": 1.5, "coordinates": {"latitude": 40.7242889, "longitude": -73.9514008}, "transactions": ["delivery", "pickup"], "location": {"address1": "651 Manhattan Ave", "address2": "", "address3": "", "city": "Brooklyn", "zip_code": "11222", "country": "US", "state": "NY", "display_address": ["651 Manhattan Ave", "Brooklyn, NY 11222"]}, "phone": "+17183830956", "display_phone": "(718) 383-0956", "distance": 4169.057615442782}, {"id": "y3Go31cLKLD3rq8PtI782w", "alias": "mysttik-masaala-new-york-19", "name": "Mysttik Masaala", "image_url": "https://s3-media2.fl.yelpcdn.com/bphoto/xsR8Gqx6dREt9vnBfQVs-A/o.jpg", "is_closed": false, "url": "https://www.yelp.com/biz/mysttik-masaala-new-york-19?adjust_creative=9gNmiWYX8uTbFBeTTvJMdA&utm_campaign=yelp_api_v3&utm_medium=api_v3_business_search&utm_source=9gNmiWYX8uTbFBeTTvJMdA", "review_count": 1, "categories": [{"alias": "foodtrucks", "title": "Food Trucks"}, {"alias": "indpak", "title": "Indian"}], "rating": 5.0, "coordinates": {"latitude": 40.75031, "longitude": -73.9784}, "transactions": [], "location": {"address1": "99 Park Ave", "address2": "", "address3": null, "city": "New York", "zip_code": "10016", "country": "US", "state": "NY", "display_address": ["99 Park Ave", "New York, NY 10016"]}, "phone": "+19173063128", "display_phone": "(917) 306-3128", "distance": 1243.2901396806092}, {"id": "-7PgxPVUGZh__U3CxRFKxg", "alias": "trinidad-golden-place-restaurant-brooklyn", "name": "Trinidad Golden Place Restaurant", "image_url": "https://s3-media2.fl.yelpcdn.com/bphoto/QKtC3uQk3G73YrNgGqgrdg/o.jpg", "is_closed": false, "url": "https://www.yelp.com/biz/trinidad-golden-place-restaurant-brooklyn?adjust_creative=9gNmiWYX8uTbFBeTTvJMdA&utm_campaign=yelp_api_v3&utm_medium=api_v3_business_search&utm_source=9gNmiWYX8uTbFBeTTvJMdA", "review_count": 182, "categories": [{"alias": "chinese", "title": "Chinese"}, {"alias": "trinidadian", "title": "Trinidadian"}], "rating": 4.5, "coordinates": {"latitude": 40.6718291030037, "longitude": -73.950525317791}, "transactions": ["delivery"], "price": "$", "location": {"address1": "788 Nostrand Ave", "address2": "", "address3": "", "city": "Brooklyn", "zip_code": "11216", "country": "US", "state": "NY", "display_address": ["788 Nostrand Ave", "Brooklyn, NY 11216"]}, "phone": "+17187357065", "display_phone": "(718) 735-7065", "distance": 9844.1710917507}, {"id": "jRiMLcjWiNfGJlQbu12-HQ", "alias": "finest-food-house-brooklyn", "name": "Finest Food House", "image_url": "https://s3-media2.fl.yelpcdn.com/bphoto/cfQk54d7wXZY_0WeyPtNEQ/o.jpg", "is_closed": false, "url": "https://www.yelp.com/biz/finest-food-house-brooklyn?adjust_creative=9gNmiWYX8uTbFBeTTvJMdA&utm_campaign=yelp_api_v3&utm_medium=api_v3_business_search&utm_source=9gNmiWYX8uTbFBeTTvJMdA", "review_count": 3, "categories": [{"alias": "indpak", "title": "Indian"}], "rating": 4.5, "coordinates": {"latitude": 40.678554, "longitude": -73.869642}, "transactions": ["delivery", "pickup"], "location": {"address1": "1075A Liberty Ave", "address2": "", "address3": null, "city": "Brooklyn", "zip_code": "11208", "country": "US", "state": "NY", "display_address": ["1075A Liberty Ave", "Brooklyn, NY 11208"]}, "phone": "+17187087611", "display_phone": "(718) 708-7611", "distance": 12306.117638406487}, {"id": "jE5_yPypanQLdYe7-f__dA", "alias": "toad-style-brooklyn", "name": "Toad Style", "image_url": "https://s3-media2.fl.yelpcdn.com/bphoto/6gNQVkMYa2RTS5lDSZqQ-w/o.jpg", "is_closed": false, "url": "https://www.yelp.com/biz/toad-style-brooklyn?adjust_creative=9gNmiWYX8uTbFBeTTvJMdA&utm_campaign=yelp_api_v3&utm_medium=api_v3_business_search&utm_source=9gNmiWYX8uTbFBeTTvJMdA", "review_count": 440, "categories": [{"alias": "vegan", "title": "Vegan"}, {"alias": "gluten_free", "title": "Gluten-Free"}, {"alias": "sandwiches", "title": "Sandwiches"}], "rating": 4.0, "coordinates": {"latitude": 40.68687, "longitude": -73.92336}, "transactions": ["delivery", "pickup"], "price": "$$", "location": {"address1": "93 Ralph Ave", "address2": "", "address3": "", "city": "Brooklyn", "zip_code": "11221", "country": "US", "state": "NY", "display_address": ["93 Ralph Ave", "Brooklyn, NY 11221"]}, "phone": "+13477891589", "display_phone": "(347) 789-1589", "distance": 8936.872134019486}, {"id": "RdcqVP_xjxQEbNRMYccBQw", "alias": "tandoori-hut-queens-2", "name": "Tandoori Hut", "image_url": "https://s3-media1.fl.yelpcdn.com/bphoto/XOmlOVwkJpz3BmLVHWk46Q/o.jpg", "is_closed": false, "url": "https://www.yelp.com/biz/tandoori-hut-queens-2?adjust_creative=9gNmiWYX8uTbFBeTTvJMdA&utm_campaign=yelp_api_v3&utm_medium=api_v3_business_search&utm_source=9gNmiWYX8uTbFBeTTvJMdA", "review_count": 141, "categories": [{"alias": "indpak", "title": "Indian"}], "rating": 3.0, "coordinates": {"latitude": 40.69359, "longitude": -73.82733}, "transactions": ["delivery", "pickup"], "price": "$$", "location": {"address1": "119-08 94th Ave", "address2": null, "address3": "", "city": "Queens", "zip_code": "11419", "country": "US", "state": "NY", "display_address": ["119-08 94th Ave", "Queens, NY 11419"]}, "phone": "+17188508919", "display_phone": "(718) 850-8919", "distance": 14021.156561751282}, {"id": "M1VHR29gMNs3EavDXdE_PA", "alias": "momos-and-buns-new-york", "name": "Momos & Buns", "image_url": "https://s3-media2.fl.yelpcdn.com/bphoto/2CzHP_i4fgDfS0yfQdx1EA/o.jpg", "is_closed": false, "url": "https://www.yelp.com/biz/momos-and-buns-new-york?adjust_creative=9gNmiWYX8uTbFBeTTvJMdA&utm_campaign=yelp_api_v3&utm_medium=api_v3_business_search&utm_source=9gNmiWYX8uTbFBeTTvJMdA", "review_count": 3, "categories": [{"alias": "foodtrucks", "title": "Food Trucks"}, {"alias": "indpak", "title": "Indian"}, {"alias": "chinese", "title": "Chinese"}], "rating": 3.5, "coordinates": {"latitude": 40.7428398, "longitude": -73.9826202}, "transactions": [], "location": {"address1": "120 Lexington Ave", "address2": "", "address3": "", "city": "New York", "zip_code": "10016", "country": "US", "state": "NY", "display_address": ["120 Lexington Ave", "New York, NY 10016"]}, "phone": "+17188999009", "display_phone": "(718) 899-9009", "distance": 2124.549958941949}, {"id": "3-XEEsyymdOo4NjDL7bQxw", "alias": "samis-kabab-house-long-island-city-2", "name": "Sami's Kabab House", "image_url": "https://s3-media2.fl.yelpcdn.com/bphoto/0dCZ46yX6gyFfKHV_JdIvA/o.jpg", "is_closed": false, "url": "https://www.yelp.com/biz/samis-kabab-house-long-island-city-2?adjust_creative=9gNmiWYX8uTbFBeTTvJMdA&utm_campaign=yelp_api_v3&utm_medium=api_v3_business_search&utm_source=9gNmiWYX8uTbFBeTTvJMdA", "review_count": 45, "categories": [{"alias": "afghani", "title": "Afghan"}, {"alias": "halal", "title": "Halal"}, {"alias": "tapasmallplates", "title": "Tapas/Small Plates"}], "rating": 4.5, "coordinates": {"latitude": 40.744444682981296, "longitude": -73.95368408642591}, "transactions": ["delivery", "pickup"], "location": {"address1": "47-38 Vernon Blvd", "address2": "", "address3": null, "city": "Long Island City", "zip_code": "11101", "country": "US", "state": "NY", "display_address": ["47-38 Vernon Blvd", "Long Island City, NY 11101"]}, "phone": "+17188419290", "display_phone": "(718) 841-9290", "distance": 2115.2456843041523}, {"id": "FvyhJRPCth2_1pmXlBbTGA", "alias": "pine-box-rock-shop-brooklyn", "name": "Pine Box Rock Shop", "image_url": "https://s3-media2.fl.yelpcdn.com/bphoto/4sAMSK5l6EE0RKW8ZvXV4Q/o.jpg", "is_closed": false, "url": "https://www.yelp.com/biz/pine-box-rock-shop-brooklyn?adjust_creative=9gNmiWYX8uTbFBeTTvJMdA&utm_campaign=yelp_api_v3&utm_medium=api_v3_business_search&utm_source=9gNmiWYX8uTbFBeTTvJMdA", "review_count": 234, "categories": [{"alias": "vegan", "title": "Vegan"}, {"alias": "cocktailbars", "title": "Cocktail Bars"}], "rating": 4.0, "coordinates": {"latitude": 40.70528, "longitude": -73.93267}, "transactions": ["delivery", "pickup"], "price": "$$", "location": {"address1": "12 Grattan St", "address2": "", "address3": "", "city": "Brooklyn", "zip_code": "11206", "country": "US", "state": "NY", "display_address": ["12 Grattan St", "Brooklyn, NY 11206"]}, "phone": "+17183666311", "display_phone": "(718) 366-6311", "distance": 6747.29474233536}, {"id": "w2oSwwvOf-DBnEUumq_TIA", "alias": "the-buffet-college-point", "name": "The Buffet", "image_url": "https://s3-media2.fl.yelpcdn.com/bphoto/wj1U0ZjtVnwPq8zVEfyXgw/o.jpg", "is_closed": false, "url": "https://www.yelp.com/biz/the-buffet-college-point?adjust_creative=9gNmiWYX8uTbFBeTTvJMdA&utm_campaign=yelp_api_v3&utm_medium=api_v3_business_search&utm_source=9gNmiWYX8uTbFBeTTvJMdA", "review_count": 957, "categories": [{"alias": "buffets", "title": "Buffets"}, {"alias": "sushi", "title": "Sushi Bars"}, {"alias": "seafood", "title": "Seafood"}], "rating": 3.5, "coordinates": {"latitude": 40.781505, "longitude": -73.8408955}, "transactions": ["delivery"], "price": "$$$", "location": {"address1": "20-07 127th St", "address2": "Fl 4", "address3": "", "city": "College Point", "zip_code": "11356", "country": "US", "state": "NY", "display_address": ["20-07 127th St", "Fl 4", "College Point, NY 11356"]}, "phone": "+17188863722", "display_phone": "(718) 886-3722", "distance": 11117.048339316547}, {"id": "DTxsUnrcAQO-OXwwypPZjQ", "alias": "shadman-restaurant-jersey-city-2", "name": "Shadman Restaurant", "image_url": "https://s3-media1.fl.yelpcdn.com/bphoto/Z49o8BJOd2v8sGXjgRZjwA/o.jpg", "is_closed": false, "url": "https://www.yelp.com/biz/shadman-restaurant-jersey-city-2?adjust_creative=9gNmiWYX8uTbFBeTTvJMdA&utm_campaign=yelp_api_v3&utm_medium=api_v3_business_search&utm_source=9gNmiWYX8uTbFBeTTvJMdA", "review_count": 252, "categories": [{"alias": "indpak", "title": "Indian"}, {"alias": "pakistani", "title": "Pakistani"}], "rating": 3.5, "coordinates": {"latitude": 40.7184, "longitude": -74.0438}, "transactions": ["delivery", "pickup"], "price": "$", "location": {"address1": "293 1/2 Grove St", "address2": null, "address3": "", "city": "Jersey City", "zip_code": "07302", "country": "US", "state": "NJ", "display_address": ["293 1/2 Grove St", "Jersey City, NJ 07302"]}, "phone": "+12012000333", "display_phone": "(201) 200-0333", "distance": 7720.881076955909}, {"id": "__XmiV4VwrbVDVHrRzn3oQ", "alias": "vatan-restaurant-jersey-city-2", "name": "Vatan Restaurant", "image_url": "https://s3-media2.fl.yelpcdn.com/bphoto/mWEKYkTqI82gBk_6Z_hIvg/o.jpg", "is_closed": false, "url": "https://www.yelp.com/biz/vatan-restaurant-jersey-city-2?adjust_creative=9gNmiWYX8uTbFBeTTvJMdA&utm_campaign=yelp_api_v3&utm_medium=api_v3_business_search&utm_source=9gNmiWYX8uTbFBeTTvJMdA", "review_count": 122, "categories": [{"alias": "indpak", "title": "Indian"}, {"alias": "vegetarian", "title": "Vegetarian"}, {"alias": "buffets", "title": "Buffets"}], "rating": 2.5, "coordinates": {"latitude": 40.735757, "longitude": -74.06527}, "transactions": ["delivery", "pickup"], "price": "$$", "location": {"address1": "808 Newark Ave", "address2": "", "address3": "", "city": "Jersey City", "zip_code": "07306", "country": "US", "state": "NJ", "display_address": ["808 Newark Ave", "Jersey City, NJ 07306"]}, "phone": "+12018395426", "display_phone": "(201) 839-5426", "distance": 8472.29321133624}, {"id": "L6DAp6L1ZJKeeDN2PwoOLQ", "alias": "adels-famous-halal-food-new-york", "name": "Adel's Famous Halal Food", "image_url": "https://s3-media2.fl.yelpcdn.com/bphoto/YNQgNHo1F5xX_RAJWIjIrA/o.jpg", "is_closed": false, "url": "https://www.yelp.com/biz/adels-famous-halal-food-new-york?adjust_creative=9gNmiWYX8uTbFBeTTvJMdA&utm_campaign=yelp_api_v3&utm_medium=api_v3_business_search&utm_source=9gNmiWYX8uTbFBeTTvJMdA", "review_count": 472, "categories": [{"alias": "mideastern", "title": "Middle Eastern"}, {"alias": "foodtrucks", "title": "Food Trucks"}, {"alias": "halal", "title": "Halal"}], "rating": 4.5, "coordinates": {"latitude": 40.75927857933082, "longitude": -73.98087907274463}, "transactions": ["delivery", "pickup"], "price": "$", "location": {"address1": "49th & 6th", "address2": "", "address3": "", "city": "New York", "zip_code": "10019", "country": "US", "state": "NY", "display_address": ["49th & 6th", "New York, NY 10019"]}, "phone": "+19174972317", "display_phone": "(917) 497-2317", "distance": 952.2487214353878}, {"id": "16kAl0fJo-7g5wu_MHqSmA", "alias": "mysttik-masaala-grand-bazaar-nyc-new-york", "name": "Mysttik Masaala Grand Bazaar NYC", "image_url": "https://s3-media2.fl.yelpcdn.com/bphoto/oJaG5v3b9_KfsZ8HA78UYg/o.jpg", "is_closed": false, "url": "https://www.yelp.com/biz/mysttik-masaala-grand-bazaar-nyc-new-york?adjust_creative=9gNmiWYX8uTbFBeTTvJMdA&utm_campaign=yelp_api_v3&utm_medium=api_v3_business_search&utm_source=9gNmiWYX8uTbFBeTTvJMdA", "review_count": 1, "categories": [{"alias": "indpak", "title": "Indian"}, {"alias": "foodtrucks", "title": "Food Trucks"}], "rating": 5.0, "coordinates": {"latitude": 40.7862, "longitude": -73.97588}, "transactions": [], "location": {"address1": null, "address2": null, "address3": "", "city": "New York", "zip_code": "10024", "country": "US", "state": "NY", "display_address": ["New York, NY 10024"]}, "phone": "+19173063128", "display_phone": "(917) 306-3128", "distance": 3002.1157660475683}, {"id": "F2SwOvsP1_1JyDcCtnJzlQ", "alias": "tamam-new-york-3", "name": "Tamam", "image_url": "https://s3-media2.fl.yelpcdn.com/bphoto/w7eDwaHDpG-P_rAI_x0Uwg/o.jpg", "is_closed": false, "url": "https://www.yelp.com/biz/tamam-new-york-3?adjust_creative=9gNmiWYX8uTbFBeTTvJMdA&utm_campaign=yelp_api_v3&utm_medium=api_v3_business_search&utm_source=9gNmiWYX8uTbFBeTTvJMdA", "review_count": 159, "categories": [{"alias": "falafel", "title": "Falafel"}, {"alias": "vegan", "title": "Vegan"}], "rating": 5.0, "coordinates": {"latitude": 40.7739676833531, "longitude": -73.9597929340972}, "transactions": ["delivery", "pickup"], "location": {"address1": "1108 Lexington Ave", "address2": "", "address3": null, "city": "New York", "zip_code": "10075", "country": "US", "state": "NY", "display_address": ["1108 Lexington Ave", "New York, NY 10075"]}, "phone": "+12126391818", "display_phone": "(212) 639-1818", "distance": 1839.6256956198042}, {"id": "6lHhC-WND3Vs2DhTnDtgjQ", "alias": "taza-mkt-brooklyn", "name": "Taza Mkt", "image_url": "https://s3-media2.fl.yelpcdn.com/bphoto/1sevHhkK-wNF1L2CaEd0vA/o.jpg", "is_closed": false, "url": "https://www.yelp.com/biz/taza-mkt-brooklyn?adjust_creative=9gNmiWYX8uTbFBeTTvJMdA&utm_campaign=yelp_api_v3&utm_medium=api_v3_business_search&utm_source=9gNmiWYX8uTbFBeTTvJMdA", "review_count": 57, "categories": [{"alias": "indpak", "title": "Indian"}], "rating": 4.5, "coordinates": {"latitude": 40.6563057324335, "longitude": -74.0081928122302}, "transactions": ["delivery", "pickup"], "price": "$$", "location": {"address1": "254 36th St", "address2": "Bldg 2", "address3": "Industry City Food Hall", "city": "Brooklyn", "zip_code": "11232", "country": "US", "state": "NY", "display_address": ["254 36th St", "Bldg 2", "Industry City Food Hall", "Brooklyn, NY 11232"]}, "phone": "", "display_phone": "", "distance": 11892.66900495611}, {"id": "o1odYIRiARdSTRsRI776Fg", "alias": "bombay-grill-house-brooklyn", "name": "Bombay Grill House", "image_url": "https://s3-media3.fl.yelpcdn.com/bphoto/B7p8feTkijeExFvnNG7m1A/o.jpg", "is_closed": false, "url": "https://www.yelp.com/biz/bombay-grill-house-brooklyn?adjust_creative=9gNmiWYX8uTbFBeTTvJMdA&utm_campaign=yelp_api_v3&utm_medium=api_v3_business_search&utm_source=9gNmiWYX8uTbFBeTTvJMdA", "review_count": 15, "categories": [{"alias": "indpak", "title": "Indian"}], "rating": 5.0, "coordinates": {"latitude": 40.73359, "longitude": -73.95498}, "transactions": ["restaurant_reservation", "delivery", "pickup"], "location": {"address1": "1015 Manhattan Ave", "address2": "", "address3": null, "city": "Brooklyn", "zip_code": "11222", "country": "US", "state": "NY", "display_address": ["1015 Manhattan Ave", "Brooklyn, NY 11222"]}, "phone": "+17183892211", "display_phone": "(718) 389-2211", "distance": 3097.906355700941}, {"id": "o0KsfMVarWBDsTOGFXVHsA", "alias": "gakyizompe-woodside-2", "name": "Gakyizompe", "image_url": "https://s3-media2.fl.yelpcdn.com/bphoto/eeB9ApOAFGXkN7vNOnLQrw/o.jpg", "is_closed": false, "url": "https://www.yelp.com/biz/gakyizompe-woodside-2?adjust_creative=9gNmiWYX8uTbFBeTTvJMdA&utm_campaign=yelp_api_v3&utm_medium=api_v3_business_search&utm_source=9gNmiWYX8uTbFBeTTvJMdA", "review_count": 38, "categories": [{"alias": "himalayan", "title": "Himalayan/Nepalese"}], "rating": 3.5, "coordinates": {"latitude": 40.7411023, "longitude": -73.9175822}, "transactions": ["delivery"], "price": "$", "location": {"address1": "4711 47th Ave", "address2": "", "address3": "", "city": "Woodside", "zip_code": "11377", "country": "US", "state": "NY", "display_address": ["4711 47th Ave", "Woodside, NY 11377"]}, "phone": "+19178326919", "display_phone": "(917) 832-6919", "distance": 4818.665951599392}, {"id": "KS7mJHRLUeLmJyDSrT5Mjw", "alias": "desi-stop-deli-new-york-2", "name": "Desi Stop Deli", "image_url": "https://s3-media2.fl.yelpcdn.com/bphoto/bDas12n_AdSuRruQScB-AA/o.jpg", "is_closed": false, "url": "https://www.yelp.com/biz/desi-stop-deli-new-york-2?adjust_creative=9gNmiWYX8uTbFBeTTvJMdA&utm_campaign=yelp_api_v3&utm_medium=api_v3_business_search&utm_source=9gNmiWYX8uTbFBeTTvJMdA", "review_count": 9, "categories": [{"alias": "vegetarian", "title": "Vegetarian"}, {"alias": "indpak", "title": "Indian"}, {"alias": "delis", "title": "Delis"}], "rating": 5.0, "coordinates": {"latitude": 40.72660705700247, "longitude": -73.9895454}, "transactions": ["delivery", "pickup"], "location": {"address1": "75 2nd Ave", "address2": null, "address3": null, "city": "New York", "zip_code": "10003", "country": "US", "state": "NY", "display_address": ["75 2nd Ave", "New York, NY 10003"]}, "phone": "+16464550909", "display_phone": "(646) 455-0909", "distance": 3993.1276801219037}], "total": 902, "region": {"center": {"longitude": -73.96957397460938, "latitude": 40.75917470627005}}}