{"businesses": [{"id": "B3_K2kUVbYOU0VaLcj_LTw", "alias": "thai-villa-new-york-2", "name": "Thai Villa", "image_url": "https://s3-media4.fl.yelpcdn.com/bphoto/xmFtvhWJIJH_BDFRo5epaA/o.jpg", "is_closed": false, "url": "https://www.yelp.com/biz/thai-villa-new-york-2?adjust_creative=9gNmiWYX8uTbFBeTTvJMdA&utm_campaign=yelp_api_v3&utm_medium=api_v3_business_search&utm_source=9gNmiWYX8uTbFBeTTvJMdA", "review_count": 4537, "categories": [{"alias": "thai", "title": "Thai"}], "rating": 4.5, "coordinates": {"latitude": 40.73902, "longitude": -73.99065}, "transactions": ["pickup", "delivery"], "price": "$$", "location": {"address1": "5 E 19th St", "address2": "G Floor", "address3": "", "city": "New York", "zip_code": "10003", "country": "US", "state": "NY", "display_address": ["5 E 19th St", "G Floor", "New York, NY 10003"]}, "phone": "+12128029999", "display_phone": "(212) 802-9999", "distance": 2860.8811119205}, {"id": "O1fUmxt3kbV-rnyjBtzAfw", "alias": "thep-thai-restaurant-new-york-5", "name": "THEP Thai Restaurant", "image_url": "https://s3-media3.fl.yelpcdn.com/bphoto/WymEpZCm4CPRTeVHXVyzXQ/o.jpg", "is_closed": false, "url": "https://www.yelp.com/biz/thep-thai-restaurant-new-york-5?adjust_creative=9gNmiWYX8uTbFBeTTvJMdA&utm_campaign=yelp_api_v3&utm_medium=api_v3_business_search&utm_source=9gNmiWYX8uTbFBeTTvJMdA", "review_count": 2511, "categories": [{"alias": "thai", "title": "Thai"}, {"alias": "noodles", "title": "Noodles"}, {"alias": "asianfusion", "title": "Asian Fusion"}], "rating": 4.5, "coordinates": {"latitude": 40.77078, "longitude": -73.95727}, "transactions": ["pickup", "delivery"], "price": "$$", "location": {"address1": "1439 2nd Ave", "address2": "", "address3": null, "city": "New York", "zip_code": "10021", "country": "US", "state": "NY", "display_address": ["1439 2nd Ave", "New York, NY 10021"]}, "phone": "+12128999995", "display_phone": "(212) 899-9995", "distance": 1654.2836884246487}, {"id": "jjJc_CrkB2HodEinB6cWww", "alias": "lovemama-new-york", "name": "LoveMama", "image_url": "https://s3-media1.fl.yelpcdn.com/bphoto/bLlFKTlVuLfmF-lIDGIjZA/o.jpg", "is_closed": false, "url": "https://www.yelp.com/biz/lovemama-new-york?adjust_creative=9gNmiWYX8uTbFBeTTvJMdA&utm_campaign=yelp_api_v3&utm_medium=api_v3_business_search&utm_source=9gNmiWYX8uTbFBeTTvJMdA", "review_count": 6364, "categories": [{"alias": "thai", "title": "Thai"}, {"alias": "malaysian", "title": "Malaysian"}, {"alias": "vietnamese", "title": "Vietnamese"}], "rating": 4.5, "coordinates": {"latitude": 40.730408722512074, "longitude": -73.98612673033213}, "transactions": ["restaurant_reservation", "pickup", "delivery"], "price": "$$", "location": {"address1": "174 2nd Ave", "address2": "", "address3": "", "city": "New York", "zip_code": "10003", "country": "US", "state": "NY", "display_address": ["174 2nd Ave", "New York, NY 10003"]}, "phone": "+12122545370", "display_phone": "(212) 254-5370", "distance": 3489.378554502803}, {"id": "NN3mOWF5e_pnR1ArqM2bHQ", "alias": "obao-new-york-3", "name": "OBAO", "image_url": "https://s3-media4.fl.yelpcdn.com/bphoto/CpVI2XJLrvg09Fm83bfPog/o.jpg", "is_closed": false, "url": "https://www.yelp.com/biz/obao-new-york-3?adjust_creative=9gNmiWYX8uTbFBeTTvJMdA&utm_campaign=yelp_api_v3&utm_medium=api_v3_business_search&utm_source=9gNmiWYX8uTbFBeTTvJMdA", "review_count": 3801, "categories": [{"alias": "vietnamese", "title": "Vietnamese"}, {"alias": "thai", "title": "Thai"}, {"alias": "asianfusion", "title": "Asian Fusion"}], "rating": 4.0, "coordinates": {"latitude": 40.7606544, "longitude": -73.991332}, "transactions": ["pickup", "delivery"], "price": "$$", "location": {"address1": "647 9th Ave", "address2": "", "address3": "", "city": "New York", "zip_code": "10036", "country": "US", "state": "NY", "display_address": ["647 9th Ave", "New York, NY 10036"]}, "phone": "+12122458880", "display_phone": "(212) 245-8880", "distance": 1839.9351869570796}, {"id": "AHrU1F123QPdVPTCnsy_xA", "alias": "chalong-new-york", "name": "Chalong", "image_url": "https://s3-media2.fl.yelpcdn.com/bphoto/zhqWTbWQWiVGUBW5AcxAtQ/o.jpg", "is_closed": false, "url": "https://www.yelp.com/biz/chalong-new-york?adjust_creative=9gNmiWYX8uTbFBeTTvJMdA&utm_campaign=yelp_api_v3&utm_medium=api_v3_business_search&utm_source=9gNmiWYX8uTbFBeTTvJMdA", "review_count": 53, "categories": [{"alias": "thai", "title": "Thai"}], "rating": 5.0, "coordinates": {"latitude": 40.763924, "longitude": -73.988883}, "transactions": ["pickup", "delivery"], "location": {"address1": "749 9th Ave", "address2": "", "address3": "", "city": "New York", "zip_code": "10019", "country": "US", "state": "NY", "display_address": ["749 9th Ave", "New York, NY 10019"]}, "phone": "+12124666456", "display_phone": "(212) 466-6456", "distance": 1719.8702436448655}, {"id": "-OixbLnFLCzQclxCSbUQ8w", "alias": "up-thai-new-york", "name": "Up Thai", "image_url": "https://s3-media3.fl.yelpcdn.com/bphoto/78u5SWauEV0nu9Tus3bf6g/o.jpg", "is_closed": false, "url": "https://www.yelp.com/biz/up-thai-new-york?adjust_creative=9gNmiWYX8uTbFBeTTvJMdA&utm_campaign=yelp_api_v3&utm_medium=api_v3_business_search&utm_source=9gNmiWYX8uTbFBeTTvJMdA", "review_count": 2871, "categories": [{"alias": "thai", "title": "Thai"}], "rating": 4.5, "coordinates": {"latitude": 40.7698275926665, "longitude": -73.9576330868512}, "transactions": ["pickup", "delivery"], "price": "$$", "location": {"address1": "1411 2nd Ave", "address2": "", "address3": "", "city": "New York", "zip_code": "10021", "country": "US", "state": "NY", "display_address": ["1411 2nd Ave", "New York, NY 10021"]}, "phone": "+12122561188", "display_phone": "(212) 256-1188", "distance": 1553.858889292646}, {"id": "VoAuIReq_cPUrFwxbWqG_Q", "alias": "sala-thai-restaurant-new-york-2", "name": "Sala Thai Restaurant", "image_url": "https://s3-media1.fl.yelpcdn.com/bphoto/N4luiaD4kOn20rsHFDgDzw/o.jpg", "is_closed": false, "url": "https://www.yelp.com/biz/sala-thai-restaurant-new-york-2?adjust_creative=9gNmiWYX8uTbFBeTTvJMdA&utm_campaign=yelp_api_v3&utm_medium=api_v3_business_search&utm_source=9gNmiWYX8uTbFBeTTvJMdA", "review_count": 724, "categories": [{"alias": "thai", "title": "Thai"}], "rating": 4.5, "coordinates": {"latitude": 40.7801199, "longitude": -73.98032}, "transactions": ["pickup", "delivery"], "price": "$$", "location": {"address1": "307 Amsterdam Ave", "address2": "", "address3": "", "city": "New York", "zip_code": "10023", "country": "US", "state": "NY", "display_address": ["307 Amsterdam Ave", "New York, NY 10023"]}, "phone": "+12124333999", "display_phone": "(212) 433-3999", "distance": 2493.89670081425}, {"id": "0IFDnYf3bhqxJR6hVrG7Gw", "alias": "top-thai-vintage-new-york-3", "name": "Top Thai Vintage", "image_url": "https://s3-media3.fl.yelpcdn.com/bphoto/-ZoEVVSfXiLLw8NLKSF9BA/o.jpg", "is_closed": false, "url": "https://www.yelp.com/biz/top-thai-vintage-new-york-3?adjust_creative=9gNmiWYX8uTbFBeTTvJMdA&utm_campaign=yelp_api_v3&utm_medium=api_v3_business_search&utm_source=9gNmiWYX8uTbFBeTTvJMdA", "review_count": 870, "categories": [{"alias": "thai", "title": "Thai"}, {"alias": "halal", "title": "Halal"}, {"alias": "cocktailbars", "title": "Cocktail Bars"}], "rating": 4.5, "coordinates": {"latitude": 40.729907419973344, "longitude": -74.00421380395268}, "transactions": ["delivery", "pickup", "restaurant_reservation"], "price": "$$", "location": {"address1": "55 Carmine St", "address2": null, "address3": "", "city": "New York", "zip_code": "10014", "country": "US", "state": "NY", "display_address": ["55 Carmine St", "New York, NY 10014"]}, "phone": "+16466092272", "display_phone": "(646) 609-2272", "distance": 4371.137606970768}, {"id": "KHdYPT0jUnUGdHGaY73mxg", "alias": "sukhumvit-51-new-york", "name": "Sukhumvit 51", "image_url": "https://s3-media1.fl.yelpcdn.com/bphoto/qCdrI6n9UN9J6Kgu3HFCjw/o.jpg", "is_closed": false, "url": "https://www.yelp.com/biz/sukhumvit-51-new-york?adjust_creative=9gNmiWYX8uTbFBeTTvJMdA&utm_campaign=yelp_api_v3&utm_medium=api_v3_business_search&utm_source=9gNmiWYX8uTbFBeTTvJMdA", "review_count": 819, "categories": [{"alias": "thai", "title": "Thai"}], "rating": 4.0, "coordinates": {"latitude": 40.7559139831703, "longitude": -73.9693867939228}, "transactions": ["pickup", "delivery"], "price": "$$", "location": {"address1": "224 E 51st St", "address2": "", "address3": "", "city": "New York", "zip_code": "10022", "country": "US", "state": "NY", "display_address": ["224 E 51st St", "New York, NY 10022"]}, "phone": "+12128888894", "display_phone": "(212) 888-8894", "distance": 362.9180727231785}, {"id": "MhceeLrM2_3mcKw5EGLY6A", "alias": "pure-thai-cookhouse-new-york", "name": "Pure Thai Cookhouse", "image_url": "https://s3-media1.fl.yelpcdn.com/bphoto/M_ufRBse6DTlbeNJCBZvvg/o.jpg", "is_closed": false, "url": "https://www.yelp.com/biz/pure-thai-cookhouse-new-york?adjust_creative=9gNmiWYX8uTbFBeTTvJMdA&utm_campaign=yelp_api_v3&utm_medium=api_v3_business_search&utm_source=9gNmiWYX8uTbFBeTTvJMdA", "review_count": 2792, "categories": [{"alias": "thai", "title": "Thai"}, {"alias": "noodles", "title": "Noodles"}], "rating": 4.0, "coordinates": {"latitude": 40.764291, "longitude": -73.988159}, "transactions": ["pickup", "delivery"], "price": "$$", "location": {"address1": "766 9th Ave", "address2": "", "address3": "", "city": "New York", "zip_code": "10019", "country": "US", "state": "NY", "display_address": ["766 9th Ave", "New York, NY 10019"]}, "phone": "+12125810999", "display_phone": "(212) 581-0999", "distance": 1665.4554389599668}, {"id": "dpo_TBvuRi2nEzuVdO4AiQ", "alias": "mitr-thai-new-york", "name": "Mitr Thai", "image_url": "https://s3-media4.fl.yelpcdn.com/bphoto/8Zwdc5aQ8Lq2N8wHh3xeKg/o.jpg", "is_closed": false, "url": "https://www.yelp.com/biz/mitr-thai-new-york?adjust_creative=9gNmiWYX8uTbFBeTTvJMdA&utm_campaign=yelp_api_v3&utm_medium=api_v3_business_search&utm_source=9gNmiWYX8uTbFBeTTvJMdA", "review_count": 135, "categories": [{"alias": "thai", "title": "Thai"}], "rating": 4.5, "coordinates": {"latitude": 40.75688959835714, "longitude": -73.9804147}, "transactions": ["pickup", "delivery"], "location": {"address1": "37 W 46th St", "address2": "", "address3": null, "city": "New York", "zip_code": "10036", "country": "US", "state": "NY", "display_address": ["37 W 46th St", "New York, NY 10036"]}, "phone": "+12124666699", "display_phone": "(212) 466-6699", "distance": 947.7781291786509}, {"id": "UC3n_0vZ5zI1fvi7UzNZAg", "alias": "sabai-thai-new-york-2", "name": "Sabai Thai", "image_url": "https://s3-media4.fl.yelpcdn.com/bphoto/8fj7kiDjNb74mSL-xBLe0w/o.jpg", "is_closed": false, "url": "https://www.yelp.com/biz/sabai-thai-new-york-2?adjust_creative=9gNmiWYX8uTbFBeTTvJMdA&utm_campaign=yelp_api_v3&utm_medium=api_v3_business_search&utm_source=9gNmiWYX8uTbFBeTTvJMdA", "review_count": 432, "categories": [{"alias": "thai", "title": "Thai"}, {"alias": "cocktailbars", "title": "Cocktail Bars"}, {"alias": "seafood", "title": "Seafood"}], "rating": 4.5, "coordinates": {"latitude": 40.74422, "longitude": -73.98365}, "transactions": ["pickup", "delivery"], "price": "$$", "location": {"address1": "432 Park Ave S", "address2": null, "address3": "", "city": "New York", "zip_code": "10016", "country": "US", "state": "NY", "display_address": ["432 Park Ave S", "New York, NY 10016"]}, "phone": "+16464764521", "display_phone": "(646) 476-4521", "distance": 2035.8910589184798}, {"id": "-XYp6w50XbZfS90YddS5ew", "alias": "soothr-new-york-2", "name": "Soothr", "image_url": "https://s3-media1.fl.yelpcdn.com/bphoto/diPNi3b7uOJdmWS7ryV9Ow/o.jpg", "is_closed": false, "url": "https://www.yelp.com/biz/soothr-new-york-2?adjust_creative=9gNmiWYX8uTbFBeTTvJMdA&utm_campaign=yelp_api_v3&utm_medium=api_v3_business_search&utm_source=9gNmiWYX8uTbFBeTTvJMdA", "review_count": 912, "categories": [{"alias": "thai", "title": "Thai"}, {"alias": "noodles", "title": "Noodles"}, {"alias": "cocktailbars", "title": "Cocktail Bars"}], "rating": 4.5, "coordinates": {"latitude": 40.732259, "longitude": -73.987363}, "transactions": ["pickup", "delivery"], "price": "$$", "location": {"address1": "204 E 13th St", "address2": "", "address3": null, "city": "New York", "zip_code": "10003", "country": "US", "state": "NY", "display_address": ["204 E 13th St", "New York, NY 10003"]}, "phone": "+12128449789", "display_phone": "(212) 844-9789", "distance": 3342.063062416498}, {"id": "7xe5Pd4fvN2vo05FP2XOeg", "alias": "lumlum-new-york", "name": "LumLum ", "image_url": "https://s3-media3.fl.yelpcdn.com/bphoto/gNg07GUC21-DIeSkYurrkw/o.jpg", "is_closed": false, "url": "https://www.yelp.com/biz/lumlum-new-york?adjust_creative=9gNmiWYX8uTbFBeTTvJMdA&utm_campaign=yelp_api_v3&utm_medium=api_v3_business_search&utm_source=9gNmiWYX8uTbFBeTTvJMdA", "review_count": 221, "categories": [{"alias": "thai", "title": "Thai"}], "rating": 4.5, "coordinates": {"latitude": 40.7629, "longitude": -73.98991}, "transactions": ["pickup", "delivery"], "price": "$$", "location": {"address1": "404 W 49th", "address2": null, "address3": "", "city": "New York", "zip_code": "10019", "country": "US", "state": "NY", "display_address": ["404 W 49th", "New York, NY 10019"]}, "phone": "+16466844618", "display_phone": "(646) 684-4618", "distance": 1758.2230280493052}, {"id": "-Q8MYIWoE4EsGQtudIOY0w", "alias": "bua-thai-ramen-and-robata-grill-new-york", "name": "Bua Thai Ramen & Robata Grill", "image_url": "https://s3-media3.fl.yelpcdn.com/bphoto/STPkeCnzxNZTax2QYGhe-g/o.jpg", "is_closed": false, "url": "https://www.yelp.com/biz/bua-thai-ramen-and-robata-grill-new-york?adjust_creative=9gNmiWYX8uTbFBeTTvJMdA&utm_campaign=yelp_api_v3&utm_medium=api_v3_business_search&utm_source=9gNmiWYX8uTbFBeTTvJMdA", "review_count": 1965, "categories": [{"alias": "thai", "title": "Thai"}, {"alias": "ramen", "title": "Ramen"}, {"alias": "sushi", "title": "Sushi Bars"}], "rating": 4.5, "coordinates": {"latitude": 40.7763615, "longitude": -73.95308}, "transactions": ["restaurant_reservation", "pickup", "delivery"], "price": "$$", "location": {"address1": "1611 2nd Ave", "address2": null, "address3": "", "city": "New York", "zip_code": "10028", "country": "US", "state": "NY", "display_address": ["1611 2nd Ave", "New York, NY 10028"]}, "phone": "+12128797999", "display_phone": "(212) 879-7999", "distance": 2362.5530682415965}, {"id": "I8lfxFF6ZfwAYbWBIwRSsA", "alias": "the-thonglor-new-york-new-york", "name": "The Thonglor New York", "image_url": "https://s3-media1.fl.yelpcdn.com/bphoto/xlslw-7bxAcbozbkqVCaEg/o.jpg", "is_closed": false, "url": "https://www.yelp.com/biz/the-thonglor-new-york-new-york?adjust_creative=9gNmiWYX8uTbFBeTTvJMdA&utm_campaign=yelp_api_v3&utm_medium=api_v3_business_search&utm_source=9gNmiWYX8uTbFBeTTvJMdA", "review_count": 117, "categories": [{"alias": "thai", "title": "Thai"}], "rating": 4.5, "coordinates": {"latitude": 40.76516, "longitude": -73.98795}, "transactions": ["pickup", "delivery"], "location": {"address1": "789 9th Ave", "address2": null, "address3": "", "city": "New York", "zip_code": "10019", "country": "US", "state": "NY", "display_address": ["789 9th Ave", "New York, NY 10019"]}, "phone": "+12125615692", "display_phone": "(212) 561-5692", "distance": 1696.8563910010766}, {"id": "z1OgXX3L9Ipl2mu-Hf4ADw", "alias": "viv-new-york-32", "name": "ViV", "image_url": "https://s3-media1.fl.yelpcdn.com/bphoto/-HcRhoHIXVjzUKMXj7vZYA/o.jpg", "is_closed": false, "url": "https://www.yelp.com/biz/viv-new-york-32?adjust_creative=9gNmiWYX8uTbFBeTTvJMdA&utm_campaign=yelp_api_v3&utm_medium=api_v3_business_search&utm_source=9gNmiWYX8uTbFBeTTvJMdA", "review_count": 1197, "categories": [{"alias": "thai", "title": "Thai"}, {"alias": "bars", "title": "Bars"}], "rating": 4.0, "coordinates": {"latitude": 40.76277, "longitude": -73.98969}, "transactions": ["pickup", "delivery"], "price": "$$", "location": {"address1": "717 9th Ave", "address2": "", "address3": "", "city": "New York", "zip_code": "10019", "country": "US", "state": "NY", "display_address": ["717 9th Ave", "New York, NY 10019"]}, "phone": "+12125815999", "display_phone": "(212) 581-5999", "distance": 1744.3913530092473}, {"id": "_Ge2eC89Z-jlaDDWglfT8g", "alias": "pa-pa-thai-cuisine-new-york", "name": "Pa Pa Thai Cuisine", "image_url": "https://s3-media4.fl.yelpcdn.com/bphoto/EYc2ycwlZ_wxNja7QhSKOw/o.jpg", "is_closed": false, "url": "https://www.yelp.com/biz/pa-pa-thai-cuisine-new-york?adjust_creative=9gNmiWYX8uTbFBeTTvJMdA&utm_campaign=yelp_api_v3&utm_medium=api_v3_business_search&utm_source=9gNmiWYX8uTbFBeTTvJMdA", "review_count": 284, "categories": [{"alias": "thai", "title": "Thai"}], "rating": 4.5, "coordinates": {"latitude": 40.759290482678686, "longitude": -73.9624154842934}, "transactions": ["pickup", "delivery"], "price": "$$", "location": {"address1": "1069 1st Ave", "address2": "", "address3": null, "city": "New York", "zip_code": "10022", "country": "US", "state": "NY", "display_address": ["1069 1st Ave", "New York, NY 10022"]}, "phone": "+12127529277", "display_phone": "(212) 752-9277", "distance": 603.065511170559}, {"id": "rKeLuHDI3PQZsPSVCEMHtw", "alias": "wondee-siam-new-york-3", "name": "Wondee Siam", "image_url": "https://s3-media1.fl.yelpcdn.com/bphoto/c9hvp3rX3Qd93lLtBzRt9A/o.jpg", "is_closed": false, "url": "https://www.yelp.com/biz/wondee-siam-new-york-3?adjust_creative=9gNmiWYX8uTbFBeTTvJMdA&utm_campaign=yelp_api_v3&utm_medium=api_v3_business_search&utm_source=9gNmiWYX8uTbFBeTTvJMdA", "review_count": 1140, "categories": [{"alias": "thai", "title": "Thai"}], "rating": 4.0, "coordinates": {"latitude": 40.76495, "longitude": -73.98747}, "transactions": ["pickup", "delivery"], "price": "$$", "location": {"address1": "792 9th Ave", "address2": "", "address3": "", "city": "New York", "zip_code": "10019", "country": "US", "state": "NY", "display_address": ["792 9th Ave", "New York, NY 10019"]}, "phone": "+12124599057", "display_phone": "(212) 459-9057", "distance": 1634.656878933234}, {"id": "TMmiudSEF1PIXb8usY5c0Q", "alias": "valla-table-new-york", "name": "Valla Table", "image_url": "https://s3-media3.fl.yelpcdn.com/bphoto/OhYz-NzYRdBUUQ043jhlmA/o.jpg", "is_closed": false, "url": "https://www.yelp.com/biz/valla-table-new-york?adjust_creative=9gNmiWYX8uTbFBeTTvJMdA&utm_campaign=yelp_api_v3&utm_medium=api_v3_business_search&utm_source=9gNmiWYX8uTbFBeTTvJMdA", "review_count": 202, "categories": [{"alias": "thai", "title": "Thai"}], "rating": 4.5, "coordinates": {"latitude": 40.7619, "longitude": -73.994186}, "transactions": ["pickup", "delivery"], "price": "$$", "location": {"address1": "641 10th Ave", "address2": null, "address3": "", "city": "New York", "zip_code": "10036", "country": "US", "state": "NY", "display_address": ["641 10th Ave", "New York, NY 10036"]}, "phone": "+12122454601", "display_phone": "(212) 245-4601", "distance": 2096.0699646800354}, {"id": "f4ZveYR7fuBp_9klL8OgYQ", "alias": "little-thai-kitchen-new-york", "name": "Little Thai Kitchen", "image_url": "https://s3-media1.fl.yelpcdn.com/bphoto/0VBhYbyasD4KDUwdTKq2tA/o.jpg", "is_closed": false, "url": "https://www.yelp.com/biz/little-thai-kitchen-new-york?adjust_creative=9gNmiWYX8uTbFBeTTvJMdA&utm_campaign=yelp_api_v3&utm_medium=api_v3_business_search&utm_source=9gNmiWYX8uTbFBeTTvJMdA", "review_count": 395, "categories": [{"alias": "thai", "title": "Thai"}], "rating": 3.5, "coordinates": {"latitude": 40.757359, "longitude": -73.968025}, "transactions": ["pickup", "delivery"], "price": "$$", "location": {"address1": "231 E 53rd St", "address2": "", "address3": "", "city": "New York", "zip_code": "10022", "country": "US", "state": "NY", "display_address": ["231 E 53rd St", "New York, NY 10022"]}, "phone": "+12126445353", "display_phone": "(212) 644-5353", "distance": 240.3822120208679}, {"id": "XgiG7K7ubHsj2JJ-c2sXnw", "alias": "thai-diner-new-york", "name": "Thai Diner", "image_url": "https://s3-media3.fl.yelpcdn.com/bphoto/ETLYsc6NuurL0X3aLpzrcw/o.jpg", "is_closed": false, "url": "https://www.yelp.com/biz/thai-diner-new-york?adjust_creative=9gNmiWYX8uTbFBeTTvJMdA&utm_campaign=yelp_api_v3&utm_medium=api_v3_business_search&utm_source=9gNmiWYX8uTbFBeTTvJMdA", "review_count": 590, "categories": [{"alias": "thai", "title": "Thai"}], "rating": 4.0, "coordinates": {"latitude": 40.72071042964739, "longitude": -73.9956057}, "transactions": ["delivery"], "price": "$$", "location": {"address1": "186 Mott St", "address2": null, "address3": null, "city": "New York", "zip_code": "10012", "country": "US", "state": "NY", "display_address": ["186 Mott St", "New York, NY 10012"]}, "phone": "+16465594140", "display_phone": "(646) 559-4140", "distance": 4806.555486042219}, {"id": "BF6pY829iPBERt15CG1g3w", "alias": "at-nine-restaurant-and-bar-new-york", "name": "At Nine Restaurant & Bar", "image_url": "https://s3-media2.fl.yelpcdn.com/bphoto/KuN4OJKZ2tlz-kQpw-G1uA/o.jpg", "is_closed": false, "url": "https://www.yelp.com/biz/at-nine-restaurant-and-bar-new-york?adjust_creative=9gNmiWYX8uTbFBeTTvJMdA&utm_campaign=yelp_api_v3&utm_medium=api_v3_business_search&utm_source=9gNmiWYX8uTbFBeTTvJMdA", "review_count": 596, "categories": [{"alias": "thai", "title": "Thai"}, {"alias": "bars", "title": "Bars"}], "rating": 4.0, "coordinates": {"latitude": 40.758697, "longitude": -73.992064}, "transactions": ["pickup", "delivery"], "price": "$$", "location": {"address1": "592 9th Ave", "address2": "", "address3": "", "city": "New York", "zip_code": "10036", "country": "US", "state": "NY", "display_address": ["592 9th Ave", "New York, NY 10036"]}, "phone": "+12122654499", "display_phone": "(212) 265-4499", "distance": 1894.9887885110136}, {"id": "qrydcGQpeDP_1oFvx3qOeg", "alias": "somtum-der-new-york", "name": "Somtum Der", "image_url": "https://s3-media1.fl.yelpcdn.com/bphoto/k1OUVohA7vdWxD5c5VPsLw/o.jpg", "is_closed": false, "url": "https://www.yelp.com/biz/somtum-der-new-york?adjust_creative=9gNmiWYX8uTbFBeTTvJMdA&utm_campaign=yelp_api_v3&utm_medium=api_v3_business_search&utm_source=9gNmiWYX8uTbFBeTTvJMdA", "review_count": 870, "categories": [{"alias": "thai", "title": "Thai"}], "rating": 4.0, "coordinates": {"latitude": 40.7252151982238, "longitude": -73.9842741682317}, "transactions": ["pickup", "delivery"], "price": "$$", "location": {"address1": "85 Ave A", "address2": "", "address3": "", "city": "New York", "zip_code": "10009", "country": "US", "state": "NY", "display_address": ["85 Ave A", "New York, NY 10009"]}, "phone": "+12122608570", "display_phone": "(212) 260-8570", "distance": 3974.021413929631}, {"id": "egDEaHpDumYHzRUZ8JBU-w", "alias": "pranakhon-thai-restaurant-new-york-2", "name": "Pranakhon Thai Restaurant", "image_url": "https://s3-media1.fl.yelpcdn.com/bphoto/M9xMNwGSaek8BbnqhlT3mQ/o.jpg", "is_closed": false, "url": "https://www.yelp.com/biz/pranakhon-thai-restaurant-new-york-2?adjust_creative=9gNmiWYX8uTbFBeTTvJMdA&utm_campaign=yelp_api_v3&utm_medium=api_v3_business_search&utm_source=9gNmiWYX8uTbFBeTTvJMdA", "review_count": 102, "categories": [{"alias": "thai", "title": "Thai"}, {"alias": "salad", "title": "Salad"}, {"alias": "noodles", "title": "Noodles"}], "rating": 4.5, "coordinates": {"latitude": 40.733804, "longitude": -73.993167}, "transactions": ["pickup", "delivery"], "location": {"address1": "88 University Pl", "address2": null, "address3": "", "city": "New York", "zip_code": "10003", "country": "US", "state": "NY", "display_address": ["88 University Pl", "New York, NY 10003"]}, "phone": "+12127866789", "display_phone": "(212) 786-6789", "distance": 3460.3531749984168}, {"id": "liZmIO0FqZwslLJfLDkfgw", "alias": "wayla-new-york", "name": "Wayla", "image_url": "https://s3-media2.fl.yelpcdn.com/bphoto/u17PWWBYzqe3p1uEPgKVuQ/o.jpg", "is_closed": false, "url": "https://www.yelp.com/biz/wayla-new-york?adjust_creative=9gNmiWYX8uTbFBeTTvJMdA&utm_campaign=yelp_api_v3&utm_medium=api_v3_business_search&utm_source=9gNmiWYX8uTbFBeTTvJMdA", "review_count": 582, "categories": [{"alias": "thai", "title": "Thai"}], "rating": 4.5, "coordinates": {"latitude": 40.7183, "longitude": -73.9926038}, "transactions": ["delivery"], "price": "$$$", "location": {"address1": "100 Forsyth St", "address2": "Basement", "address3": null, "city": "New York", "zip_code": "10002", "country": "US", "state": "NY", "display_address": ["100 Forsyth St", "Basement", "New York, NY 10002"]}, "phone": "+12122062500", "display_phone": "(212) 206-2500", "distance": 4941.890573369224}, {"id": "kZ5q8Uwxt3MpLcvxEdPeFg", "alias": "marwin-thai-restaurant-new-york", "name": "Marwin Thai Restaurant", "image_url": "https://s3-media1.fl.yelpcdn.com/bphoto/gB-etlHEDZcI-taADqWCiQ/o.jpg", "is_closed": false, "url": "https://www.yelp.com/biz/marwin-thai-restaurant-new-york?adjust_creative=9gNmiWYX8uTbFBeTTvJMdA&utm_campaign=yelp_api_v3&utm_medium=api_v3_business_search&utm_source=9gNmiWYX8uTbFBeTTvJMdA", "review_count": 75, "categories": [{"alias": "thai", "title": "Thai"}], "rating": 4.5, "coordinates": {"latitude": 40.76158, "longitude": -73.96032}, "transactions": ["delivery", "pickup"], "location": {"address1": "1132 1st Ave", "address2": null, "address3": "", "city": "New York", "zip_code": "10065", "country": "US", "state": "NY", "display_address": ["1132 1st Ave", "New York, NY 10065"]}, "phone": "+19176757698", "display_phone": "(917) 675-7698", "distance": 831.0927246870235}, {"id": "wEawMdWT7UtZjEmmMTBiGA", "alias": "saranrom-thai-elmhurst-2", "name": "Saranrom Thai", "image_url": "https://s3-media2.fl.yelpcdn.com/bphoto/_nwb8wzb44Ke4QmtsRA0Jg/o.jpg", "is_closed": false, "url": "https://www.yelp.com/biz/saranrom-thai-elmhurst-2?adjust_creative=9gNmiWYX8uTbFBeTTvJMdA&utm_campaign=yelp_api_v3&utm_medium=api_v3_business_search&utm_source=9gNmiWYX8uTbFBeTTvJMdA", "review_count": 122, "categories": [{"alias": "thai", "title": "Thai"}], "rating": 4.5, "coordinates": {"latitude": 40.743164864644704, "longitude": -73.88364848055883}, "transactions": ["pickup", "delivery"], "price": "$$", "location": {"address1": "8110 Broadway", "address2": null, "address3": "", "city": "Elmhurst", "zip_code": "11373", "country": "US", "state": "NY", "display_address": ["8110 Broadway", "Elmhurst, NY 11373"]}, "phone": "+13478080545", "display_phone": "(347) 808-0545", "distance": 7453.7131343598885}, {"id": "YS8pw7sYOBqaW23FCOqecg", "alias": "glur-thai-new-york", "name": "Glur Thai", "image_url": "https://s3-media1.fl.yelpcdn.com/bphoto/qVRmUeQWlYt71Rmnc4I7DQ/o.jpg", "is_closed": false, "url": "https://www.yelp.com/biz/glur-thai-new-york?adjust_creative=9gNmiWYX8uTbFBeTTvJMdA&utm_campaign=yelp_api_v3&utm_medium=api_v3_business_search&utm_source=9gNmiWYX8uTbFBeTTvJMdA", "review_count": 274, "categories": [{"alias": "thai", "title": "Thai"}, {"alias": "seafood", "title": "Seafood"}, {"alias": "noodles", "title": "Noodles"}], "rating": 4.5, "coordinates": {"latitude": 40.74121, "longitude": -73.99665}, "transactions": ["pickup", "delivery"], "price": "$$", "location": {"address1": "144 W 19th St", "address2": null, "address3": "", "city": "New York", "zip_code": "10011", "country": "US", "state": "NY", "display_address": ["144 W 19th St", "New York, NY 10011"]}, "phone": "+12127389898", "display_phone": "(212) 738-9898", "distance": 3044.768914324058}, {"id": "n7LORZ0fGxPhOfdlHYREKQ", "alias": "peak-thai-restaurant-new-york", "name": "Peak Thai Restaurant", "image_url": "https://s3-media3.fl.yelpcdn.com/bphoto/A9cD94U_7CZnF8Rp1BX4wg/o.jpg", "is_closed": false, "url": "https://www.yelp.com/biz/peak-thai-restaurant-new-york?adjust_creative=9gNmiWYX8uTbFBeTTvJMdA&utm_campaign=yelp_api_v3&utm_medium=api_v3_business_search&utm_source=9gNmiWYX8uTbFBeTTvJMdA", "review_count": 216, "categories": [{"alias": "thai", "title": "Thai"}], "rating": 3.5, "coordinates": {"latitude": 40.75417519999969, "longitude": -73.96850174724293}, "transactions": ["pickup", "delivery"], "price": "$$", "location": {"address1": "301 E 49th St", "address2": "", "address3": "", "city": "New York", "zip_code": "10017", "country": "US", "state": "NY", "display_address": ["301 E 49th St", "New York, NY 10017"]}, "phone": "+16464541333", "display_phone": "(646) 454-1333", "distance": 563.2072481405921}, {"id": "wGFSTTB6b4MHJJUzBnVJeg", "alias": "top-thai-greenwich-new-york", "name": "Top Thai Greenwich", "image_url": "https://s3-media4.fl.yelpcdn.com/bphoto/4xK8iIj2rZrRvP9MMG7yOA/o.jpg", "is_closed": false, "url": "https://www.yelp.com/biz/top-thai-greenwich-new-york?adjust_creative=9gNmiWYX8uTbFBeTTvJMdA&utm_campaign=yelp_api_v3&utm_medium=api_v3_business_search&utm_source=9gNmiWYX8uTbFBeTTvJMdA", "review_count": 1827, "categories": [{"alias": "thai", "title": "Thai"}, {"alias": "cocktailbars", "title": "Cocktail Bars"}, {"alias": "halal", "title": "Halal"}], "rating": 4.5, "coordinates": {"latitude": 40.729771, "longitude": -73.999392}, "transactions": ["pickup", "delivery"], "price": "$$", "location": {"address1": "235 Sullivan St", "address2": "", "address3": null, "city": "New York", "zip_code": "10012", "country": "US", "state": "NY", "display_address": ["235 Sullivan St", "New York, NY 10012"]}, "phone": "+16467264418", "display_phone": "(646) 726-4418", "distance": 4123.390017422002}, {"id": "HuUiXwo2rVKHZDwMeqNfQQ", "alias": "malii-gramercy-new-york", "name": "Malii Gramercy", "image_url": "https://s3-media1.fl.yelpcdn.com/bphoto/5cXaDqUopPzAtd0TrVdF0w/o.jpg", "is_closed": false, "url": "https://www.yelp.com/biz/malii-gramercy-new-york?adjust_creative=9gNmiWYX8uTbFBeTTvJMdA&utm_campaign=yelp_api_v3&utm_medium=api_v3_business_search&utm_source=9gNmiWYX8uTbFBeTTvJMdA", "review_count": 113, "categories": [{"alias": "thai", "title": "Thai"}], "rating": 4.5, "coordinates": {"latitude": 40.73767, "longitude": -73.98128}, "transactions": ["pickup", "delivery"], "price": "$$", "location": {"address1": "391 2nd Ave", "address2": null, "address3": "", "city": "New York", "zip_code": "10010", "country": "US", "state": "NY", "display_address": ["391 2nd Ave", "New York, NY 10010"]}, "phone": "+16469520078", "display_phone": "(646) 952-0078", "distance": 2583.969345055765}, {"id": "83BXSwE0166sObnXLUE4bQ", "alias": "land-new-york", "name": "Land", "image_url": "https://s3-media2.fl.yelpcdn.com/bphoto/ptDV_QtdeLeSvBZs-tTqWA/o.jpg", "is_closed": false, "url": "https://www.yelp.com/biz/land-new-york?adjust_creative=9gNmiWYX8uTbFBeTTvJMdA&utm_campaign=yelp_api_v3&utm_medium=api_v3_business_search&utm_source=9gNmiWYX8uTbFBeTTvJMdA", "review_count": 1119, "categories": [{"alias": "thai", "title": "Thai"}], "rating": 4.0, "coordinates": {"latitude": 40.78497, "longitude": -73.9772182}, "transactions": ["pickup", "delivery"], "price": "$$", "location": {"address1": "450 Amsterdam Ave", "address2": null, "address3": "", "city": "New York", "zip_code": "10024", "country": "US", "state": "NY", "display_address": ["450 Amsterdam Ave", "New York, NY 10024"]}, "phone": "+12125018121", "display_phone": "(212) 501-8121", "distance": 2939.64775101492}, {"id": "rCtsqHtOAOjZ7EUQDFRSbA", "alias": "pinto-garden-new-york-3", "name": "Pinto Garden", "image_url": "https://s3-media3.fl.yelpcdn.com/bphoto/Q4b5LKC2PGWMesBgDy85Cw/o.jpg", "is_closed": false, "url": "https://www.yelp.com/biz/pinto-garden-new-york-3?adjust_creative=9gNmiWYX8uTbFBeTTvJMdA&utm_campaign=yelp_api_v3&utm_medium=api_v3_business_search&utm_source=9gNmiWYX8uTbFBeTTvJMdA", "review_count": 431, "categories": [{"alias": "thai", "title": "Thai"}, {"alias": "breakfast_brunch", "title": "Breakfast & Brunch"}, {"alias": "venues", "title": "Venues & Event Spaces"}], "rating": 4.0, "coordinates": {"latitude": 40.734882, "longitude": -73.9994844}, "transactions": ["pickup", "delivery"], "price": "$$", "location": {"address1": "117 W 10th St", "address2": null, "address3": "", "city": "New York", "zip_code": "10011", "country": "US", "state": "NY", "display_address": ["117 W 10th St", "New York, NY 10011"]}, "phone": "+12123665455", "display_phone": "(212) 366-5455", "distance": 3693.970762730238}, {"id": "QCpJlezYJnkZYNat-XYXYw", "alias": "topaz-thai-authentic-new-york", "name": "Topaz Thai Authentic", "image_url": "https://s3-media3.fl.yelpcdn.com/bphoto/bd_UXd-ttSo1pOti1hq0MQ/o.jpg", "is_closed": false, "url": "https://www.yelp.com/biz/topaz-thai-authentic-new-york?adjust_creative=9gNmiWYX8uTbFBeTTvJMdA&utm_campaign=yelp_api_v3&utm_medium=api_v3_business_search&utm_source=9gNmiWYX8uTbFBeTTvJMdA", "review_count": 889, "categories": [{"alias": "thai", "title": "Thai"}, {"alias": "noodles", "title": "Noodles"}, {"alias": "soup", "title": "Soup"}], "rating": 3.5, "coordinates": {"latitude": 40.7644157409668, "longitude": -73.9789047241211}, "transactions": ["pickup", "delivery"], "price": "$$", "location": {"address1": "127 W 56th St", "address2": "", "address3": "", "city": "New York", "zip_code": "10019", "country": "US", "state": "NY", "display_address": ["127 W 56th St", "New York, NY 10019"]}, "phone": "+12129578020", "display_phone": "(212) 957-8020", "distance": 979.138782559636}, {"id": "a-Bq_yXFVk2PptoWpmry3w", "alias": "pye-boat-noodle-astoria", "name": "Pye Boat Noodle", "image_url": "https://s3-media1.fl.yelpcdn.com/bphoto/ipv6tPDqe6s7mVgqdGUObg/o.jpg", "is_closed": false, "url": "https://www.yelp.com/biz/pye-boat-noodle-astoria?adjust_creative=9gNmiWYX8uTbFBeTTvJMdA&utm_campaign=yelp_api_v3&utm_medium=api_v3_business_search&utm_source=9gNmiWYX8uTbFBeTTvJMdA", "review_count": 977, "categories": [{"alias": "thai", "title": "Thai"}, {"alias": "noodles", "title": "Noodles"}], "rating": 4.5, "coordinates": {"latitude": 40.76043, "longitude": -73.92152}, "transactions": ["delivery", "pickup"], "price": "$$", "location": {"address1": "35-13 Broadway", "address2": "", "address3": "", "city": "Astoria", "zip_code": "11106", "country": "US", "state": "NY", "display_address": ["35-13 Broadway", "Astoria, NY 11106"]}, "phone": "+17186852329", "display_phone": "(718) 685-2329", "distance": 4043.309439029156}, {"id": "coQAQmIKG9dBPA6-RHqJag", "alias": "wan-waan-new-york-2", "name": "Wan Waan", "image_url": "https://s3-media1.fl.yelpcdn.com/bphoto/GvglowD4t7LcZp6ujCay9A/o.jpg", "is_closed": false, "url": "https://www.yelp.com/biz/wan-waan-new-york-2?adjust_creative=9gNmiWYX8uTbFBeTTvJMdA&utm_campaign=yelp_api_v3&utm_medium=api_v3_business_search&utm_source=9gNmiWYX8uTbFBeTTvJMdA", "review_count": 167, "categories": [{"alias": "thai", "title": "Thai"}, {"alias": "seafood", "title": "Seafood"}, {"alias": "vegetarian", "title": "Vegetarian"}], "rating": 4.0, "coordinates": {"latitude": 40.74346, "longitude": -73.99947}, "transactions": ["restaurant_reservation", "pickup", "delivery"], "price": "$$", "location": {"address1": "200 8th Ave", "address2": "", "address3": null, "city": "New York", "zip_code": "10011", "country": "US", "state": "NY", "display_address": ["200 8th Ave", "New York, NY 10011"]}, "phone": "+16465908994", "display_phone": "(646) 590-8994", "distance": 3066.0736689463297}, {"id": "L2ZW-MdvRJ3gM2RIq8STbA", "alias": "thai72-new-york", "name": "Thai72", "image_url": "https://s3-media1.fl.yelpcdn.com/bphoto/wB3j5dPiZmPtGdxzfPCR8A/o.jpg", "is_closed": false, "url": "https://www.yelp.com/biz/thai72-new-york?adjust_creative=9gNmiWYX8uTbFBeTTvJMdA&utm_campaign=yelp_api_v3&utm_medium=api_v3_business_search&utm_source=9gNmiWYX8uTbFBeTTvJMdA", "review_count": 359, "categories": [{"alias": "thai", "title": "Thai"}, {"alias": "cocktailbars", "title": "Cocktail Bars"}], "rating": 4.0, "coordinates": {"latitude": 40.77763, "longitude": -73.98003}, "transactions": ["pickup", "delivery"], "price": "$$", "location": {"address1": "128 W 72nd St", "address2": "", "address3": null, "city": "New York", "zip_code": "10023", "country": "US", "state": "NY", "display_address": ["128 W 72nd St", "New York, NY 10023"]}, "phone": "+12124966153", "display_phone": "(212) 496-6153", "distance": 2232.9727777867643}, {"id": "oWBDdSamOzxMJzsD_-seXg", "alias": "noodies-new-york", "name": "Noodies", "image_url": "https://s3-media2.fl.yelpcdn.com/bphoto/qH3NrQitLG_b16ja96KOPg/o.jpg", "is_closed": false, "url": "https://www.yelp.com/biz/noodies-new-york?adjust_creative=9gNmiWYX8uTbFBeTTvJMdA&utm_campaign=yelp_api_v3&utm_medium=api_v3_business_search&utm_source=9gNmiWYX8uTbFBeTTvJMdA", "review_count": 566, "categories": [{"alias": "thai", "title": "Thai"}], "rating": 4.0, "coordinates": {"latitude": 40.7662850538302, "longitude": -73.9866788007826}, "transactions": ["pickup", "delivery"], "price": "$$", "location": {"address1": "830 9th Ave", "address2": "", "address3": "", "city": "New York", "zip_code": "10019", "country": "US", "state": "NY", "display_address": ["830 9th Ave", "New York, NY 10019"]}, "phone": "+16466697828", "display_phone": "(646) 669-7828", "distance": 1643.288267179513}, {"id": "WJS06XxRdc6DD1s4LWE9HA", "alias": "fish-cheeks-new-york", "name": "Fish Cheeks", "image_url": "https://s3-media2.fl.yelpcdn.com/bphoto/pqupe3fe52869QQ23KkiBg/o.jpg", "is_closed": false, "url": "https://www.yelp.com/biz/fish-cheeks-new-york?adjust_creative=9gNmiWYX8uTbFBeTTvJMdA&utm_campaign=yelp_api_v3&utm_medium=api_v3_business_search&utm_source=9gNmiWYX8uTbFBeTTvJMdA", "review_count": 1231, "categories": [{"alias": "seafood", "title": "Seafood"}, {"alias": "thai", "title": "Thai"}, {"alias": "raw_food", "title": "Live/Raw Food"}], "rating": 4.5, "coordinates": {"latitude": 40.7258, "longitude": -73.9927}, "transactions": ["delivery", "pickup"], "price": "$$", "location": {"address1": "55 Bond St", "address2": "", "address3": null, "city": "New York", "zip_code": "10012", "country": "US", "state": "NY", "display_address": ["55 Bond St", "New York, NY 10012"]}, "phone": "+12126772223", "display_phone": "(212) 677-2223", "distance": 4202.917090194035}, {"id": "fRO4Fwe5uRAajMcTwLbVkA", "alias": "ayada-thai-elmhurst-2", "name": "Ayada Thai", "image_url": "https://s3-media3.fl.yelpcdn.com/bphoto/7EFpM4m7dvvuBlNczuXpoQ/o.jpg", "is_closed": false, "url": "https://www.yelp.com/biz/ayada-thai-elmhurst-2?adjust_creative=9gNmiWYX8uTbFBeTTvJMdA&utm_campaign=yelp_api_v3&utm_medium=api_v3_business_search&utm_source=9gNmiWYX8uTbFBeTTvJMdA", "review_count": 1361, "categories": [{"alias": "thai", "title": "Thai"}], "rating": 4.0, "coordinates": {"latitude": 40.74344034310768, "longitude": -73.88762803704094}, "transactions": ["pickup", "delivery"], "price": "$$", "location": {"address1": "77-08 Woodside Ave", "address2": "", "address3": "", "city": "Elmhurst", "zip_code": "11373", "country": "US", "state": "NY", "display_address": ["77-08 Woodside Ave", "Elmhurst, NY 11373"]}, "phone": "+17184240844", "display_phone": "(718) 424-0844", "distance": 7121.041267008805}, {"id": "5-cv4xv4IBao7N1LSH6tHA", "alias": "der-krung-thai-cuisine-new-york-2", "name": "Der Krung Thai Cuisine", "image_url": "https://s3-media3.fl.yelpcdn.com/bphoto/z7W0orw-D0Zx_zX1k2f8zg/o.jpg", "is_closed": false, "url": "https://www.yelp.com/biz/der-krung-thai-cuisine-new-york-2?adjust_creative=9gNmiWYX8uTbFBeTTvJMdA&utm_campaign=yelp_api_v3&utm_medium=api_v3_business_search&utm_source=9gNmiWYX8uTbFBeTTvJMdA", "review_count": 276, "categories": [{"alias": "thai", "title": "Thai"}], "rating": 4.0, "coordinates": {"latitude": 40.7670715, "longitude": -73.9861371779099}, "transactions": ["delivery", "pickup"], "price": "$$", "location": {"address1": "860 9th Ave", "address2": null, "address3": "", "city": "New York", "zip_code": "10019", "country": "US", "state": "NY", "display_address": ["860 9th Ave", "New York, NY 10019"]}, "phone": "+12123972036", "display_phone": "(212) 397-2036", "distance": 1648.3182858642163}, {"id": "AILf_L7I9vJ2pyHmSo9v8Q", "alias": "obao-new-york-4", "name": "OBAO", "image_url": "https://s3-media2.fl.yelpcdn.com/bphoto/VR7GgeE5JEvtDI5LvW4-Sg/o.jpg", "is_closed": false, "url": "https://www.yelp.com/biz/obao-new-york-4?adjust_creative=9gNmiWYX8uTbFBeTTvJMdA&utm_campaign=yelp_api_v3&utm_medium=api_v3_business_search&utm_source=9gNmiWYX8uTbFBeTTvJMdA", "review_count": 1110, "categories": [{"alias": "asianfusion", "title": "Asian Fusion"}, {"alias": "thai", "title": "Thai"}, {"alias": "vietnamese", "title": "Vietnamese"}], "rating": 3.5, "coordinates": {"latitude": 40.75713, "longitude": -73.96857}, "transactions": ["pickup", "delivery"], "price": "$$", "location": {"address1": "222 E 53rd St", "address2": "", "address3": "", "city": "New York", "zip_code": "10022", "country": "US", "state": "NY", "display_address": ["222 E 53rd St", "New York, NY 10022"]}, "phone": "+12123085588", "display_phone": "(212) 308-5588", "distance": 240.6992336707681}, {"id": "ODJmiHFJoUuXJVlxGSX7Yw", "alias": "forever-thai-brooklyn-2", "name": "Forever Thai", "image_url": "https://s3-media3.fl.yelpcdn.com/bphoto/u1CPajeOgsTw_mcbCcJGWQ/o.jpg", "is_closed": false, "url": "https://www.yelp.com/biz/forever-thai-brooklyn-2?adjust_creative=9gNmiWYX8uTbFBeTTvJMdA&utm_campaign=yelp_api_v3&utm_medium=api_v3_business_search&utm_source=9gNmiWYX8uTbFBeTTvJMdA", "review_count": 101, "categories": [{"alias": "thai", "title": "Thai"}], "rating": 4.5, "coordinates": {"latitude": 40.7039938, "longitude": -73.9310911}, "transactions": ["pickup", "delivery"], "price": "$$", "location": {"address1": "1031 Flushing Ave", "address2": null, "address3": "", "city": "Brooklyn", "zip_code": "11237", "country": "US", "state": "NY", "display_address": ["1031 Flushing Ave", "Brooklyn, NY 11237"]}, "phone": "+13475990277", "display_phone": "(347) 599-0277", "distance": 6939.942467659246}, {"id": "oyxk3hv9F7dGZGARmNDSYg", "alias": "zoob-zib-thai-authentic-noodle-bar-new-york-2", "name": "Zoob Zib Thai Authentic Noodle Bar", "image_url": "https://s3-media1.fl.yelpcdn.com/bphoto/MAN0KAUF8f_ooZmgqfvVhw/o.jpg", "is_closed": false, "url": "https://www.yelp.com/biz/zoob-zib-thai-authentic-noodle-bar-new-york-2?adjust_creative=9gNmiWYX8uTbFBeTTvJMdA&utm_campaign=yelp_api_v3&utm_medium=api_v3_business_search&utm_source=9gNmiWYX8uTbFBeTTvJMdA", "review_count": 430, "categories": [{"alias": "thai", "title": "Thai"}, {"alias": "noodles", "title": "Noodles"}], "rating": 4.0, "coordinates": {"latitude": 40.75438, "longitude": -73.99536}, "transactions": ["pickup", "delivery"], "price": "$$", "location": {"address1": "460 9th Ave", "address2": "", "address3": "", "city": "New York", "zip_code": "10018", "country": "US", "state": "NY", "display_address": ["460 9th Ave", "New York, NY 10018"]}, "phone": "+12129718530", "display_phone": "(212) 971-8530", "distance": 2230.940642615525}, {"id": "cegA4jf16vEt7NCQ7cpu2w", "alias": "kind-fresh-meadows", "name": "Kin'd", "image_url": "https://s3-media2.fl.yelpcdn.com/bphoto/75GptlVgTc9HqZoyHdu8NQ/o.jpg", "is_closed": false, "url": "https://www.yelp.com/biz/kind-fresh-meadows?adjust_creative=9gNmiWYX8uTbFBeTTvJMdA&utm_campaign=yelp_api_v3&utm_medium=api_v3_business_search&utm_source=9gNmiWYX8uTbFBeTTvJMdA", "review_count": 1140, "categories": [{"alias": "thai", "title": "Thai"}], "rating": 4.5, "coordinates": {"latitude": 40.73025559436381, "longitude": -73.7784138}, "transactions": ["pickup", "delivery"], "price": "$$", "location": {"address1": "192-03 Union Tpke", "address2": "", "address3": null, "city": "Fresh Meadows", "zip_code": "11366", "country": "US", "state": "NY", "display_address": ["192-03 Union Tpke", "Fresh Meadows, NY 11366"]}, "phone": "+17184680888", "display_phone": "(718) 468-0888", "distance": 16422.003003361646}, {"id": "f7jZvRH-h76F4emzvKytaQ", "alias": "tuk-tuk-long-island-city", "name": "Tuk Tuk", "image_url": "https://s3-media1.fl.yelpcdn.com/bphoto/8Q8ojT6I_SyUYLTGSoFdyg/o.jpg", "is_closed": false, "url": "https://www.yelp.com/biz/tuk-tuk-long-island-city?adjust_creative=9gNmiWYX8uTbFBeTTvJMdA&utm_campaign=yelp_api_v3&utm_medium=api_v3_business_search&utm_source=9gNmiWYX8uTbFBeTTvJMdA", "review_count": 758, "categories": [{"alias": "thai", "title": "Thai"}], "rating": 4.0, "coordinates": {"latitude": 40.743232, "longitude": -73.954254}, "transactions": ["delivery", "pickup"], "price": "$$", "location": {"address1": "4906 Vernon Blvd", "address2": null, "address3": "", "city": "Long Island City", "zip_code": "11101", "country": "US", "state": "NY", "display_address": ["4906 Vernon Blvd", "Long Island City, NY 11101"]}, "phone": "+17184725598", "display_phone": "(718) 472-5598", "distance": 2193.4974381880984}, {"id": "3X6S6u_AtjumPPSu_-PDiw", "alias": "siam-thai-flushing", "name": "Siam Thai", "image_url": "https://s3-media3.fl.yelpcdn.com/bphoto/rtLvrqEuiQQcu57SrNI6mQ/o.jpg", "is_closed": false, "url": "https://www.yelp.com/biz/siam-thai-flushing?adjust_creative=9gNmiWYX8uTbFBeTTvJMdA&utm_campaign=yelp_api_v3&utm_medium=api_v3_business_search&utm_source=9gNmiWYX8uTbFBeTTvJMdA", "review_count": 172, "categories": [{"alias": "thai", "title": "Thai"}], "rating": 4.5, "coordinates": {"latitude": 40.763597, "longitude": -73.808092}, "transactions": ["pickup", "delivery"], "location": {"address1": "157-02 Northern Blvd", "address2": null, "address3": "", "city": "Flushing", "zip_code": "11354", "country": "US", "state": "NY", "display_address": ["157-02 Northern Blvd", "Flushing, NY 11354"]}, "phone": "+13474381161", "display_phone": "(347) 438-1161", "distance": 13606.152419874563}, {"id": "XlCaR9Q3fW37uhWuCx92mQ", "alias": "when-in-bangkok-flushing", "name": "When In Bangkok", "image_url": "https://s3-media1.fl.yelpcdn.com/bphoto/gG7ZCLGj_337Qt4LLQa2PA/o.jpg", "is_closed": false, "url": "https://www.yelp.com/biz/when-in-bangkok-flushing?adjust_creative=9gNmiWYX8uTbFBeTTvJMdA&utm_campaign=yelp_api_v3&utm_medium=api_v3_business_search&utm_source=9gNmiWYX8uTbFBeTTvJMdA", "review_count": 205, "categories": [{"alias": "thai", "title": "Thai"}, {"alias": "cocktailbars", "title": "Cocktail Bars"}, {"alias": "seafood", "title": "Seafood"}], "rating": 4.5, "coordinates": {"latitude": 40.76215, "longitude": -73.80427}, "transactions": ["pickup", "delivery"], "price": "$$", "location": {"address1": "161-16 Northern Blvd", "address2": null, "address3": "", "city": "Flushing", "zip_code": "11358", "country": "US", "state": "NY", "display_address": ["161-16 Northern Blvd", "Flushing, NY 11358"]}, "phone": "+19293622000", "display_phone": "(929) 362-2000", "distance": 13927.337921771175}, {"id": "_ucIHYqW0ZwAdzaEIYnnsA", "alias": "one-two-thai-new-york-2", "name": "One Two Thai", "image_url": "https://s3-media3.fl.yelpcdn.com/bphoto/dnbNdOhUD8vzX5J3PmBTVg/o.jpg", "is_closed": false, "url": "https://www.yelp.com/biz/one-two-thai-new-york-2?adjust_creative=9gNmiWYX8uTbFBeTTvJMdA&utm_campaign=yelp_api_v3&utm_medium=api_v3_business_search&utm_source=9gNmiWYX8uTbFBeTTvJMdA", "review_count": 181, "categories": [{"alias": "thai", "title": "Thai"}], "rating": 4.5, "coordinates": {"latitude": 40.745573, "longitude": -73.979451}, "transactions": ["pickup", "delivery"], "price": "$$", "location": {"address1": "153 E 33 St 10016", "address2": null, "address3": "", "city": "New York", "zip_code": "10016", "country": "US", "state": "NY", "display_address": ["153 E 33 St 10016", "New York, NY 10016"]}, "phone": "+16469186144", "display_phone": "(646) 918-6144", "distance": 1723.503108657526}], "total": 1700, "region": {"center": {"longitude": -73.96957397460938, "latitude": 40.75917470627005}}}