{"businesses": [{"id": "qfZFjUnekCQRvZaZJkOPog", "alias": "aiyara-thai-new-york", "name": "Aiyara Thai", "image_url": "https://s3-media4.fl.yelpcdn.com/bphoto/9XYP0oXUoIKWU7h9-Bpxcg/o.jpg", "is_closed": false, "url": "https://www.yelp.com/biz/aiyara-thai-new-york?adjust_creative=9gNmiWYX8uTbFBeTTvJMdA&utm_campaign=yelp_api_v3&utm_medium=api_v3_business_search&utm_source=9gNmiWYX8uTbFBeTTvJMdA", "review_count": 112, "categories": [{"alias": "thai", "title": "Thai"}], "rating": 4.0, "coordinates": {"latitude": 40.7550734744, "longitude": -73.9948672056}, "transactions": ["pickup", "delivery"], "price": "$$", "location": {"address1": "480 9th Ave", "address2": null, "address3": "", "city": "New York", "zip_code": "10018", "country": "US", "state": "NY", "display_address": ["480 9th Ave", "New York, NY 10018"]}, "phone": "+12125641822", "display_phone": "(212) 564-1822", "distance": 2178.6678671728555}, {"id": "eGIY_25KFspf8KefDQMj-Q", "alias": "lan-larb-new-york-2", "name": "Lan Larb", "image_url": "https://s3-media1.fl.yelpcdn.com/bphoto/KqhPzrcDeZUGj67IMTmK0w/o.jpg", "is_closed": false, "url": "https://www.yelp.com/biz/lan-larb-new-york-2?adjust_creative=9gNmiWYX8uTbFBeTTvJMdA&utm_campaign=yelp_api_v3&utm_medium=api_v3_business_search&utm_source=9gNmiWYX8uTbFBeTTvJMdA", "review_count": 346, "categories": [{"alias": "thai", "title": "Thai"}], "rating": 4.0, "coordinates": {"latitude": 40.745373, "longitude": -73.975807}, "transactions": ["pickup", "delivery"], "price": "$$", "location": {"address1": "637 2nd Ave", "address2": "", "address3": "", "city": "New York", "zip_code": "10016", "country": "US", "state": "NY", "display_address": ["637 2nd Ave", "New York, NY 10016"]}, "phone": "+12128891769", "display_phone": "(212) 889-1769", "distance": 1621.6781784867576}, {"id": "33ry5dmopDOElU7zf1Sn2w", "alias": "lan-larb-chiang-mai-new-york-3", "name": "Lan Larb Chiang Mai", "image_url": "https://s3-media2.fl.yelpcdn.com/bphoto/5oayC0-xuJPyXGCCr7SPyA/o.jpg", "is_closed": false, "url": "https://www.yelp.com/biz/lan-larb-chiang-mai-new-york-3?adjust_creative=9gNmiWYX8uTbFBeTTvJMdA&utm_campaign=yelp_api_v3&utm_medium=api_v3_business_search&utm_source=9gNmiWYX8uTbFBeTTvJMdA", "review_count": 278, "categories": [{"alias": "thai", "title": "Thai"}, {"alias": "noodles", "title": "Noodles"}], "rating": 4.0, "coordinates": {"latitude": 40.7199936, "longitude": -73.9985428}, "transactions": ["pickup", "delivery"], "price": "$$", "location": {"address1": "227 Centre St", "address2": "", "address3": "", "city": "New York", "zip_code": "10013", "country": "US", "state": "NY", "display_address": ["227 Centre St", "New York, NY 10013"]}, "phone": "+16468959264", "display_phone": "(646) 895-9264", "distance": 4989.88481096964}, {"id": "EbX_9tqAJs4gW51gZpOB7g", "alias": "rasa-new-york", "name": "Rasa", "image_url": "https://s3-media4.fl.yelpcdn.com/bphoto/3WhLSoWj5fByW_mH8t59uw/o.jpg", "is_closed": false, "url": "https://www.yelp.com/biz/rasa-new-york?adjust_creative=9gNmiWYX8uTbFBeTTvJMdA&utm_campaign=yelp_api_v3&utm_medium=api_v3_business_search&utm_source=9gNmiWYX8uTbFBeTTvJMdA", "review_count": 834, "categories": [{"alias": "malaysian", "title": "Malaysian"}, {"alias": "thai", "title": "Thai"}, {"alias": "halal", "title": "Halal"}], "rating": 4.0, "coordinates": {"latitude": 40.7327654, "longitude": -73.9975674}, "transactions": ["pickup", "delivery"], "price": "$$", "location": {"address1": "25 W 8th St", "address2": null, "address3": "", "city": "New York", "zip_code": "10011", "country": "US", "state": "NY", "display_address": ["25 W 8th St", "New York, NY 10011"]}, "phone": "+12122541888", "display_phone": "(212) 254-1888", "distance": 3766.264924561013}, {"id": "1ctLdRJjP9m5QdL7ruYAzA", "alias": "herbs-thai-bistro-new-york-2", "name": "Herbs Thai Bistro", "image_url": "https://s3-media1.fl.yelpcdn.com/bphoto/E80PQi9Av_dFBsl3R0t6CA/o.jpg", "is_closed": false, "url": "https://www.yelp.com/biz/herbs-thai-bistro-new-york-2?adjust_creative=9gNmiWYX8uTbFBeTTvJMdA&utm_campaign=yelp_api_v3&utm_medium=api_v3_business_search&utm_source=9gNmiWYX8uTbFBeTTvJMdA", "review_count": 216, "categories": [{"alias": "thai", "title": "Thai"}], "rating": 3.5, "coordinates": {"latitude": 40.75193, "longitude": -73.97099}, "transactions": ["pickup", "delivery"], "price": "$$", "location": {"address1": "251 E 45th St", "address2": "Ste 1", "address3": "", "city": "New York", "zip_code": "10017", "country": "US", "state": "NY", "display_address": ["251 E 45th St", "Ste 1", "New York, NY 10017"]}, "phone": "+12128089388", "display_phone": "(212) 808-9388", "distance": 813.1075263893149}, {"id": "3GMHPnrkFAcqffw3T7JSdQ", "alias": "kitchen-79-jackson-heights", "name": "Kitchen 79", "image_url": "https://s3-media3.fl.yelpcdn.com/bphoto/ip9F8-pOstZmt7_8T_46Jg/o.jpg", "is_closed": false, "url": "https://www.yelp.com/biz/kitchen-79-jackson-heights?adjust_creative=9gNmiWYX8uTbFBeTTvJMdA&utm_campaign=yelp_api_v3&utm_medium=api_v3_business_search&utm_source=9gNmiWYX8uTbFBeTTvJMdA", "review_count": 705, "categories": [{"alias": "thai", "title": "Thai"}], "rating": 4.5, "coordinates": {"latitude": 40.747551, "longitude": -73.8868866}, "transactions": ["pickup", "delivery"], "price": "$$", "location": {"address1": "37-70 79th St", "address2": "", "address3": "", "city": "Jackson Heights", "zip_code": "11372", "country": "US", "state": "NY", "display_address": ["37-70 79th St", "Jackson Heights, NY 11372"]}, "phone": "+17188036227", "display_phone": "(718) 803-6227", "distance": 7076.3409570685735}, {"id": "er4E7VCjDo0xE_IPu5o6Ig", "alias": "pongsri-thai-restaurant-new-york-2", "name": "Pongsri Thai Restaurant", "image_url": "https://s3-media1.fl.yelpcdn.com/bphoto/T5CySW1FnU4gLuS1JVMoAw/o.jpg", "is_closed": false, "url": "https://www.yelp.com/biz/pongsri-thai-restaurant-new-york-2?adjust_creative=9gNmiWYX8uTbFBeTTvJMdA&utm_campaign=yelp_api_v3&utm_medium=api_v3_business_search&utm_source=9gNmiWYX8uTbFBeTTvJMdA", "review_count": 548, "categories": [{"alias": "thai", "title": "Thai"}, {"alias": "bars", "title": "Bars"}], "rating": 3.5, "coordinates": {"latitude": 40.76071, "longitude": -73.98652}, "transactions": ["pickup", "delivery"], "price": "$$", "location": {"address1": "244 W 48th St", "address2": "", "address3": "", "city": "New York", "zip_code": "10036", "country": "US", "state": "NY", "display_address": ["244 W 48th St", "New York, NY 10036"]}, "phone": "+12125823392", "display_phone": "(212) 582-3392", "distance": 1440.4971476874848}, {"id": "jg5nc64wLYKwKAvz_lfMuA", "alias": "thai-at-lex-new-york-3", "name": "Thai At Lex", "image_url": "https://s3-media4.fl.yelpcdn.com/bphoto/e8eKWiAQeAtlaziOLr-rcw/o.jpg", "is_closed": false, "url": "https://www.yelp.com/biz/thai-at-lex-new-york-3?adjust_creative=9gNmiWYX8uTbFBeTTvJMdA&utm_campaign=yelp_api_v3&utm_medium=api_v3_business_search&utm_source=9gNmiWYX8uTbFBeTTvJMdA", "review_count": 237, "categories": [{"alias": "thai", "title": "Thai"}, {"alias": "noodles", "title": "Noodles"}, {"alias": "asianfusion", "title": "Asian Fusion"}], "rating": 3.5, "coordinates": {"latitude": 40.778142, "longitude": -73.956807}, "transactions": ["pickup", "delivery"], "price": "$$", "location": {"address1": "1244 Lexington Ave", "address2": "", "address3": "", "city": "New York", "zip_code": "10028", "country": "US", "state": "NY", "display_address": ["1244 Lexington Ave", "New York, NY 10028"]}, "phone": "+12122886060", "display_phone": "(212) 288-6060", "distance": 2366.687367566333}, {"id": "q2s4Whjr3FUB8wB_KrMudw", "alias": "purplethai-new-york", "name": "PurpleThai", "image_url": "https://s3-media4.fl.yelpcdn.com/bphoto/oG1P0b69_Qx_J3nawajnLw/o.jpg", "is_closed": false, "url": "https://www.yelp.com/biz/purplethai-new-york?adjust_creative=9gNmiWYX8uTbFBeTTvJMdA&utm_campaign=yelp_api_v3&utm_medium=api_v3_business_search&utm_source=9gNmiWYX8uTbFBeTTvJMdA", "review_count": 52, "categories": [{"alias": "thai", "title": "Thai"}, {"alias": "vegan", "title": "Vegan"}, {"alias": "vegetarian", "title": "Vegetarian"}], "rating": 4.0, "coordinates": {"latitude": 40.746322406761514, "longitude": -73.98828702364186}, "transactions": ["pickup", "delivery"], "price": "$$", "location": {"address1": "1204 Broadway", "address2": "", "address3": null, "city": "New York", "zip_code": "10001", "country": "US", "state": "NY", "display_address": ["1204 Broadway", "New York, NY 10001"]}, "phone": "+18887758424", "display_phone": "(888) 775-8424", "distance": 2127.6709514054055}, {"id": "9b_FvTUgkkUUMyL0nGhFtg", "alias": "three-roosters-new-york", "name": "Three Roosters", "image_url": "https://s3-media1.fl.yelpcdn.com/bphoto/lcTPPtgHBVQhM4ckgi-mXg/o.jpg", "is_closed": false, "url": "https://www.yelp.com/biz/three-roosters-new-york?adjust_creative=9gNmiWYX8uTbFBeTTvJMdA&utm_campaign=yelp_api_v3&utm_medium=api_v3_business_search&utm_source=9gNmiWYX8uTbFBeTTvJMdA", "review_count": 209, "categories": [{"alias": "thai", "title": "Thai"}, {"alias": "comfortfood", "title": "Comfort Food"}], "rating": 4.5, "coordinates": {"latitude": 40.764957, "longitude": -73.987485}, "transactions": ["pickup", "delivery"], "price": "$$", "location": {"address1": "792 9th Ave", "address2": null, "address3": "", "city": "New York", "zip_code": "10019", "country": "US", "state": "NY", "display_address": ["792 9th Ave", "New York, NY 10019"]}, "phone": "+19172614055", "display_phone": "(917) 261-4055", "distance": 1635.550097071587}, {"id": "HnTcWZbZJzNAYO8YseQlSQ", "alias": "zabb-putawn-new-york-2", "name": "Zabb PuTawn", "image_url": "https://s3-media3.fl.yelpcdn.com/bphoto/W0nz06jTqykAS6KG90VUAA/o.jpg", "is_closed": false, "url": "https://www.yelp.com/biz/zabb-putawn-new-york-2?adjust_creative=9gNmiWYX8uTbFBeTTvJMdA&utm_campaign=yelp_api_v3&utm_medium=api_v3_business_search&utm_source=9gNmiWYX8uTbFBeTTvJMdA", "review_count": 294, "categories": [{"alias": "thai", "title": "Thai"}], "rating": 4.5, "coordinates": {"latitude": 40.77446, "longitude": -73.95077}, "transactions": ["pickup", "delivery"], "price": "$$", "location": {"address1": "1584 First Av", "address2": "", "address3": "", "city": "New York", "zip_code": "10028", "country": "US", "state": "NY", "display_address": ["1584 First Av", "New York, NY 10028"]}, "phone": "+12129888800", "display_phone": "(212) 988-8800", "distance": 2321.9237707324414}, {"id": "BKMCAYb9EAivUm3p-vrC9w", "alias": "khe-yo-new-york", "name": "Khe-Yo", "image_url": "https://s3-media2.fl.yelpcdn.com/bphoto/siWSbjQJI7Rvgvc-aZJ6kA/o.jpg", "is_closed": false, "url": "https://www.yelp.com/biz/khe-yo-new-york?adjust_creative=9gNmiWYX8uTbFBeTTvJMdA&utm_campaign=yelp_api_v3&utm_medium=api_v3_business_search&utm_source=9gNmiWYX8uTbFBeTTvJMdA", "review_count": 940, "categories": [{"alias": "laotian", "title": "Laotian"}], "rating": 4.0, "coordinates": {"latitude": 40.716906, "longitude": -74.008587}, "transactions": ["pickup", "delivery"], "price": "$$", "location": {"address1": "157 Duane St", "address2": "", "address3": "", "city": "New York", "zip_code": "10013", "country": "US", "state": "NY", "display_address": ["157 Duane St", "New York, NY 10013"]}, "phone": "+12125871089", "display_phone": "(212) 587-1089", "distance": 5735.377743689821}, {"id": "O8i5XlvcfzH1q-wpfURrpg", "alias": "ayada-thai-chelsea-market-new-york-2", "name": "Ayada Thai - Chelsea Market", "image_url": "https://s3-media3.fl.yelpcdn.com/bphoto/RgOZSwewQXtaUEbASlRkBg/o.jpg", "is_closed": false, "url": "https://www.yelp.com/biz/ayada-thai-chelsea-market-new-york-2?adjust_creative=9gNmiWYX8uTbFBeTTvJMdA&utm_campaign=yelp_api_v3&utm_medium=api_v3_business_search&utm_source=9gNmiWYX8uTbFBeTTvJMdA", "review_count": 229, "categories": [{"alias": "thai", "title": "Thai"}], "rating": 4.5, "coordinates": {"latitude": 40.74268377235652, "longitude": -74.00618912427079}, "transactions": ["pickup", "delivery"], "price": "$$", "location": {"address1": "75 9th Ave", "address2": "", "address3": null, "city": "New York", "zip_code": "10011", "country": "US", "state": "NY", "display_address": ["75 9th Ave", "New York, NY 10011"]}, "phone": "+12126459445", "display_phone": "(212) 645-9445", "distance": 3588.2439365303962}, {"id": "7ztNVUAfAyJXQLGU9BkPiw", "alias": "topaz-thai-restaurant-belleville", "name": "Topaz Thai Restaurant", "image_url": "https://s3-media2.fl.yelpcdn.com/bphoto/L9WCWA6smP9R_xa6S_CKFg/o.jpg", "is_closed": false, "url": "https://www.yelp.com/biz/topaz-thai-restaurant-belleville?adjust_creative=9gNmiWYX8uTbFBeTTvJMdA&utm_campaign=yelp_api_v3&utm_medium=api_v3_business_search&utm_source=9gNmiWYX8uTbFBeTTvJMdA", "review_count": 509, "categories": [{"alias": "thai", "title": "Thai"}], "rating": 4.0, "coordinates": {"latitude": 40.785764, "longitude": -74.153591}, "transactions": ["pickup", "delivery"], "price": "$$", "location": {"address1": "137 Washington Ave", "address2": "", "address3": "", "city": "Belleville", "zip_code": "07109", "country": "US", "state": "NJ", "display_address": ["137 Washington Ave", "Belleville, NJ 07109"]}, "phone": "+19737597425", "display_phone": "(973) 759-7425", "distance": 15775.388783098697}, {"id": "CDa0GJZDMPcjvhbx7RbG5Q", "alias": "senn-thai-comfort-food-new-york", "name": "Senn Thai Comfort Food", "image_url": "https://s3-media1.fl.yelpcdn.com/bphoto/uSL9Ej-xH4AydfJz3dQ0cQ/o.jpg", "is_closed": false, "url": "https://www.yelp.com/biz/senn-thai-comfort-food-new-york?adjust_creative=9gNmiWYX8uTbFBeTTvJMdA&utm_campaign=yelp_api_v3&utm_medium=api_v3_business_search&utm_source=9gNmiWYX8uTbFBeTTvJMdA", "review_count": 330, "categories": [{"alias": "thai", "title": "Thai"}, {"alias": "noodles", "title": "Noodles"}, {"alias": "comfortfood", "title": "Comfort Food"}], "rating": 4.0, "coordinates": {"latitude": 40.7849945637664, "longitude": -73.9770103128512}, "transactions": ["pickup", "delivery"], "price": "$$", "location": {"address1": "452 Amsterdam Ave", "address2": "", "address3": "", "city": "New York", "zip_code": "10024", "country": "US", "state": "NY", "display_address": ["452 Amsterdam Ave", "New York, NY 10024"]}, "phone": "+12125017755", "display_phone": "(212) 501-7755", "distance": 2938.532564631857}, {"id": "ASOtb5PU_Swpl4IarYX-yw", "alias": "two-wheels-new-york-6", "name": "Two Wheels", "image_url": "https://s3-media2.fl.yelpcdn.com/bphoto/gfYL5n7kqC-BJwTNlGfDWw/o.jpg", "is_closed": false, "url": "https://www.yelp.com/biz/two-wheels-new-york-6?adjust_creative=9gNmiWYX8uTbFBeTTvJMdA&utm_campaign=yelp_api_v3&utm_medium=api_v3_business_search&utm_source=9gNmiWYX8uTbFBeTTvJMdA", "review_count": 8, "categories": [{"alias": "vietnamese", "title": "Vietnamese"}], "rating": 3.5, "coordinates": {"latitude": 40.76016, "longitude": -73.96983}, "transactions": ["pickup", "delivery"], "location": {"address1": "672 Lexington Ave", "address2": "", "address3": null, "city": "New York", "zip_code": "10022", "country": "US", "state": "NY", "display_address": ["672 Lexington Ave", "New York, NY 10022"]}, "phone": "+13472661754", "display_phone": "(347) 266-1754", "distance": 115.58260439957425}, {"id": "nxTEuWKzkK1tCF4LrhFSUQ", "alias": "pig-and-khao-new-york", "name": "Pig and Khao", "image_url": "https://s3-media3.fl.yelpcdn.com/bphoto/6P2qNEUVFVk26140LmAd8g/o.jpg", "is_closed": false, "url": "https://www.yelp.com/biz/pig-and-khao-new-york?adjust_creative=9gNmiWYX8uTbFBeTTvJMdA&utm_campaign=yelp_api_v3&utm_medium=api_v3_business_search&utm_source=9gNmiWYX8uTbFBeTTvJMdA", "review_count": 1853, "categories": [{"alias": "filipino", "title": "Filipino"}, {"alias": "thai", "title": "Thai"}, {"alias": "panasian", "title": "Pan Asian"}], "rating": 4.0, "coordinates": {"latitude": 40.71926, "longitude": -73.98475}, "transactions": ["pickup", "delivery"], "price": "$$$", "location": {"address1": "68 Clinton St", "address2": "", "address3": "", "city": "New York", "zip_code": "10002", "country": "US", "state": "NY", "display_address": ["68 Clinton St", "New York, NY 10002"]}, "phone": "+12129204485", "display_phone": "(212) 920-4485", "distance": 4618.284363848889}, {"id": "Q99VEcN9r1Qqmvnm5I03tw", "alias": "wau-new-york", "name": "WAU", "image_url": "https://s3-media2.fl.yelpcdn.com/bphoto/RY6MyeyBD6jPjUuAYLjeTA/o.jpg", "is_closed": false, "url": "https://www.yelp.com/biz/wau-new-york?adjust_creative=9gNmiWYX8uTbFBeTTvJMdA&utm_campaign=yelp_api_v3&utm_medium=api_v3_business_search&utm_source=9gNmiWYX8uTbFBeTTvJMdA", "review_count": 154, "categories": [{"alias": "malaysian", "title": "Malaysian"}, {"alias": "thai", "title": "Thai"}, {"alias": "cocktailbars", "title": "Cocktail Bars"}], "rating": 4.0, "coordinates": {"latitude": 40.78448, "longitude": -73.97776}, "transactions": ["pickup", "delivery"], "price": "$$", "location": {"address1": "434 Amsterdam Ave", "address2": null, "address3": null, "city": "New York", "zip_code": "10024", "country": "US", "state": "NY", "display_address": ["434 Amsterdam Ave", "New York, NY 10024"]}, "phone": "+19172615926", "display_phone": "(917) 261-5926", "distance": 2897.334127387087}, {"id": "X3T2rK-GrEgVUai-MeXAzg", "alias": "thongyib-thai-cart-new-york", "name": "Thongyib Thai Cart", "image_url": "https://s3-media3.fl.yelpcdn.com/bphoto/KtuFfjJsYzHQ_0tU5-gB-w/o.jpg", "is_closed": false, "url": "https://www.yelp.com/biz/thongyib-thai-cart-new-york?adjust_creative=9gNmiWYX8uTbFBeTTvJMdA&utm_campaign=yelp_api_v3&utm_medium=api_v3_business_search&utm_source=9gNmiWYX8uTbFBeTTvJMdA", "review_count": 21, "categories": [{"alias": "foodtrucks", "title": "Food Trucks"}, {"alias": "thai", "title": "Thai"}], "rating": 4.5, "coordinates": {"latitude": 40.7598555582005, "longitude": -73.9723258723791}, "transactions": [], "price": "$", "location": {"address1": "405 Park Ave", "address2": "", "address3": "", "city": "New York", "zip_code": "10022", "country": "US", "state": "NY", "display_address": ["405 Park Ave", "New York, NY 10022"]}, "phone": "+16462382391", "display_phone": "(646) 238-2391", "distance": 243.83025472006273}, {"id": "_c0MxccsmIBZcGLJpb4nSA", "alias": "nana-thai-street-new-york", "name": "NaNa Thai Street", "image_url": "https://s3-media2.fl.yelpcdn.com/bphoto/scVeDpNKRBwnA_5iQWggAw/o.jpg", "is_closed": false, "url": "https://www.yelp.com/biz/nana-thai-street-new-york?adjust_creative=9gNmiWYX8uTbFBeTTvJMdA&utm_campaign=yelp_api_v3&utm_medium=api_v3_business_search&utm_source=9gNmiWYX8uTbFBeTTvJMdA", "review_count": 185, "categories": [{"alias": "thai", "title": "Thai"}], "rating": 4.5, "coordinates": {"latitude": 40.73954, "longitude": -73.98854}, "transactions": ["pickup", "delivery"], "price": "$$", "location": {"address1": "31 E 21st St", "address2": null, "address3": "", "city": "New York", "zip_code": "10010", "country": "US", "state": "NY", "display_address": ["31 E 21st St", "New York, NY 10010"]}, "phone": "+12124207500", "display_phone": "(212) 420-7500", "distance": 2696.424858130716}, {"id": "UkA3V8itzKuBGZ9c7y989w", "alias": "jaiya-new-york-3", "name": "Jaiya", "image_url": "https://s3-media3.fl.yelpcdn.com/bphoto/Lz4s7NX48RsJhhkLP38LOQ/o.jpg", "is_closed": false, "url": "https://www.yelp.com/biz/jaiya-new-york-3?adjust_creative=9gNmiWYX8uTbFBeTTvJMdA&utm_campaign=yelp_api_v3&utm_medium=api_v3_business_search&utm_source=9gNmiWYX8uTbFBeTTvJMdA", "review_count": 881, "categories": [{"alias": "thai", "title": "Thai"}, {"alias": "cocktailbars", "title": "Cocktail Bars"}], "rating": 3.5, "coordinates": {"latitude": 40.742179, "longitude": -73.980915}, "transactions": ["pickup", "delivery"], "price": "$$", "location": {"address1": "396 3rd Ave", "address2": "", "address3": "", "city": "New York", "zip_code": "10016", "country": "US", "state": "NY", "display_address": ["396 3rd Ave", "New York, NY 10016"]}, "phone": "+12128891330", "display_phone": "(212) 889-1330", "distance": 2117.5750281327773}, {"id": "e64Y17DJgjotSz8B9gEI7Q", "alias": "ugly-baby-brooklyn-3", "name": "Ugly Baby", "image_url": "https://s3-media4.fl.yelpcdn.com/bphoto/eXoFQyWNREOUbBaPK2UrXA/o.jpg", "is_closed": false, "url": "https://www.yelp.com/biz/ugly-baby-brooklyn-3?adjust_creative=9gNmiWYX8uTbFBeTTvJMdA&utm_campaign=yelp_api_v3&utm_medium=api_v3_business_search&utm_source=9gNmiWYX8uTbFBeTTvJMdA", "review_count": 422, "categories": [{"alias": "thai", "title": "Thai"}, {"alias": "bars", "title": "Bars"}], "rating": 4.5, "coordinates": {"latitude": 40.67795, "longitude": -73.9961}, "transactions": ["delivery"], "price": "$$$", "location": {"address1": "407 Smith St", "address2": null, "address3": "", "city": "Brooklyn", "zip_code": "11231", "country": "US", "state": "NY", "display_address": ["407 Smith St", "Brooklyn, NY 11231"]}, "phone": "+13476893075", "display_phone": "(347) 689-3075", "distance": 9309.876468430495}, {"id": "dl4QvM8WAzATC7ChNIQh3g", "alias": "thank-you-come-again-new-york", "name": "Thank You Come Again", "image_url": "https://s3-media1.fl.yelpcdn.com/bphoto/I7Ne47IPQIj8JH4uqCBIMg/o.jpg", "is_closed": false, "url": "https://www.yelp.com/biz/thank-you-come-again-new-york?adjust_creative=9gNmiWYX8uTbFBeTTvJMdA&utm_campaign=yelp_api_v3&utm_medium=api_v3_business_search&utm_source=9gNmiWYX8uTbFBeTTvJMdA", "review_count": 11, "categories": [{"alias": "thai", "title": "Thai"}], "rating": 4.0, "coordinates": {"latitude": 40.75878, "longitude": -73.97048}, "transactions": ["pickup", "delivery"], "location": {"address1": "601 Lexington Ave", "address2": "", "address3": null, "city": "New York", "zip_code": "10022", "country": "US", "state": "NY", "display_address": ["601 Lexington Ave", "New York, NY 10022"]}, "phone": "", "display_phone": "", "distance": 94.68843484085015}, {"id": "TU_BU9HLflYI2xlyqVQdRA", "alias": "tao-uptown-new-york-2", "name": "TAO Uptown", "image_url": "https://s3-media4.fl.yelpcdn.com/bphoto/Hlkr0IJaok7ORA1TSurTnA/o.jpg", "is_closed": false, "url": "https://www.yelp.com/biz/tao-uptown-new-york-2?adjust_creative=9gNmiWYX8uTbFBeTTvJMdA&utm_campaign=yelp_api_v3&utm_medium=api_v3_business_search&utm_source=9gNmiWYX8uTbFBeTTvJMdA", "review_count": 2865, "categories": [{"alias": "asianfusion", "title": "Asian Fusion"}], "rating": 3.5, "coordinates": {"latitude": 40.76266943713004, "longitude": -73.97144107883544}, "transactions": ["pickup", "delivery"], "price": "$$$", "location": {"address1": "42 E 58th St", "address2": "", "address3": "", "city": "New York", "zip_code": "10022", "country": "US", "state": "NY", "display_address": ["42 E 58th St", "New York, NY 10022"]}, "phone": "+12128882288", "display_phone": "(212) 888-2288", "distance": 419.20829002506173}, {"id": "ZlUU_DPlJTBLyUpBL2niKw", "alias": "luscious-thai-new-york", "name": "Luscious Thai", "image_url": "https://s3-media3.fl.yelpcdn.com/bphoto/_UAkxDet3QxtoW2gxUOujA/o.jpg", "is_closed": false, "url": "https://www.yelp.com/biz/luscious-thai-new-york?adjust_creative=9gNmiWYX8uTbFBeTTvJMdA&utm_campaign=yelp_api_v3&utm_medium=api_v3_business_search&utm_source=9gNmiWYX8uTbFBeTTvJMdA", "review_count": 264, "categories": [{"alias": "thai", "title": "Thai"}, {"alias": "cocktailbars", "title": "Cocktail Bars"}], "rating": 4.0, "coordinates": {"latitude": 40.76047, "longitude": -73.96157}, "transactions": ["pickup", "delivery"], "price": "$$", "location": {"address1": "1099 1st Ave", "address2": null, "address3": "", "city": "New York", "zip_code": "10065", "country": "US", "state": "NY", "display_address": ["1099 1st Ave", "New York, NY 10065"]}, "phone": "+12128131188", "display_phone": "(212) 813-1188", "distance": 685.0176860756588}, {"id": "yQiII2hHgV5aEMtIA2VG0Q", "alias": "chai-thai-kitchen-new-york-10", "name": "Chai Thai Kitchen", "image_url": "https://s3-media2.fl.yelpcdn.com/bphoto/bZV16Y0e-ehVkCf2NZUxOw/o.jpg", "is_closed": false, "url": "https://www.yelp.com/biz/chai-thai-kitchen-new-york-10?adjust_creative=9gNmiWYX8uTbFBeTTvJMdA&utm_campaign=yelp_api_v3&utm_medium=api_v3_business_search&utm_source=9gNmiWYX8uTbFBeTTvJMdA", "review_count": 648, "categories": [{"alias": "thai", "title": "Thai"}], "rating": 3.5, "coordinates": {"latitude": 40.76541, "longitude": -73.98352}, "transactions": ["pickup", "delivery"], "price": "$$", "location": {"address1": "930 8th Ave", "address2": "", "address3": "", "city": "New York", "zip_code": "10019", "country": "US", "state": "NY", "display_address": ["930 8th Ave", "New York, NY 10019"]}, "phone": "+12127078778", "display_phone": "(212) 707-8778", "distance": 1361.887747971436}, {"id": "3VlnrxKnGKtVMBj8skQmKQ", "alias": "secret-thai-street-food-astoria", "name": "Secret Thai Street Food", "image_url": "https://s3-media4.fl.yelpcdn.com/bphoto/h27Ms2eFOZqTVtd-z3BCCA/o.jpg", "is_closed": false, "url": "https://www.yelp.com/biz/secret-thai-street-food-astoria?adjust_creative=9gNmiWYX8uTbFBeTTvJMdA&utm_campaign=yelp_api_v3&utm_medium=api_v3_business_search&utm_source=9gNmiWYX8uTbFBeTTvJMdA", "review_count": 5, "categories": [{"alias": "thai", "title": "Thai"}], "rating": 5.0, "coordinates": {"latitude": 40.762189, "longitude": -73.91668423297732}, "transactions": ["pickup", "delivery"], "location": {"address1": "30-72 Steinway St", "address2": null, "address3": "", "city": "Astoria", "zip_code": "11103", "country": "US", "state": "NY", "display_address": ["30-72 Steinway St", "Astoria, NY 11103"]}, "phone": "+13155702533", "display_phone": "(315) 570-2533", "distance": 4467.1645075742}, {"id": "NdfAypZmyfJk-nJIPaSx_g", "alias": "red-feather-new-york", "name": "Red Feather", "image_url": "https://s3-media3.fl.yelpcdn.com/bphoto/BMQPwg4j5yKrwno1DKQClg/o.jpg", "is_closed": false, "url": "https://www.yelp.com/biz/red-feather-new-york?adjust_creative=9gNmiWYX8uTbFBeTTvJMdA&utm_campaign=yelp_api_v3&utm_medium=api_v3_business_search&utm_source=9gNmiWYX8uTbFBeTTvJMdA", "review_count": 84, "categories": [{"alias": "asianfusion", "title": "Asian Fusion"}, {"alias": "cocktailbars", "title": "Cocktail Bars"}, {"alias": "breakfast_brunch", "title": "Breakfast & Brunch"}], "rating": 4.5, "coordinates": {"latitude": 40.72975, "longitude": -73.99893}, "transactions": ["pickup", "delivery"], "price": "$$", "location": {"address1": "82 W 3rd St", "address2": null, "address3": "", "city": "New York", "zip_code": "10012", "country": "US", "state": "NY", "display_address": ["82 W 3rd St", "New York, NY 10012"]}, "phone": "+16463604433", "display_phone": "(646) 360-4433", "distance": 4107.00133044915}, {"id": "ebhDBwRzD--eoiYcO8M18g", "alias": "pho-thai-lao-kitchen-maywood", "name": "Pho Thai Lao Kitchen", "image_url": "https://s3-media2.fl.yelpcdn.com/bphoto/QJxNtUa5gHm7Rcqy5y2dqA/o.jpg", "is_closed": false, "url": "https://www.yelp.com/biz/pho-thai-lao-kitchen-maywood?adjust_creative=9gNmiWYX8uTbFBeTTvJMdA&utm_campaign=yelp_api_v3&utm_medium=api_v3_business_search&utm_source=9gNmiWYX8uTbFBeTTvJMdA", "review_count": 358, "categories": [{"alias": "thai", "title": "Thai"}, {"alias": "laotian", "title": "Laotian"}], "rating": 4.0, "coordinates": {"latitude": 40.8956216750601, "longitude": -74.0658308645348}, "transactions": ["pickup", "delivery"], "price": "$$", "location": {"address1": "219 Maywood Ave", "address2": "", "address3": "", "city": "Maywood", "zip_code": "07607", "country": "US", "state": "NJ", "display_address": ["219 Maywood Ave", "Maywood, NJ 07607"]}, "phone": "+12017120700", "display_phone": "(201) 712-0700", "distance": 17198.50986831675}, {"id": "g7qtHQ_121mYWUdu3VWlrA", "alias": "tong-brooklyn", "name": "Tong", "image_url": "https://s3-media1.fl.yelpcdn.com/bphoto/k2TYQV3SbXlpTf4sblQn5A/o.jpg", "is_closed": false, "url": "https://www.yelp.com/biz/tong-brooklyn?adjust_creative=9gNmiWYX8uTbFBeTTvJMdA&utm_campaign=yelp_api_v3&utm_medium=api_v3_business_search&utm_source=9gNmiWYX8uTbFBeTTvJMdA", "review_count": 124, "categories": [{"alias": "thai", "title": "Thai"}, {"alias": "bars", "title": "Bars"}, {"alias": "tapasmallplates", "title": "Tapas/Small Plates"}], "rating": 4.5, "coordinates": {"latitude": 40.70788411187043, "longitude": -73.92058168413449}, "transactions": ["pickup", "delivery"], "location": {"address1": "321 Starr St", "address2": null, "address3": "", "city": "Brooklyn", "zip_code": "11237", "country": "US", "state": "NY", "display_address": ["321 Starr St", "Brooklyn, NY 11237"]}, "phone": "+17183660586", "display_phone": "(718) 366-0586", "distance": 7040.4127079109585}, {"id": "GQRNgvRLY6OhPs8BYTTYUw", "alias": "a-plus-thai-place-new-york", "name": "A Plus Thai Place", "image_url": "https://s3-media2.fl.yelpcdn.com/bphoto/IgAGxssMqXiHg4Fjb1tPMQ/o.jpg", "is_closed": false, "url": "https://www.yelp.com/biz/a-plus-thai-place-new-york?adjust_creative=9gNmiWYX8uTbFBeTTvJMdA&utm_campaign=yelp_api_v3&utm_medium=api_v3_business_search&utm_source=9gNmiWYX8uTbFBeTTvJMdA", "review_count": 224, "categories": [{"alias": "thai", "title": "Thai"}], "rating": 3.5, "coordinates": {"latitude": 40.757059, "longitude": -73.967248}, "transactions": ["pickup", "delivery"], "price": "$$", "location": {"address1": "1007 2nd Ave", "address2": "", "address3": "", "city": "New York", "zip_code": "10022", "country": "US", "state": "NY", "display_address": ["1007 2nd Ave", "New York, NY 10022"]}, "phone": "+12122078080", "display_phone": "(212) 207-8080", "distance": 306.1467790907173}, {"id": "CpY77cDN1KS5EdiXMmWovw", "alias": "house-of-thai-long-island-city-4", "name": "House of Thai", "image_url": "https://s3-media1.fl.yelpcdn.com/bphoto/1lCWa80nBumUuhM7S3Rn0g/o.jpg", "is_closed": false, "url": "https://www.yelp.com/biz/house-of-thai-long-island-city-4?adjust_creative=9gNmiWYX8uTbFBeTTvJMdA&utm_campaign=yelp_api_v3&utm_medium=api_v3_business_search&utm_source=9gNmiWYX8uTbFBeTTvJMdA", "review_count": 348, "categories": [{"alias": "thai", "title": "Thai"}], "rating": 4.0, "coordinates": {"latitude": 40.7535257695712, "longitude": -73.9377629319284}, "transactions": ["pickup", "delivery"], "price": "$$", "location": {"address1": "2501 40th Ave", "address2": "", "address3": "", "city": "Long Island City", "zip_code": "11101", "country": "US", "state": "NY", "display_address": ["2501 40th Ave", "Long Island City, NY 11101"]}, "phone": "+19295220247", "display_phone": "(929) 522-0247", "distance": 2752.0614485327774}, {"id": "sinDhwX8Egru_3FCI7bhkw", "alias": "laut-new-york", "name": "Laut", "image_url": "https://s3-media2.fl.yelpcdn.com/bphoto/ycjbwPjMeWmPOfHsjjSt7w/o.jpg", "is_closed": false, "url": "https://www.yelp.com/biz/laut-new-york?adjust_creative=9gNmiWYX8uTbFBeTTvJMdA&utm_campaign=yelp_api_v3&utm_medium=api_v3_business_search&utm_source=9gNmiWYX8uTbFBeTTvJMdA", "review_count": 1465, "categories": [{"alias": "thai", "title": "Thai"}, {"alias": "malaysian", "title": "Malaysian"}, {"alias": "singaporean", "title": "Singaporean"}], "rating": 3.5, "coordinates": {"latitude": 40.73756, "longitude": -73.9911}, "transactions": ["pickup", "delivery"], "price": "$$", "location": {"address1": "15 E 17th St", "address2": "", "address3": "", "city": "New York", "zip_code": "10003", "country": "US", "state": "NY", "display_address": ["15 E 17th St", "New York, NY 10003"]}, "phone": "+12122068989", "display_phone": "(212) 206-8989", "distance": 3005.103588694124}, {"id": "xJuKTbInUnTsLINLLH8ehw", "alias": "kru-brooklyn-2", "name": "KRU", "image_url": "https://s3-media4.fl.yelpcdn.com/bphoto/3plnj9XEh0l0C_i-ma318Q/o.jpg", "is_closed": false, "url": "https://www.yelp.com/biz/kru-brooklyn-2?adjust_creative=9gNmiWYX8uTbFBeTTvJMdA&utm_campaign=yelp_api_v3&utm_medium=api_v3_business_search&utm_source=9gNmiWYX8uTbFBeTTvJMdA", "review_count": 26, "categories": [{"alias": "thai", "title": "Thai"}, {"alias": "wine_bars", "title": "Wine Bars"}], "rating": 4.5, "coordinates": {"latitude": 40.72281573696329, "longitude": -73.9557975}, "transactions": [], "location": {"address1": "190 N 14th St", "address2": null, "address3": "", "city": "Brooklyn", "zip_code": "11249", "country": "US", "state": "NY", "display_address": ["190 N 14th St", "Brooklyn, NY 11249"]}, "phone": "", "display_phone": "", "distance": 4206.230937154484}, {"id": "nFszVPUX4tj-oarjfBO0nw", "alias": "klong-new-york", "name": "Klong", "image_url": "https://s3-media2.fl.yelpcdn.com/bphoto/H_RIlggX2VZgJ9dj3B_dpA/o.jpg", "is_closed": false, "url": "https://www.yelp.com/biz/klong-new-york?adjust_creative=9gNmiWYX8uTbFBeTTvJMdA&utm_campaign=yelp_api_v3&utm_medium=api_v3_business_search&utm_source=9gNmiWYX8uTbFBeTTvJMdA", "review_count": 1215, "categories": [{"alias": "thai", "title": "Thai"}], "rating": 4.0, "coordinates": {"latitude": 40.729507, "longitude": -73.989181}, "transactions": ["pickup", "delivery"], "price": "$$", "location": {"address1": "7 St Marks Pl", "address2": "", "address3": "", "city": "New York", "zip_code": "10003", "country": "US", "state": "NY", "display_address": ["7 St Marks Pl", "New York, NY 10003"]}, "phone": "+12125059955", "display_phone": "(212) 505-9955", "distance": 3679.944000612018}, {"id": "9IT7UsL-SGEz6ncR4oeJ9g", "alias": "tam-sang-thai-kitchen-new-york-2", "name": "Tam Sang Thai Kitchen", "image_url": "https://s3-media3.fl.yelpcdn.com/bphoto/JEp6l6fMfrsKO1DTzoxTEQ/o.jpg", "is_closed": false, "url": "https://www.yelp.com/biz/tam-sang-thai-kitchen-new-york-2?adjust_creative=9gNmiWYX8uTbFBeTTvJMdA&utm_campaign=yelp_api_v3&utm_medium=api_v3_business_search&utm_source=9gNmiWYX8uTbFBeTTvJMdA", "review_count": 138, "categories": [{"alias": "thai", "title": "Thai"}], "rating": 3.5, "coordinates": {"latitude": 40.74939, "longitude": -73.97738}, "transactions": ["pickup", "delivery"], "price": "$$", "location": {"address1": "331 Lexington Ave", "address2": null, "address3": "", "city": "New York", "zip_code": "10016", "country": "US", "state": "NY", "display_address": ["331 Lexington Ave", "New York, NY 10016"]}, "phone": "+12124990045", "display_phone": "(212) 499-0045", "distance": 1271.926078141077}, {"id": "EjuI8hyZO4jREWj3BTh8gw", "alias": "mr-khao-man-gai-long-island-city-2", "name": "Mr Khao Man Gai", "image_url": "https://s3-media4.fl.yelpcdn.com/bphoto/yQijrU8yb0_GY_h1sJBG7g/o.jpg", "is_closed": false, "url": "https://www.yelp.com/biz/mr-khao-man-gai-long-island-city-2?adjust_creative=9gNmiWYX8uTbFBeTTvJMdA&utm_campaign=yelp_api_v3&utm_medium=api_v3_business_search&utm_source=9gNmiWYX8uTbFBeTTvJMdA", "review_count": 37, "categories": [{"alias": "foodtrucks", "title": "Food Trucks"}, {"alias": "thai", "title": "Thai"}], "rating": 5.0, "coordinates": {"latitude": 40.74606, "longitude": -73.94842}, "transactions": [], "location": {"address1": null, "address2": null, "address3": null, "city": "Long Island City ", "zip_code": "11101", "country": "US", "state": "NY", "display_address": ["Long Island City , NY 11101"]}, "phone": "+13472606438", "display_phone": "(347) 260-6438", "distance": 2860.4295679087654}, {"id": "hA5QUlrSjpxMZ90Kof0bgA", "alias": "khao-kang-elmhurst", "name": "Khao Kang", "image_url": "https://s3-media3.fl.yelpcdn.com/bphoto/vfRK27R36XLI4wHpZr6bHQ/o.jpg", "is_closed": false, "url": "https://www.yelp.com/biz/khao-kang-elmhurst?adjust_creative=9gNmiWYX8uTbFBeTTvJMdA&utm_campaign=yelp_api_v3&utm_medium=api_v3_business_search&utm_source=9gNmiWYX8uTbFBeTTvJMdA", "review_count": 271, "categories": [{"alias": "thai", "title": "Thai"}], "rating": 4.0, "coordinates": {"latitude": 40.743269, "longitude": -73.888039}, "transactions": ["pickup", "delivery"], "price": "$", "location": {"address1": "7620 Woodside Ave", "address2": "", "address3": "", "city": "Elmhurst", "zip_code": "11373", "country": "US", "state": "NY", "display_address": ["7620 Woodside Ave", "Elmhurst, NY 11373"]}, "phone": "+17188061807", "display_phone": "(718) 806-1807", "distance": 7092.225537496399}, {"id": "T8WfkzuVi96qCpj1tWjlxw", "alias": "spice-new-york", "name": "Spice", "image_url": "https://s3-media1.fl.yelpcdn.com/bphoto/NpAL5ulcQ3wlWG2Hy2XZ6A/o.jpg", "is_closed": false, "url": "https://www.yelp.com/biz/spice-new-york?adjust_creative=9gNmiWYX8uTbFBeTTvJMdA&utm_campaign=yelp_api_v3&utm_medium=api_v3_business_search&utm_source=9gNmiWYX8uTbFBeTTvJMdA", "review_count": 1628, "categories": [{"alias": "thai", "title": "Thai"}, {"alias": "cocktailbars", "title": "Cocktail Bars"}], "rating": 3.5, "coordinates": {"latitude": 40.7345, "longitude": -73.9919}, "transactions": ["pickup", "delivery"], "price": "$$", "location": {"address1": "39 E 13th St", "address2": "", "address3": "", "city": "New York", "zip_code": "10003", "country": "US", "state": "NY", "display_address": ["39 E 13th St", "New York, NY 10003"]}, "phone": "+12129823758", "display_phone": "(212) 982-3758", "distance": 3320.9751847073876}, {"id": "bivrss06gT7E37A0RnnkTw", "alias": "bangrak-thai-restaurant-new-york", "name": "Bangrak - Thai Restaurant", "image_url": "https://s3-media2.fl.yelpcdn.com/bphoto/Askxgo5gHRsTSLTRP4CKgA/o.jpg", "is_closed": false, "url": "https://www.yelp.com/biz/bangrak-thai-restaurant-new-york?adjust_creative=9gNmiWYX8uTbFBeTTvJMdA&utm_campaign=yelp_api_v3&utm_medium=api_v3_business_search&utm_source=9gNmiWYX8uTbFBeTTvJMdA", "review_count": 26, "categories": [{"alias": "thai", "title": "Thai"}], "rating": 5.0, "coordinates": {"latitude": 40.78116, "longitude": -73.94913}, "transactions": ["pickup", "delivery"], "location": {"address1": "1750 2nd Ave", "address2": null, "address3": "", "city": "New York", "zip_code": "10128", "country": "US", "state": "NY", "display_address": ["1750 2nd Ave", "New York, NY 10128"]}, "phone": "+12122898889", "display_phone": "(212) 289-8889", "distance": 2988.854649593029}, {"id": "7Qvh0oFRsoqrO9qNlcMKXQ", "alias": "saigon-shack-new-york", "name": "Saigon Shack", "image_url": "https://s3-media3.fl.yelpcdn.com/bphoto/6Q3738yYHFPZeoo6WA9wHw/o.jpg", "is_closed": false, "url": "https://www.yelp.com/biz/saigon-shack-new-york?adjust_creative=9gNmiWYX8uTbFBeTTvJMdA&utm_campaign=yelp_api_v3&utm_medium=api_v3_business_search&utm_source=9gNmiWYX8uTbFBeTTvJMdA", "review_count": 2653, "categories": [{"alias": "vietnamese", "title": "Vietnamese"}, {"alias": "sandwiches", "title": "Sandwiches"}, {"alias": "coffee", "title": "Coffee & Tea"}], "rating": 4.0, "coordinates": {"latitude": 40.72969, "longitude": -74.000629}, "transactions": ["pickup", "delivery"], "price": "$$", "location": {"address1": "114 Macdougal St", "address2": "", "address3": "", "city": "New York", "zip_code": "10012", "country": "US", "state": "NY", "display_address": ["114 Macdougal St", "New York, NY 10012"]}, "phone": "+12122280588", "display_phone": "(212) 228-0588", "distance": 4194.451074092723}, {"id": "iUEvASoukxI6vrCYWYyK8g", "alias": "kati-shop-new-york-7", "name": "Kati Shop", "image_url": "https://s3-media2.fl.yelpcdn.com/bphoto/72p0dHR0AP6mQhymwU9G3w/o.jpg", "is_closed": false, "url": "https://www.yelp.com/biz/kati-shop-new-york-7?adjust_creative=9gNmiWYX8uTbFBeTTvJMdA&utm_campaign=yelp_api_v3&utm_medium=api_v3_business_search&utm_source=9gNmiWYX8uTbFBeTTvJMdA", "review_count": 198, "categories": [{"alias": "thai", "title": "Thai"}, {"alias": "gluten_free", "title": "Gluten-Free"}, {"alias": "salad", "title": "Salad"}], "rating": 4.5, "coordinates": {"latitude": 40.75899, "longitude": -73.96883}, "transactions": ["pickup", "delivery"], "price": "$$", "location": {"address1": "162 E 55th St", "address2": "", "address3": null, "city": "New York", "zip_code": "10022", "country": "US", "state": "NY", "display_address": ["162 E 55th St", "New York, NY 10022"]}, "phone": "+16468691362", "display_phone": "(646) 869-1362", "distance": 54.624284946980396}, {"id": "uazg6WhYVOw3jhWCG_MDBg", "alias": "sup-thai-kitchen-fresh-meadows", "name": "Sup Thai Kitchen ", "image_url": "https://s3-media1.fl.yelpcdn.com/bphoto/60kQrai3mu0F9k7yR_Ulwg/o.jpg", "is_closed": false, "url": "https://www.yelp.com/biz/sup-thai-kitchen-fresh-meadows?adjust_creative=9gNmiWYX8uTbFBeTTvJMdA&utm_campaign=yelp_api_v3&utm_medium=api_v3_business_search&utm_source=9gNmiWYX8uTbFBeTTvJMdA", "review_count": 553, "categories": [{"alias": "thai", "title": "Thai"}, {"alias": "seafood", "title": "Seafood"}, {"alias": "noodles", "title": "Noodles"}], "rating": 4.5, "coordinates": {"latitude": 40.72671, "longitude": -73.7893}, "transactions": ["pickup", "delivery"], "price": "$$", "location": {"address1": "178-19 Union Tpke", "address2": null, "address3": "", "city": "Fresh Meadows", "zip_code": "11366", "country": "US", "state": "NY", "display_address": ["178-19 Union Tpke", "Fresh Meadows, NY 11366"]}, "phone": "+17184874449", "display_phone": "(718) 487-4449", "distance": 15607.767538536054}, {"id": "S2b4gAh3Sr1sbNGaTna1Xw", "alias": "bangkok-garden-thai-restaurant-hackensack", "name": "Bangkok Garden Thai Restaurant", "image_url": "https://s3-media4.fl.yelpcdn.com/bphoto/5j_U1SfMY6ByigeBn9ZpzA/o.jpg", "is_closed": false, "url": "https://www.yelp.com/biz/bangkok-garden-thai-restaurant-hackensack?adjust_creative=9gNmiWYX8uTbFBeTTvJMdA&utm_campaign=yelp_api_v3&utm_medium=api_v3_business_search&utm_source=9gNmiWYX8uTbFBeTTvJMdA", "review_count": 438, "categories": [{"alias": "thai", "title": "Thai"}], "rating": 4.0, "coordinates": {"latitude": 40.8865743, "longitude": -74.041739}, "transactions": ["pickup", "delivery"], "price": "$$", "location": {"address1": "261 Main St", "address2": "", "address3": "", "city": "Hackensack", "zip_code": "07601", "country": "US", "state": "NJ", "display_address": ["261 Main St", "Hackensack, NJ 07601"]}, "phone": "+12014872620", "display_phone": "(201) 487-2620", "distance": 15412.769311104636}, {"id": "M-odQWSEfsR2mVEw7nKG-g", "alias": "nyonya-new-york", "name": "Nyonya", "image_url": "https://s3-media2.fl.yelpcdn.com/bphoto/YuWC1Gwo7ku4PvD-7mDQnA/o.jpg", "is_closed": false, "url": "https://www.yelp.com/biz/nyonya-new-york?adjust_creative=9gNmiWYX8uTbFBeTTvJMdA&utm_campaign=yelp_api_v3&utm_medium=api_v3_business_search&utm_source=9gNmiWYX8uTbFBeTTvJMdA", "review_count": 2325, "categories": [{"alias": "malaysian", "title": "Malaysian"}, {"alias": "chinese", "title": "Chinese"}], "rating": 4.0, "coordinates": {"latitude": 40.719116974367, "longitude": -73.9968322948353}, "transactions": ["delivery"], "price": "$$", "location": {"address1": "199 Grand St", "address2": "", "address3": "", "city": "New York", "zip_code": "10013", "country": "US", "state": "NY", "display_address": ["199 Grand St", "New York, NY 10013"]}, "phone": "+12123343669", "display_phone": "(212) 334-3669", "distance": 5017.679524808288}, {"id": "RdGWCbcxA79G1ZMPVL3SGQ", "alias": "nora-thai-brooklyn-4", "name": "Nora Thai", "image_url": "https://s3-media3.fl.yelpcdn.com/bphoto/QhmAmW3OUVX8FxXMEb__dA/o.jpg", "is_closed": false, "url": "https://www.yelp.com/biz/nora-thai-brooklyn-4?adjust_creative=9gNmiWYX8uTbFBeTTvJMdA&utm_campaign=yelp_api_v3&utm_medium=api_v3_business_search&utm_source=9gNmiWYX8uTbFBeTTvJMdA", "review_count": 131, "categories": [{"alias": "thai", "title": "Thai"}, {"alias": "lounges", "title": "Lounges"}, {"alias": "noodles", "title": "Noodles"}], "rating": 3.5, "coordinates": {"latitude": 40.71864, "longitude": -73.95625}, "transactions": ["pickup", "delivery"], "price": "$$", "location": {"address1": "176 N 9th St", "address2": null, "address3": "", "city": "Brooklyn", "zip_code": "11211", "country": "US", "state": "NY", "display_address": ["176 N 9th St", "Brooklyn, NY 11211"]}, "phone": "+17183021499", "display_phone": "(718) 302-1499", "distance": 4650.455217322642}, {"id": "SZQqAil4kuXhNCLR7_6khg", "alias": "playground-bar-and-bistro-and-taitoon-thai-karaoke-jackson-heights", "name": "Playground Bar & Bistro And Taitoon Thai Karaoke", "image_url": "https://s3-media2.fl.yelpcdn.com/bphoto/6J6Hl1n3Aor1rTvk1GCELA/o.jpg", "is_closed": false, "url": "https://www.yelp.com/biz/playground-bar-and-bistro-and-taitoon-thai-karaoke-jackson-heights?adjust_creative=9gNmiWYX8uTbFBeTTvJMdA&utm_campaign=yelp_api_v3&utm_medium=api_v3_business_search&utm_source=9gNmiWYX8uTbFBeTTvJMdA", "review_count": 228, "categories": [{"alias": "karaoke", "title": "Karaoke"}, {"alias": "thai", "title": "Thai"}, {"alias": "bars", "title": "Bars"}], "rating": 4.0, "coordinates": {"latitude": 40.746388, "longitude": -73.89379}, "transactions": [], "price": "$$", "location": {"address1": "7130 Roosevelt Ave", "address2": "", "address3": "", "city": "Jackson Heights", "zip_code": "11372", "country": "US", "state": "NY", "display_address": ["7130 Roosevelt Ave", "Jackson Heights, NY 11372"]}, "phone": "+17187797912", "display_phone": "(718) 779-7912", "distance": 6534.595362054739}, {"id": "d8lAkqk2w3Lp9uiI4svu6w", "alias": "thai-chella-new-york-2", "name": "Thai Chella", "image_url": "https://s3-media2.fl.yelpcdn.com/bphoto/Vp6kH5xuIcxQflkoIgBYhQ/o.jpg", "is_closed": false, "url": "https://www.yelp.com/biz/thai-chella-new-york-2?adjust_creative=9gNmiWYX8uTbFBeTTvJMdA&utm_campaign=yelp_api_v3&utm_medium=api_v3_business_search&utm_source=9gNmiWYX8uTbFBeTTvJMdA", "review_count": 111, "categories": [{"alias": "thai", "title": "Thai"}, {"alias": "noodles", "title": "Noodles"}], "rating": 4.0, "coordinates": {"latitude": 40.76256, "longitude": -73.98941}, "transactions": ["pickup", "delivery"], "price": "$$", "location": {"address1": "712 9th Ave", "address2": null, "address3": "", "city": "New York", "zip_code": "10019", "country": "US", "state": "NY", "display_address": ["712 9th Ave", "New York, NY 10019"]}, "phone": "+16468632226", "display_phone": "(646) 863-2226", "distance": 1713.2030771060768}, {"id": "p2zm0HnXZkI2yCAuYLb45g", "alias": "thai-market-new-york", "name": "Thai Market", "image_url": "https://s3-media1.fl.yelpcdn.com/bphoto/StF32ljho38Ynd1hLRZ6nA/o.jpg", "is_closed": false, "url": "https://www.yelp.com/biz/thai-market-new-york?adjust_creative=9gNmiWYX8uTbFBeTTvJMdA&utm_campaign=yelp_api_v3&utm_medium=api_v3_business_search&utm_source=9gNmiWYX8uTbFBeTTvJMdA", "review_count": 1090, "categories": [{"alias": "thai", "title": "Thai"}, {"alias": "noodles", "title": "Noodles"}, {"alias": "soup", "title": "Soup"}], "rating": 4.0, "coordinates": {"latitude": 40.80132, "longitude": -73.96529}, "transactions": ["pickup", "delivery"], "price": "$$", "location": {"address1": "960 Amsterdam Ave", "address2": "", "address3": "", "city": "New York", "zip_code": "10025", "country": "US", "state": "NY", "display_address": ["960 Amsterdam Ave", "New York, NY 10025"]}, "phone": "+12122804575", "display_phone": "(212) 280-4575", "distance": 4703.159895068273}, {"id": "6F7qKaZaAR9ukgvR0NKTBg", "alias": "zaab-zaab-elmhurst", "name": "Zaab Zaab", "image_url": "https://s3-media1.fl.yelpcdn.com/bphoto/OBFO5HtPlLIuYZe2NaRzUw/o.jpg", "is_closed": false, "url": "https://www.yelp.com/biz/zaab-zaab-elmhurst?adjust_creative=9gNmiWYX8uTbFBeTTvJMdA&utm_campaign=yelp_api_v3&utm_medium=api_v3_business_search&utm_source=9gNmiWYX8uTbFBeTTvJMdA", "review_count": 84, "categories": [{"alias": "thai", "title": "Thai"}, {"alias": "seafood", "title": "Seafood"}], "rating": 4.0, "coordinates": {"latitude": 40.74319, "longitude": -73.8886}, "transactions": ["pickup", "delivery"], "price": "$$", "location": {"address1": "76-04 Woodside Ave", "address2": "", "address3": null, "city": "Elmhurst", "zip_code": "11373", "country": "US", "state": "NY", "display_address": ["76-04 Woodside Ave", "Elmhurst, NY 11373"]}, "phone": "+16315261664", "display_phone": "(631) 526-1664", "distance": 7041.64897733915}], "total": 1700, "region": {"center": {"longitude": -73.96957397460938, "latitude": 40.75917470627005}}}