{"businesses": [{"id": "B0e6kXT0doU-n6EvMVGzQQ", "alias": "thai-me-brooklyn", "name": "Thai Me", "image_url": "https://s3-media3.fl.yelpcdn.com/bphoto/r62_Z9hGgki-MgAtZ9RcGg/o.jpg", "is_closed": false, "url": "https://www.yelp.com/biz/thai-me-brooklyn?adjust_creative=9gNmiWYX8uTbFBeTTvJMdA&utm_campaign=yelp_api_v3&utm_medium=api_v3_business_search&utm_source=9gNmiWYX8uTbFBeTTvJMdA", "review_count": 165, "categories": [{"alias": "thai", "title": "Thai"}, {"alias": "cocktailbars", "title": "Cocktail Bars"}, {"alias": "asianfusion", "title": "Asian Fusion"}], "rating": 3.5, "coordinates": {"latitude": 40.697306, "longitude": -73.936091}, "transactions": ["pickup", "delivery"], "price": "$$", "location": {"address1": "918 Broadway", "address2": null, "address3": "", "city": "Brooklyn", "zip_code": "11206", "country": "US", "state": "NY", "display_address": ["918 Broadway", "Brooklyn, NY 11206"]}, "phone": "+17189755190", "display_phone": "(718) 975-5190", "distance": 7435.572258434598}, {"id": "_HfPRP59incO6iTeZ-gNmw", "alias": "thai-love-you-queens", "name": "Thai Love You", "image_url": "https://s3-media4.fl.yelpcdn.com/bphoto/OUSK53tvOzWMbbdSO5qcsg/o.jpg", "is_closed": false, "url": "https://www.yelp.com/biz/thai-love-you-queens?adjust_creative=9gNmiWYX8uTbFBeTTvJMdA&utm_campaign=yelp_api_v3&utm_medium=api_v3_business_search&utm_source=9gNmiWYX8uTbFBeTTvJMdA", "review_count": 6, "categories": [{"alias": "thai", "title": "Thai"}, {"alias": "noodles", "title": "Noodles"}, {"alias": "coffee", "title": "Coffee & Tea"}], "rating": 4.5, "coordinates": {"latitude": 40.742022, "longitude": -73.874653}, "transactions": ["pickup", "delivery"], "location": {"address1": "90-19 Corona Ave", "address2": "", "address3": null, "city": "Queens", "zip_code": "11373", "country": "US", "state": "NY", "display_address": ["90-19 Corona Ave", "Queens, NY 11373"]}, "phone": "+17182556559", "display_phone": "(718) 255-6559", "distance": 8226.214151165714}, {"id": "fBQvUemE3OVI1NAZt5KDFA", "alias": "pho-saigon-hackensack", "name": "Pho Saigon", "image_url": "https://s3-media4.fl.yelpcdn.com/bphoto/fFIWtFqLkmKyFKLdK9JZtw/o.jpg", "is_closed": false, "url": "https://www.yelp.com/biz/pho-saigon-hackensack?adjust_creative=9gNmiWYX8uTbFBeTTvJMdA&utm_campaign=yelp_api_v3&utm_medium=api_v3_business_search&utm_source=9gNmiWYX8uTbFBeTTvJMdA", "review_count": 199, "categories": [{"alias": "vietnamese", "title": "Vietnamese"}, {"alias": "panasian", "title": "Pan Asian"}, {"alias": "soup", "title": "Soup"}], "rating": 4.0, "coordinates": {"latitude": 40.8876794664474, "longitude": -74.0409277752042}, "transactions": ["pickup", "delivery"], "price": "$$", "location": {"address1": "296 Main St", "address2": "", "address3": null, "city": "Hackensack", "zip_code": "07601", "country": "US", "state": "NJ", "display_address": ["296 Main St", "Hackensack, NJ 07601"]}, "phone": "+12013423490", "display_phone": "(201) 342-3490", "distance": 15499.20473399919}, {"id": "mFWOB5TqSF2MSKuACnt3kw", "alias": "h-and-i-express-thai-brooklyn", "name": "H&I Express Thai", "image_url": "https://s3-media4.fl.yelpcdn.com/bphoto/z03KXIR4JdZ_ma6UIP2TMg/o.jpg", "is_closed": false, "url": "https://www.yelp.com/biz/h-and-i-express-thai-brooklyn?adjust_creative=9gNmiWYX8uTbFBeTTvJMdA&utm_campaign=yelp_api_v3&utm_medium=api_v3_business_search&utm_source=9gNmiWYX8uTbFBeTTvJMdA", "review_count": 29, "categories": [{"alias": "thai", "title": "Thai"}, {"alias": "asianfusion", "title": "Asian Fusion"}, {"alias": "noodles", "title": "Noodles"}], "rating": 4.0, "coordinates": {"latitude": 40.701727, "longitude": -73.936639}, "transactions": ["pickup", "delivery"], "location": {"address1": "459 Bushwick Ave", "address2": null, "address3": "", "city": "Brooklyn", "zip_code": "11206", "country": "US", "state": "NY", "display_address": ["459 Bushwick Ave", "Brooklyn, NY 11206"]}, "phone": "+13472401155", "display_phone": "(347) 240-1155", "distance": 6962.765900508873}, {"id": "gcEMZjjqy5Ucnv_5Pv-q1g", "alias": "tasty-hand-pulled-noodles-ii-new-york", "name": "Tasty Hand Pulled Noodles II", "image_url": "https://s3-media4.fl.yelpcdn.com/bphoto/3nutnGLpt7Y9OBJlazJwiQ/o.jpg", "is_closed": false, "url": "https://www.yelp.com/biz/tasty-hand-pulled-noodles-ii-new-york?adjust_creative=9gNmiWYX8uTbFBeTTvJMdA&utm_campaign=yelp_api_v3&utm_medium=api_v3_business_search&utm_source=9gNmiWYX8uTbFBeTTvJMdA", "review_count": 386, "categories": [{"alias": "chinese", "title": "Chinese"}, {"alias": "noodles", "title": "Noodles"}], "rating": 4.0, "coordinates": {"latitude": 40.760537, "longitude": -73.990782}, "transactions": ["pickup", "delivery"], "price": "$$", "location": {"address1": "648 9th Ave", "address2": "", "address3": "", "city": "New York", "zip_code": "10036", "country": "US", "state": "NY", "display_address": ["648 9th Ave", "New York, NY 10036"]}, "phone": "+19173882351", "display_phone": "(917) 388-2351", "distance": 1792.6532753311192}, {"id": "kiKUF11kNgEnM__P11nrig", "alias": "tea-cup-cafe-elmhurst", "name": "Tea Cup Cafe", "image_url": "https://s3-media2.fl.yelpcdn.com/bphoto/TkDTjV0RKI6ix-ohuvBNYQ/o.jpg", "is_closed": false, "url": "https://www.yelp.com/biz/tea-cup-cafe-elmhurst?adjust_creative=9gNmiWYX8uTbFBeTTvJMdA&utm_campaign=yelp_api_v3&utm_medium=api_v3_business_search&utm_source=9gNmiWYX8uTbFBeTTvJMdA", "review_count": 157, "categories": [{"alias": "thai", "title": "Thai"}, {"alias": "bubbletea", "title": "Bubble Tea"}, {"alias": "noodles", "title": "Noodles"}], "rating": 4.0, "coordinates": {"latitude": 40.7440056330087, "longitude": -73.8885498046875}, "transactions": ["pickup", "delivery"], "price": "$", "location": {"address1": "76-23 Woodside Ave", "address2": "", "address3": "", "city": "Elmhurst", "zip_code": "11377", "country": "US", "state": "NY", "display_address": ["76-23 Woodside Ave", "Elmhurst, NY 11377"]}, "phone": "+17184262222", "display_phone": "(718) 426-2222", "distance": 7030.428502187761}, {"id": "ahWC_GUPWPMyYiSKsgBPiA", "alias": "lukes-lobster-upper-west-side-new-york", "name": "Luke's Lobster Upper West Side", "image_url": "https://s3-media1.fl.yelpcdn.com/bphoto/-3EgkuXeh3yV3STnIOAKLg/o.jpg", "is_closed": false, "url": "https://www.yelp.com/biz/lukes-lobster-upper-west-side-new-york?adjust_creative=9gNmiWYX8uTbFBeTTvJMdA&utm_campaign=yelp_api_v3&utm_medium=api_v3_business_search&utm_source=9gNmiWYX8uTbFBeTTvJMdA", "review_count": 736, "categories": [{"alias": "seafood", "title": "Seafood"}, {"alias": "soup", "title": "Soup"}, {"alias": "sandwiches", "title": "Sandwiches"}], "rating": 4.0, "coordinates": {"latitude": 40.78424, "longitude": -73.977868}, "transactions": ["pickup", "delivery"], "price": "$$", "location": {"address1": "426 Amsterdam Ave", "address2": "", "address3": "", "city": "New York", "zip_code": "10024", "country": "US", "state": "NY", "display_address": ["426 Amsterdam Ave", "New York, NY 10024"]}, "phone": "+12128778800", "display_phone": "(212) 877-8800", "distance": 2873.3102231537655}, {"id": "FQi7AP2j9UYc1c-VTF00rA", "alias": "wok-in-the-clouds-new-york", "name": "Wok In The Clouds", "image_url": "https://s3-media1.fl.yelpcdn.com/bphoto/unXNUyb8YeYChr5W6OkILw/o.jpg", "is_closed": false, "url": "https://www.yelp.com/biz/wok-in-the-clouds-new-york?adjust_creative=9gNmiWYX8uTbFBeTTvJMdA&utm_campaign=yelp_api_v3&utm_medium=api_v3_business_search&utm_source=9gNmiWYX8uTbFBeTTvJMdA", "review_count": 21, "categories": [{"alias": "asianfusion", "title": "Asian Fusion"}, {"alias": "indpak", "title": "Indian"}], "rating": 4.5, "coordinates": {"latitude": 40.7429, "longitude": -73.9828}, "transactions": ["pickup", "delivery"], "location": {"address1": "127 E 28th St", "address2": "", "address3": null, "city": "New York", "zip_code": "10016", "country": "US", "state": "NY", "display_address": ["127 E 28th St", "New York, NY 10016"]}, "phone": "+12127846498", "display_phone": "(212) 784-6498", "distance": 2117.0876808754956}, {"id": "No4ny0agfERlycMQwkLD4w", "alias": "purple-yam-brooklyn", "name": "Purple Yam", "image_url": "https://s3-media2.fl.yelpcdn.com/bphoto/8xCfg140KtKG9lfhv91JjA/o.jpg", "is_closed": false, "url": "https://www.yelp.com/biz/purple-yam-brooklyn?adjust_creative=9gNmiWYX8uTbFBeTTvJMdA&utm_campaign=yelp_api_v3&utm_medium=api_v3_business_search&utm_source=9gNmiWYX8uTbFBeTTvJMdA", "review_count": 456, "categories": [{"alias": "filipino", "title": "Filipino"}, {"alias": "asianfusion", "title": "Asian Fusion"}, {"alias": "korean", "title": "Korean"}], "rating": 3.5, "coordinates": {"latitude": 40.6402061280108, "longitude": -73.9656538486476}, "transactions": ["pickup", "delivery"], "price": "$$", "location": {"address1": "1314 Cortelyou Rd", "address2": "", "address3": "", "city": "Brooklyn", "zip_code": "11226", "country": "US", "state": "NY", "display_address": ["1314 Cortelyou Rd", "Brooklyn, NY 11226"]}, "phone": "+17189408188", "display_phone": "(718) 940-8188", "distance": 13232.814811918259}, {"id": "Ka27FAW9hMJktYdiKZcqdw", "alias": "mr-buncha-sunnyside", "name": "Mr.Buncha", "image_url": "https://s3-media2.fl.yelpcdn.com/bphoto/_Zlvb6ghFHO_D04z3YAG2A/o.jpg", "is_closed": false, "url": "https://www.yelp.com/biz/mr-buncha-sunnyside?adjust_creative=9gNmiWYX8uTbFBeTTvJMdA&utm_campaign=yelp_api_v3&utm_medium=api_v3_business_search&utm_source=9gNmiWYX8uTbFBeTTvJMdA", "review_count": 70, "categories": [{"alias": "bubbletea", "title": "Bubble Tea"}, {"alias": "desserts", "title": "Desserts"}, {"alias": "asianfusion", "title": "Asian Fusion"}], "rating": 4.5, "coordinates": {"latitude": 40.74329321703039, "longitude": -73.9242541}, "transactions": ["pickup", "delivery"], "price": "$", "location": {"address1": "4509 40th St", "address2": null, "address3": "", "city": "Sunnyside", "zip_code": "11104", "country": "US", "state": "NY", "display_address": ["4509 40th St", "Sunnyside, NY 11104"]}, "phone": "+17182556534", "display_phone": "(718) 255-6534", "distance": 4206.215359551744}, {"id": "P_UREWCQxEYVbBa-KW_Wew", "alias": "en-japanese-brasserie-new-york", "name": "EN Japanese Brasserie", "image_url": "https://s3-media1.fl.yelpcdn.com/bphoto/aMJpRaVJy9exBnoRzZpTNw/o.jpg", "is_closed": false, "url": "https://www.yelp.com/biz/en-japanese-brasserie-new-york?adjust_creative=9gNmiWYX8uTbFBeTTvJMdA&utm_campaign=yelp_api_v3&utm_medium=api_v3_business_search&utm_source=9gNmiWYX8uTbFBeTTvJMdA", "review_count": 1345, "categories": [{"alias": "japanese", "title": "Japanese"}, {"alias": "sushi", "title": "Sushi Bars"}, {"alias": "bars", "title": "Bars"}], "rating": 4.0, "coordinates": {"latitude": 40.7306, "longitude": -74.00698}, "transactions": ["pickup", "delivery"], "price": "$$$", "location": {"address1": "435 Hudson St", "address2": "", "address3": "", "city": "New York", "zip_code": "10014", "country": "US", "state": "NY", "display_address": ["435 Hudson St", "New York, NY 10014"]}, "phone": "+12126479196", "display_phone": "(212) 647-9196", "distance": 4483.616864722416}, {"id": "YvhVIOCXT8X71nkAy388Lg", "alias": "lily-thai-brooklyn", "name": "Lily Thai", "image_url": "https://s3-media3.fl.yelpcdn.com/bphoto/O0WjsxHLGeV74rCQdI90ng/o.jpg", "is_closed": false, "url": "https://www.yelp.com/biz/lily-thai-brooklyn?adjust_creative=9gNmiWYX8uTbFBeTTvJMdA&utm_campaign=yelp_api_v3&utm_medium=api_v3_business_search&utm_source=9gNmiWYX8uTbFBeTTvJMdA", "review_count": 228, "categories": [{"alias": "thai", "title": "Thai"}], "rating": 3.5, "coordinates": {"latitude": 40.7114199, "longitude": -73.9476}, "transactions": ["pickup", "delivery"], "price": "$$", "location": {"address1": "615 Grand St", "address2": null, "address3": "", "city": "Brooklyn", "zip_code": "11211", "country": "US", "state": "NY", "display_address": ["615 Grand St", "Brooklyn, NY 11211"]}, "phone": "+17182187522", "display_phone": "(718) 218-7522", "distance": 5620.580025777254}, {"id": "7Q9qE3nxgJaUjrF8Iy_34Q", "alias": "bia-brooklyn", "name": "Bia", "image_url": "https://s3-media2.fl.yelpcdn.com/bphoto/bP_w3UrJdvpXTJG6X9u7RA/o.jpg", "is_closed": false, "url": "https://www.yelp.com/biz/bia-brooklyn?adjust_creative=9gNmiWYX8uTbFBeTTvJMdA&utm_campaign=yelp_api_v3&utm_medium=api_v3_business_search&utm_source=9gNmiWYX8uTbFBeTTvJMdA", "review_count": 223, "categories": [{"alias": "bars", "title": "Bars"}, {"alias": "vietnamese", "title": "Vietnamese"}], "rating": 3.5, "coordinates": {"latitude": 40.7113004, "longitude": -73.965945}, "transactions": ["pickup"], "price": "$$", "location": {"address1": "67 S 6th St", "address2": null, "address3": "", "city": "Brooklyn", "zip_code": "11211", "country": "US", "state": "NY", "display_address": ["67 S 6th St", "Brooklyn, NY 11211"]}, "phone": "+17183880908", "display_phone": "(718) 388-0908", "distance": 5332.148008393349}, {"id": "owKe1hapqCCLnme2Xr3mrA", "alias": "spice-noodle-new-york-3", "name": "Spice Noodle", "image_url": "https://s3-media2.fl.yelpcdn.com/bphoto/gFYkx41cu6Vmz88tTIAeaA/o.jpg", "is_closed": false, "url": "https://www.yelp.com/biz/spice-noodle-new-york-3?adjust_creative=9gNmiWYX8uTbFBeTTvJMdA&utm_campaign=yelp_api_v3&utm_medium=api_v3_business_search&utm_source=9gNmiWYX8uTbFBeTTvJMdA", "review_count": 66, "categories": [{"alias": "vietnamese", "title": "Vietnamese"}, {"alias": "chinese", "title": "Chinese"}], "rating": 3.0, "coordinates": {"latitude": 40.786726, "longitude": -73.949952}, "transactions": ["pickup", "delivery"], "price": "$", "location": {"address1": "1509 Lexington Ave", "address2": null, "address3": null, "city": "New York", "zip_code": "10029", "country": "US", "state": "NY", "display_address": ["1509 Lexington Ave", "New York, NY 10029"]}, "phone": "+12123695019", "display_phone": "(212) 369-5019", "distance": 3480.7474395789704}, {"id": "XghOzJn16M-nvaKMOdC5og", "alias": "verlaine-new-york-2", "name": "Verlaine", "image_url": "https://s3-media1.fl.yelpcdn.com/bphoto/nhYw6SOnjsiqJfw7r4eEng/o.jpg", "is_closed": false, "url": "https://www.yelp.com/biz/verlaine-new-york-2?adjust_creative=9gNmiWYX8uTbFBeTTvJMdA&utm_campaign=yelp_api_v3&utm_medium=api_v3_business_search&utm_source=9gNmiWYX8uTbFBeTTvJMdA", "review_count": 1496, "categories": [{"alias": "tapasmallplates", "title": "Tapas/Small Plates"}, {"alias": "cocktailbars", "title": "Cocktail Bars"}, {"alias": "vietnamese", "title": "Vietnamese"}], "rating": 4.0, "coordinates": {"latitude": 40.720079, "longitude": -73.987785}, "transactions": ["pickup"], "price": "$$", "location": {"address1": "110 Rivington St", "address2": "", "address3": "", "city": "New York", "zip_code": "10002", "country": "US", "state": "NY", "display_address": ["110 Rivington St", "New York, NY 10002"]}, "phone": "+12126142493", "display_phone": "(212) 614-2493", "distance": 4610.046150806455}, {"id": "YDZX2bJ1IyV0lunBYqbb4w", "alias": "new-chinatown-asian-cuisine-bar-new-york", "name": "New Chinatown  Asian Cuisine/ Bar", "image_url": "https://s3-media3.fl.yelpcdn.com/bphoto/RulCaaSt28wkdGLVmIOP4A/o.jpg", "is_closed": false, "url": "https://www.yelp.com/biz/new-chinatown-asian-cuisine-bar-new-york?adjust_creative=9gNmiWYX8uTbFBeTTvJMdA&utm_campaign=yelp_api_v3&utm_medium=api_v3_business_search&utm_source=9gNmiWYX8uTbFBeTTvJMdA", "review_count": 4, "categories": [{"alias": "asianfusion", "title": "Asian Fusion"}, {"alias": "thai", "title": "Thai"}, {"alias": "chinese", "title": "Chinese"}], "rating": 4.5, "coordinates": {"latitude": 40.782945, "longitude": -73.95132}, "transactions": ["restaurant_reservation"], "location": {"address1": "1650 3rd Ave", "address2": null, "address3": "", "city": "New York", "zip_code": "10128", "country": "US", "state": "NY", "display_address": ["1650 3rd Ave", "New York, NY 10128"]}, "phone": "+12125208124", "display_phone": "(212) 520-8124", "distance": 3060.887030268738}, {"id": "fqr2YzqzG7q1ZsuP2klxww", "alias": "luna-asian-bistro-and-lounge-astoria", "name": "LUNA  Asian Bistro & Lounge", "image_url": "https://s3-media4.fl.yelpcdn.com/bphoto/RF0yJ0nyzfXw7w3YG0g4Pw/o.jpg", "is_closed": false, "url": "https://www.yelp.com/biz/luna-asian-bistro-and-lounge-astoria?adjust_creative=9gNmiWYX8uTbFBeTTvJMdA&utm_campaign=yelp_api_v3&utm_medium=api_v3_business_search&utm_source=9gNmiWYX8uTbFBeTTvJMdA", "review_count": 363, "categories": [{"alias": "lounges", "title": "Lounges"}, {"alias": "sushi", "title": "Sushi Bars"}, {"alias": "japanese", "title": "Japanese"}], "rating": 4.0, "coordinates": {"latitude": 40.7573, "longitude": -73.92068}, "transactions": ["pickup", "delivery"], "price": "$$", "location": {"address1": "32-72 Steinway St", "address2": null, "address3": "", "city": "Astoria", "zip_code": "11103", "country": "US", "state": "NY", "display_address": ["32-72 Steinway St", "Astoria, NY 11103"]}, "phone": "+19178327911", "display_phone": "(917) 832-7911", "distance": 4131.244234555555}, {"id": "Clumryf360iOnwpZ2ML8aw", "alias": "sushi-you-new-york", "name": "Sushi You", "image_url": "https://s3-media3.fl.yelpcdn.com/bphoto/1pw9KM3pMPrMs4l_ex8hXA/o.jpg", "is_closed": false, "url": "https://www.yelp.com/biz/sushi-you-new-york?adjust_creative=9gNmiWYX8uTbFBeTTvJMdA&utm_campaign=yelp_api_v3&utm_medium=api_v3_business_search&utm_source=9gNmiWYX8uTbFBeTTvJMdA", "review_count": 282, "categories": [{"alias": "sushi", "title": "Sushi Bars"}, {"alias": "japanese", "title": "Japanese"}], "rating": 4.0, "coordinates": {"latitude": 40.755555, "longitude": -73.968736}, "transactions": ["pickup", "delivery"], "price": "$$", "location": {"address1": "246 E 51st St", "address2": null, "address3": "", "city": "New York", "zip_code": "10022", "country": "US", "state": "NY", "display_address": ["246 E 51st St", "New York, NY 10022"]}, "phone": "+12127522987", "display_phone": "(212) 752-2987", "distance": 407.7168677408673}, {"id": "5AD9nY8UrYlCVMb3Y6KeWg", "alias": "bonchon-new-york-17", "name": "Bonchon", "image_url": "https://s3-media2.fl.yelpcdn.com/bphoto/floO-t61es28R-O78pj17w/o.jpg", "is_closed": false, "url": "https://www.yelp.com/biz/bonchon-new-york-17?adjust_creative=9gNmiWYX8uTbFBeTTvJMdA&utm_campaign=yelp_api_v3&utm_medium=api_v3_business_search&utm_source=9gNmiWYX8uTbFBeTTvJMdA", "review_count": 1090, "categories": [{"alias": "korean", "title": "Korean"}, {"alias": "chicken_wings", "title": "Chicken Wings"}, {"alias": "asianfusion", "title": "Asian Fusion"}], "rating": 3.5, "coordinates": {"latitude": 40.75383867, "longitude": -73.98911659}, "transactions": ["pickup", "delivery"], "price": "$$", "location": {"address1": "207 W 38th St", "address2": "", "address3": "", "city": "New York", "zip_code": "10018", "country": "US", "state": "NY", "display_address": ["207 W 38th St", "New York, NY 10018"]}, "phone": "+12122213339", "display_phone": "(212) 221-3339", "distance": 1749.7290127891529}, {"id": "OVAV0k2O1kqeuRFyt95qzg", "alias": "ma-kin-middle-village-3", "name": "Ma Kin", "image_url": "https://s3-media1.fl.yelpcdn.com/bphoto/fS4YaEDkCFICRFsESwRjTA/o.jpg", "is_closed": false, "url": "https://www.yelp.com/biz/ma-kin-middle-village-3?adjust_creative=9gNmiWYX8uTbFBeTTvJMdA&utm_campaign=yelp_api_v3&utm_medium=api_v3_business_search&utm_source=9gNmiWYX8uTbFBeTTvJMdA", "review_count": 131, "categories": [{"alias": "thai", "title": "Thai"}, {"alias": "noodles", "title": "Noodles"}], "rating": 4.0, "coordinates": {"latitude": 40.7130368, "longitude": -73.8775219}, "transactions": ["pickup", "delivery"], "location": {"address1": "7419 Metropolitan Ave", "address2": "", "address3": null, "city": "Middle Village", "zip_code": "11379", "country": "US", "state": "NY", "display_address": ["7419 Metropolitan Ave", "Middle Village, NY 11379"]}, "phone": "+13475071234", "display_phone": "(347) 507-1234", "distance": 9299.56198124183}, {"id": "S7ivv5O0beH3U9cV3cRD_Q", "alias": "jujube-tree-astoria", "name": "Jujube Tree", "image_url": "https://s3-media4.fl.yelpcdn.com/bphoto/SlDciDQrgQ5kMtLJPk6cmA/o.jpg", "is_closed": false, "url": "https://www.yelp.com/biz/jujube-tree-astoria?adjust_creative=9gNmiWYX8uTbFBeTTvJMdA&utm_campaign=yelp_api_v3&utm_medium=api_v3_business_search&utm_source=9gNmiWYX8uTbFBeTTvJMdA", "review_count": 427, "categories": [{"alias": "vegan", "title": "Vegan"}, {"alias": "asianfusion", "title": "Asian Fusion"}], "rating": 4.5, "coordinates": {"latitude": 40.76512, "longitude": -73.91821}, "transactions": ["pickup", "delivery"], "price": "$$", "location": {"address1": "35-02 30th Ave", "address2": "", "address3": "", "city": "Astoria", "zip_code": "11103", "country": "US", "state": "NY", "display_address": ["35-02 30th Ave", "Astoria, NY 11103"]}, "phone": "+17185451888", "display_phone": "(718) 545-1888", "distance": 4376.905196863845}, {"id": "pXxBeKXDgcNSioo-3ysMcg", "alias": "wild-ginger-new-york-5", "name": "Wild Ginger", "image_url": "", "is_closed": false, "url": "https://www.yelp.com/biz/wild-ginger-new-york-5?adjust_creative=9gNmiWYX8uTbFBeTTvJMdA&utm_campaign=yelp_api_v3&utm_medium=api_v3_business_search&utm_source=9gNmiWYX8uTbFBeTTvJMdA", "review_count": 1, "categories": [{"alias": "chinese", "title": "Chinese"}, {"alias": "thai", "title": "Thai"}], "rating": 5.0, "coordinates": {"latitude": 40.743969, "longitude": -73.984268}, "transactions": [], "location": {"address1": "46 E 29th St", "address2": "", "address3": "", "city": "New York", "zip_code": "10016", "country": "US", "state": "NY", "display_address": ["46 E 29th St", "New York, NY 10016"]}, "phone": "+12126863949", "display_phone": "(212) 686-3949", "distance": 2095.420585243519}, {"id": "gJSX5IDyhjeMjz9IS2DIwQ", "alias": "veggie-heaven-teaneck", "name": "Veggie Heaven", "image_url": "https://s3-media2.fl.yelpcdn.com/bphoto/NW4RjIPHpxBvreqnaAqwSA/o.jpg", "is_closed": false, "url": "https://www.yelp.com/biz/veggie-heaven-teaneck?adjust_creative=9gNmiWYX8uTbFBeTTvJMdA&utm_campaign=yelp_api_v3&utm_medium=api_v3_business_search&utm_source=9gNmiWYX8uTbFBeTTvJMdA", "review_count": 554, "categories": [{"alias": "vegetarian", "title": "Vegetarian"}, {"alias": "kosher", "title": "Kosher"}, {"alias": "vegan", "title": "Vegan"}], "rating": 4.5, "coordinates": {"latitude": 40.889845, "longitude": -74.023091}, "transactions": ["pickup", "delivery"], "price": "$$", "location": {"address1": "473 Cedar Ln", "address2": "", "address3": "", "city": "Teaneck", "zip_code": "07666", "country": "US", "state": "NJ", "display_address": ["473 Cedar Ln", "Teaneck, NJ 07666"]}, "phone": "+12018360887", "display_phone": "(201) 836-0887", "distance": 15169.561456589594}, {"id": "Nnuz_Ic0IdWOUbl64r4Hkg", "alias": "fonda-park-slope-brooklyn", "name": "Fonda Park Slope", "image_url": "https://s3-media2.fl.yelpcdn.com/bphoto/kBNaxAn_5EjultMjBRqf5w/o.jpg", "is_closed": false, "url": "https://www.yelp.com/biz/fonda-park-slope-brooklyn?adjust_creative=9gNmiWYX8uTbFBeTTvJMdA&utm_campaign=yelp_api_v3&utm_medium=api_v3_business_search&utm_source=9gNmiWYX8uTbFBeTTvJMdA", "review_count": 898, "categories": [{"alias": "mexican", "title": "Mexican"}, {"alias": "salad", "title": "Salad"}, {"alias": "breakfast_brunch", "title": "Breakfast & Brunch"}], "rating": 4.0, "coordinates": {"latitude": 40.663631439209, "longitude": -73.9846343994141}, "transactions": ["pickup", "delivery"], "price": "$$", "location": {"address1": "434 7th Ave", "address2": "", "address3": "", "city": "Brooklyn", "zip_code": "11215", "country": "US", "state": "NY", "display_address": ["434 7th Ave", "Brooklyn, NY 11215"]}, "phone": "+17183693144", "display_phone": "(718) 369-3144", "distance": 10699.610106727594}, {"id": "iYFauSnqLxvr4HTY_cIElg", "alias": "little-mo-brooklyn", "name": "Little Mo", "image_url": "https://s3-media4.fl.yelpcdn.com/bphoto/fp2ve--yKQZ4gqZiGvnrUg/o.jpg", "is_closed": false, "url": "https://www.yelp.com/biz/little-mo-brooklyn?adjust_creative=9gNmiWYX8uTbFBeTTvJMdA&utm_campaign=yelp_api_v3&utm_medium=api_v3_business_search&utm_source=9gNmiWYX8uTbFBeTTvJMdA", "review_count": 366, "categories": [{"alias": "sandwiches", "title": "Sandwiches"}, {"alias": "vietnamese", "title": "Vietnamese"}, {"alias": "cambodian", "title": "Cambodian"}], "rating": 4.0, "coordinates": {"latitude": 40.69701, "longitude": -73.93368}, "transactions": ["pickup", "delivery"], "price": "$$", "location": {"address1": "1158 Myrtle Ave", "address2": "", "address3": "", "city": "Brooklyn", "zip_code": "11221", "country": "US", "state": "NY", "display_address": ["1158 Myrtle Ave", "Brooklyn, NY 11221"]}, "phone": "+19292108100", "display_phone": "(929) 210-8100", "distance": 7545.158187066141}, {"id": "wQxJkDpO3kOSBRSsRi3CaA", "alias": "jade-eatery-and-lounge-forest-hills", "name": "Jade Eatery And Lounge", "image_url": "https://s3-media2.fl.yelpcdn.com/bphoto/SieOHRaEqxv-uSDaXpfawA/o.jpg", "is_closed": false, "url": "https://www.yelp.com/biz/jade-eatery-and-lounge-forest-hills?adjust_creative=9gNmiWYX8uTbFBeTTvJMdA&utm_campaign=yelp_api_v3&utm_medium=api_v3_business_search&utm_source=9gNmiWYX8uTbFBeTTvJMdA", "review_count": 784, "categories": [{"alias": "asianfusion", "title": "Asian Fusion"}, {"alias": "sushi", "title": "Sushi Bars"}, {"alias": "japanese", "title": "Japanese"}], "rating": 3.5, "coordinates": {"latitude": 40.718933, "longitude": -73.845291}, "transactions": ["pickup", "delivery"], "price": "$$", "location": {"address1": "1 Station Sq", "address2": "Ste 2", "address3": "", "city": "Forest Hills", "zip_code": "11375", "country": "US", "state": "NY", "display_address": ["1 Station Sq", "Ste 2", "Forest Hills, NY 11375"]}, "phone": "+17187932203", "display_phone": "(718) 793-2203", "distance": 11387.016063526255}, {"id": "Pr-q47vsmM4aoc2t_Sfk8w", "alias": "momofuku-noodle-bar-uptown-new-york", "name": "Momofuku Noodle Bar - Uptown", "image_url": "https://s3-media4.fl.yelpcdn.com/bphoto/h08ukV9YwJXhQBT2kvCCIg/o.jpg", "is_closed": false, "url": "https://www.yelp.com/biz/momofuku-noodle-bar-uptown-new-york?adjust_creative=9gNmiWYX8uTbFBeTTvJMdA&utm_campaign=yelp_api_v3&utm_medium=api_v3_business_search&utm_source=9gNmiWYX8uTbFBeTTvJMdA", "review_count": 515, "categories": [{"alias": "newamerican", "title": "American (New)"}, {"alias": "noodles", "title": "Noodles"}, {"alias": "ramen", "title": "Ramen"}], "rating": 4.0, "coordinates": {"latitude": 40.76802583631109, "longitude": -73.9829243}, "transactions": [], "price": "$$", "location": {"address1": "10 Columbus Cir", "address2": "Third Floor", "address3": null, "city": "New York", "zip_code": "10019", "country": "US", "state": "NY", "display_address": ["10 Columbus Cir", "Third Floor", "New York, NY 10019"]}, "phone": "", "display_phone": "", "distance": 1494.271067117931}, {"id": "zdB4nA0Xpyxhi5oIt6wVng", "alias": "joju-new-york-2", "name": "JoJu", "image_url": "https://s3-media2.fl.yelpcdn.com/bphoto/D0WtUGGrZcqCfHH_C7pgHQ/o.jpg", "is_closed": false, "url": "https://www.yelp.com/biz/joju-new-york-2?adjust_creative=9gNmiWYX8uTbFBeTTvJMdA&utm_campaign=yelp_api_v3&utm_medium=api_v3_business_search&utm_source=9gNmiWYX8uTbFBeTTvJMdA", "review_count": 257, "categories": [{"alias": "sandwiches", "title": "Sandwiches"}, {"alias": "vietnamese", "title": "Vietnamese"}, {"alias": "asianfusion", "title": "Asian Fusion"}], "rating": 4.5, "coordinates": {"latitude": 40.7558, "longitude": -73.97874}, "transactions": ["pickup", "delivery"], "price": "$$", "location": {"address1": "555 5th Ave", "address2": "46th St. Entrance, Between 5th & Madison Ave", "address3": "", "city": "New York", "zip_code": "10017", "country": "US", "state": "NY", "display_address": ["555 5th Ave", "46th St. Entrance, Between 5th & Madison Ave", "New York, NY 10017"]}, "phone": "+13322042278", "display_phone": "(332) 204-2278", "distance": 872.2840571447234}, {"id": "J9UA6rzI5WW_cDGjwDnF5g", "alias": "tsuru-ton-tan-new-york", "name": "Tsuru Ton Tan", "image_url": "https://s3-media3.fl.yelpcdn.com/bphoto/S1XMhxctHZBhMu-qJegLdw/o.jpg", "is_closed": false, "url": "https://www.yelp.com/biz/tsuru-ton-tan-new-york?adjust_creative=9gNmiWYX8uTbFBeTTvJMdA&utm_campaign=yelp_api_v3&utm_medium=api_v3_business_search&utm_source=9gNmiWYX8uTbFBeTTvJMdA", "review_count": 2262, "categories": [{"alias": "japanese", "title": "Japanese"}, {"alias": "noodles", "title": "Noodles"}, {"alias": "sushi", "title": "Sushi Bars"}], "rating": 4.0, "coordinates": {"latitude": 40.73678, "longitude": -73.9910699}, "transactions": ["pickup", "delivery"], "price": "$$", "location": {"address1": "21 E 16th St", "address2": "", "address3": "", "city": "New York", "zip_code": "10003", "country": "US", "state": "NY", "display_address": ["21 E 16th St", "New York, NY 10003"]}, "phone": "+12129891000", "display_phone": "(212) 989-1000", "distance": 3080.865656363123}, {"id": "neccHiLwwGeMUVRXSC7q_A", "alias": "hide-chan-ramen-west-side-new-york", "name": "Hide-Chan Ramen - West Side", "image_url": "https://s3-media3.fl.yelpcdn.com/bphoto/WH3kKZzd8fszxxXZcLLdqw/o.jpg", "is_closed": false, "url": "https://www.yelp.com/biz/hide-chan-ramen-west-side-new-york?adjust_creative=9gNmiWYX8uTbFBeTTvJMdA&utm_campaign=yelp_api_v3&utm_medium=api_v3_business_search&utm_source=9gNmiWYX8uTbFBeTTvJMdA", "review_count": 257, "categories": [{"alias": "ramen", "title": "Ramen"}, {"alias": "sushi", "title": "Sushi Bars"}, {"alias": "bars", "title": "Bars"}], "rating": 4.0, "coordinates": {"latitude": 40.7643263, "longitude": -73.9854547}, "transactions": ["pickup", "delivery"], "price": "$$", "location": {"address1": "314 W 53rd St", "address2": "", "address3": null, "city": "New York", "zip_code": "10019", "country": "US", "state": "NY", "display_address": ["314 W 53rd St", "New York, NY 10019"]}, "phone": "+12129690066", "display_phone": "(212) 969-0066", "distance": 1479.8893756932384}, {"id": "mqoiTzsqtuMoWTHJbxYQuQ", "alias": "babys-buns-and-buckets-brooklyn", "name": "Baby's Buns & Buckets", "image_url": "https://s3-media4.fl.yelpcdn.com/bphoto/CleM_IxOc1FUoIVmJSRyjQ/o.jpg", "is_closed": false, "url": "https://www.yelp.com/biz/babys-buns-and-buckets-brooklyn?adjust_creative=9gNmiWYX8uTbFBeTTvJMdA&utm_campaign=yelp_api_v3&utm_medium=api_v3_business_search&utm_source=9gNmiWYX8uTbFBeTTvJMdA", "review_count": 21, "categories": [{"alias": "thai", "title": "Thai"}, {"alias": "fishnchips", "title": "Fish & Chips"}, {"alias": "hotdogs", "title": "Fast Food"}], "rating": 5.0, "coordinates": {"latitude": 40.691020824013606, "longitude": -73.98295519999999}, "transactions": ["pickup", "delivery"], "location": {"address1": "445 Albee Square W", "address2": "Ste c38", "address3": null, "city": "Brooklyn", "zip_code": "11201", "country": "US", "state": "NY", "display_address": ["445 Albee Square W", "Ste c38", "Brooklyn, NY 11201"]}, "phone": "+13479157717", "display_phone": "(347) 915-7717", "distance": 7661.790240366089}, {"id": "irRF-5aowSiEycwkKGw3Jw", "alias": "pho-today-east-rutherford-east-rutherford-2", "name": "Pho Today - East Rutherford", "image_url": "https://s3-media1.fl.yelpcdn.com/bphoto/U3CG1QH9X0zaDfqU0YavpA/o.jpg", "is_closed": false, "url": "https://www.yelp.com/biz/pho-today-east-rutherford-east-rutherford-2?adjust_creative=9gNmiWYX8uTbFBeTTvJMdA&utm_campaign=yelp_api_v3&utm_medium=api_v3_business_search&utm_source=9gNmiWYX8uTbFBeTTvJMdA", "review_count": 259, "categories": [{"alias": "vietnamese", "title": "Vietnamese"}], "rating": 4.0, "coordinates": {"latitude": 40.83084177684956, "longitude": -74.093362141092}, "transactions": ["pickup", "delivery"], "price": "$$", "location": {"address1": "75 NJ-17", "address2": "", "address3": null, "city": "East Rutherford", "zip_code": "07073", "country": "US", "state": "NJ", "display_address": ["75 NJ-17", "East Rutherford, NJ 07073"]}, "phone": "+12014388818", "display_phone": "(201) 438-8818", "distance": 13118.391359383344}, {"id": "jMb34zhfkqoW866F10hf1Q", "alias": "grace-thai-restaurant-elmhurst", "name": "Grace Thai Restaurant", "image_url": "https://s3-media2.fl.yelpcdn.com/bphoto/4JwxEXUkfnzpsSLbI0hEyA/o.jpg", "is_closed": false, "url": "https://www.yelp.com/biz/grace-thai-restaurant-elmhurst?adjust_creative=9gNmiWYX8uTbFBeTTvJMdA&utm_campaign=yelp_api_v3&utm_medium=api_v3_business_search&utm_source=9gNmiWYX8uTbFBeTTvJMdA", "review_count": 84, "categories": [{"alias": "thai", "title": "Thai"}], "rating": 4.5, "coordinates": {"latitude": 40.736905, "longitude": -73.865734}, "transactions": ["pickup", "delivery"], "location": {"address1": "5617 Junction Blvd", "address2": null, "address3": "", "city": "Elmhurst", "zip_code": "11373", "country": "US", "state": "NY", "display_address": ["5617 Junction Blvd", "Elmhurst, NY 11373"]}, "phone": "+19294633693", "display_phone": "(929) 463-3693", "distance": 9091.342816014898}, {"id": "C2E1E0o-ssSrf_dokwxTXg", "alias": "massawa-new-york", "name": "Massawa", "image_url": "https://s3-media3.fl.yelpcdn.com/bphoto/Xfrp9C-QkcKfBrUoBbxbwA/o.jpg", "is_closed": false, "url": "https://www.yelp.com/biz/massawa-new-york?adjust_creative=9gNmiWYX8uTbFBeTTvJMdA&utm_campaign=yelp_api_v3&utm_medium=api_v3_business_search&utm_source=9gNmiWYX8uTbFBeTTvJMdA", "review_count": 370, "categories": [{"alias": "ethiopian", "title": "Ethiopian"}, {"alias": "eritrean", "title": "Eritrean"}, {"alias": "vegan", "title": "Vegan"}], "rating": 4.0, "coordinates": {"latitude": 40.8099, "longitude": -73.95856}, "transactions": ["pickup", "delivery"], "price": "$$", "location": {"address1": "1239 Amsterdam Ave", "address2": "", "address3": "", "city": "New York", "zip_code": "10027", "country": "US", "state": "NY", "display_address": ["1239 Amsterdam Ave", "New York, NY 10027"]}, "phone": "+12126630505", "display_phone": "(212) 663-0505", "distance": 5702.636713253705}, {"id": "HyENSD29rcF_5iSFakhMSw", "alias": "song-brooklyn", "name": "Song", "image_url": "https://s3-media3.fl.yelpcdn.com/bphoto/IeKLS8aVoaRpTn5SKNBCGw/o.jpg", "is_closed": false, "url": "https://www.yelp.com/biz/song-brooklyn?adjust_creative=9gNmiWYX8uTbFBeTTvJMdA&utm_campaign=yelp_api_v3&utm_medium=api_v3_business_search&utm_source=9gNmiWYX8uTbFBeTTvJMdA", "review_count": 1125, "categories": [{"alias": "thai", "title": "Thai"}], "rating": 3.5, "coordinates": {"latitude": 40.6735, "longitude": -73.9825199}, "transactions": ["pickup", "delivery"], "price": "$$", "location": {"address1": "295 5th Ave", "address2": null, "address3": "", "city": "Brooklyn", "zip_code": "11215", "country": "US", "state": "NY", "display_address": ["295 5th Ave", "Brooklyn, NY 11215"]}, "phone": "+17189651108", "display_phone": "(718) 965-1108", "distance": 9596.140285451498}, {"id": "t1_qBEjXscQn-mp6-or_sw", "alias": "suyo-gastrofusion-bronx", "name": "Suyo Gastrofusion", "image_url": "https://s3-media2.fl.yelpcdn.com/bphoto/nxmPdmIKwEFj3vW8HLXWfQ/o.jpg", "is_closed": false, "url": "https://www.yelp.com/biz/suyo-gastrofusion-bronx?adjust_creative=9gNmiWYX8uTbFBeTTvJMdA&utm_campaign=yelp_api_v3&utm_medium=api_v3_business_search&utm_source=9gNmiWYX8uTbFBeTTvJMdA", "review_count": 295, "categories": [{"alias": "asianfusion", "title": "Asian Fusion"}, {"alias": "latin", "title": "Latin American"}, {"alias": "cocktailbars", "title": "Cocktail Bars"}], "rating": 4.0, "coordinates": {"latitude": 40.84061, "longitude": -73.91825}, "transactions": [], "price": "$$$", "location": {"address1": "1401 Plaza Dr", "address2": null, "address3": "", "city": "Bronx", "zip_code": "10452", "country": "US", "state": "NY", "display_address": ["1401 Plaza Dr", "Bronx, NY 10452"]}, "phone": "+17185377896", "display_phone": "(718) 537-7896", "distance": 10032.944254813552}, {"id": "qd9_gxrmskbOT6OLN9sShA", "alias": "dock-asian-eatery-brooklyn-4", "name": "Dock Asian Eatery", "image_url": "https://s3-media2.fl.yelpcdn.com/bphoto/CB7Xnew5qpE0KGc-aVck8w/o.jpg", "is_closed": false, "url": "https://www.yelp.com/biz/dock-asian-eatery-brooklyn-4?adjust_creative=9gNmiWYX8uTbFBeTTvJMdA&utm_campaign=yelp_api_v3&utm_medium=api_v3_business_search&utm_source=9gNmiWYX8uTbFBeTTvJMdA", "review_count": 208, "categories": [{"alias": "ramen", "title": "Ramen"}, {"alias": "thai", "title": "Thai"}, {"alias": "asianfusion", "title": "Asian Fusion"}], "rating": 4.0, "coordinates": {"latitude": 40.70628, "longitude": -73.92274}, "transactions": ["pickup", "delivery"], "price": "$$", "location": {"address1": "22 Wyckoff Ave", "address2": "", "address3": null, "city": "Brooklyn", "zip_code": "11237", "country": "US", "state": "NY", "display_address": ["22 Wyckoff Ave", "Brooklyn, NY 11237"]}, "phone": "+17188213900", "display_phone": "(718) 821-3900", "distance": 7082.784556479564}, {"id": "CvSOAN2WWzLRGND4vN1xtA", "alias": "a1-asian-fusion-new-york-7", "name": "A1 Asian Fusion", "image_url": "https://s3-media2.fl.yelpcdn.com/bphoto/0po2yJEZjnHPy_J738RKUw/o.jpg", "is_closed": false, "url": "https://www.yelp.com/biz/a1-asian-fusion-new-york-7?adjust_creative=9gNmiWYX8uTbFBeTTvJMdA&utm_campaign=yelp_api_v3&utm_medium=api_v3_business_search&utm_source=9gNmiWYX8uTbFBeTTvJMdA", "review_count": 126, "categories": [{"alias": "asianfusion", "title": "Asian Fusion"}, {"alias": "japanese", "title": "Japanese"}, {"alias": "thai", "title": "Thai"}], "rating": 3.0, "coordinates": {"latitude": 40.80785, "longitude": -73.94867}, "transactions": ["pickup", "delivery"], "price": "$$", "location": {"address1": "2071 7th Ave", "address2": "", "address3": "", "city": "New York", "zip_code": "10027", "country": "US", "state": "NY", "display_address": ["2071 7th Ave", "New York, NY 10027"]}, "phone": "+12128663888", "display_phone": "(212) 866-3888", "distance": 5695.409428606093}, {"id": "RVv-A4ePzWoRoV4YToVATQ", "alias": "siam-square-bronx", "name": "Siam Square", "image_url": "https://s3-media4.fl.yelpcdn.com/bphoto/prNsEn6aAglPM-fjtib7Jw/o.jpg", "is_closed": false, "url": "https://www.yelp.com/biz/siam-square-bronx?adjust_creative=9gNmiWYX8uTbFBeTTvJMdA&utm_campaign=yelp_api_v3&utm_medium=api_v3_business_search&utm_source=9gNmiWYX8uTbFBeTTvJMdA", "review_count": 132, "categories": [{"alias": "thai", "title": "Thai"}], "rating": 3.5, "coordinates": {"latitude": 40.8786081, "longitude": -73.9170971}, "transactions": ["pickup", "delivery"], "price": "$$", "location": {"address1": "564 Kappock St", "address2": "", "address3": "", "city": "Bronx", "zip_code": "10463", "country": "US", "state": "NY", "display_address": ["564 Kappock St", "Bronx, NY 10463"]}, "phone": "+17184328200", "display_phone": "(718) 432-8200", "distance": 14012.502104909834}, {"id": "8Jz2IfS-BGCm1GniqJVe2A", "alias": "saketumi-asian-bistro-brooklyn", "name": "Saketumi Asian Bistro", "image_url": "https://s3-media1.fl.yelpcdn.com/bphoto/syYmCwuIV5YOZUTEpNGKcQ/o.jpg", "is_closed": false, "url": "https://www.yelp.com/biz/saketumi-asian-bistro-brooklyn?adjust_creative=9gNmiWYX8uTbFBeTTvJMdA&utm_campaign=yelp_api_v3&utm_medium=api_v3_business_search&utm_source=9gNmiWYX8uTbFBeTTvJMdA", "review_count": 184, "categories": [{"alias": "sushi", "title": "Sushi Bars"}, {"alias": "thai", "title": "Thai"}, {"alias": "asianfusion", "title": "Asian Fusion"}], "rating": 4.0, "coordinates": {"latitude": 40.69480157691335, "longitude": -73.99473861016685}, "transactions": ["pickup", "delivery"], "price": "$$", "location": {"address1": "118 Montague St", "address2": "", "address3": "", "city": "Brooklyn", "zip_code": "11201", "country": "US", "state": "NY", "display_address": ["118 Montague St", "Brooklyn, NY 11201"]}, "phone": "+17188558688", "display_phone": "(718) 855-8688", "distance": 7465.45499922371}, {"id": "UILT56veNs63NASF3dGRKA", "alias": "fieldtrip-harlem-new-york", "name": "Fieldtrip Harlem", "image_url": "https://s3-media2.fl.yelpcdn.com/bphoto/L6EmVNXRYHihL4_OIE813Q/o.jpg", "is_closed": false, "url": "https://www.yelp.com/biz/fieldtrip-harlem-new-york?adjust_creative=9gNmiWYX8uTbFBeTTvJMdA&utm_campaign=yelp_api_v3&utm_medium=api_v3_business_search&utm_source=9gNmiWYX8uTbFBeTTvJMdA", "review_count": 202, "categories": [{"alias": "newamerican", "title": "American (New)"}, {"alias": "asianfusion", "title": "Asian Fusion"}], "rating": 4.5, "coordinates": {"latitude": 40.80165, "longitude": -73.95029}, "transactions": ["pickup", "delivery"], "price": "$$", "location": {"address1": "109 Malcolm X Blvd", "address2": null, "address3": null, "city": "New York", "zip_code": "10026", "country": "US", "state": "NY", "display_address": ["109 Malcolm X Blvd", "New York, NY 10026"]}, "phone": "+19176393919", "display_phone": "(917) 639-3919", "distance": 5003.628412068102}, {"id": "s-UAKra4P0sFE9ylXlwwfA", "alias": "le-viet-cafe-new-york", "name": "Le Viet Cafe", "image_url": "https://s3-media1.fl.yelpcdn.com/bphoto/x0qKWDOj-8iGlrwTlg_NcA/o.jpg", "is_closed": false, "url": "https://www.yelp.com/biz/le-viet-cafe-new-york?adjust_creative=9gNmiWYX8uTbFBeTTvJMdA&utm_campaign=yelp_api_v3&utm_medium=api_v3_business_search&utm_source=9gNmiWYX8uTbFBeTTvJMdA", "review_count": 152, "categories": [{"alias": "vietnamese", "title": "Vietnamese"}, {"alias": "thai", "title": "Thai"}, {"alias": "asianfusion", "title": "Asian Fusion"}], "rating": 4.0, "coordinates": {"latitude": 40.78116, "longitude": -73.94913}, "transactions": ["pickup", "delivery"], "price": "$$", "location": {"address1": "1750 2nd Ave", "address2": "", "address3": "", "city": "New York", "zip_code": "10128", "country": "US", "state": "NY", "display_address": ["1750 2nd Ave", "New York, NY 10128"]}, "phone": "+19173883897", "display_phone": "(917) 388-3897", "distance": 2988.854649593029}, {"id": "A0saPXtRGKl-SVJGQyQAOw", "alias": "brooklyn-chop-house-new-york-3", "name": "Brooklyn Chop House", "image_url": "https://s3-media4.fl.yelpcdn.com/bphoto/A1vFyBJuw-WKn-FolA71iQ/o.jpg", "is_closed": false, "url": "https://www.yelp.com/biz/brooklyn-chop-house-new-york-3?adjust_creative=9gNmiWYX8uTbFBeTTvJMdA&utm_campaign=yelp_api_v3&utm_medium=api_v3_business_search&utm_source=9gNmiWYX8uTbFBeTTvJMdA", "review_count": 903, "categories": [{"alias": "dimsum", "title": "Dim Sum"}, {"alias": "steak", "title": "Steakhouses"}, {"alias": "asianfusion", "title": "Asian Fusion"}], "rating": 4.0, "coordinates": {"latitude": 40.71151, "longitude": -74.00597}, "transactions": ["pickup", "restaurant_reservation", "delivery"], "price": "$$$", "location": {"address1": "150 Nassau St", "address2": null, "address3": "", "city": "New York", "zip_code": "10038", "country": "US", "state": "NY", "display_address": ["150 Nassau St", "New York, NY 10038"]}, "phone": "+12126191200", "display_phone": "(212) 619-1200", "distance": 6126.640646095922}, {"id": "VMDmMIWR059HKMp_Mj3Msw", "alias": "thai-tree-long-island-city", "name": "Thai Tree", "image_url": "https://s3-media2.fl.yelpcdn.com/bphoto/nGpetpFvKjJpAYWB2tTMFg/o.jpg", "is_closed": false, "url": "https://www.yelp.com/biz/thai-tree-long-island-city?adjust_creative=9gNmiWYX8uTbFBeTTvJMdA&utm_campaign=yelp_api_v3&utm_medium=api_v3_business_search&utm_source=9gNmiWYX8uTbFBeTTvJMdA", "review_count": 37, "categories": [{"alias": "thai", "title": "Thai"}], "rating": 3.0, "coordinates": {"latitude": 40.7379204227519, "longitude": -73.9293925641142}, "transactions": ["pickup", "delivery"], "price": "$$", "location": {"address1": "36-17 Greenpoint Ave", "address2": "", "address3": null, "city": "Long Island City", "zip_code": "11101", "country": "US", "state": "NY", "display_address": ["36-17 Greenpoint Ave", "Long Island City, NY 11101"]}, "phone": "+17188061046", "display_phone": "(718) 806-1046", "distance": 4128.278952041289}, {"id": "FL7aHCbKMDSpchQS1KucHQ", "alias": "thai-o-briens-bayonne-15", "name": "Thai O'Brien's", "image_url": "https://s3-media2.fl.yelpcdn.com/bphoto/EynbkSMEjjCSft9_zfOTXQ/o.jpg", "is_closed": false, "url": "https://www.yelp.com/biz/thai-o-briens-bayonne-15?adjust_creative=9gNmiWYX8uTbFBeTTvJMdA&utm_campaign=yelp_api_v3&utm_medium=api_v3_business_search&utm_source=9gNmiWYX8uTbFBeTTvJMdA", "review_count": 148, "categories": [{"alias": "thai", "title": "Thai"}, {"alias": "lounges", "title": "Lounges"}, {"alias": "karaoke", "title": "Karaoke"}], "rating": 3.5, "coordinates": {"latitude": 40.6698972931556, "longitude": -74.1095638275146}, "transactions": ["pickup", "delivery"], "price": "$$", "location": {"address1": "478 Ave E", "address2": "", "address3": null, "city": "Bayonne", "zip_code": "07002", "country": "US", "state": "NJ", "display_address": ["478 Ave E", "Bayonne, NJ 07002"]}, "phone": "+12013390003", "display_phone": "(201) 339-0003", "distance": 15419.373419282538}, {"id": "bZQryeTD6hIsT6lSUxzSSw", "alias": "hanoi-house-new-york", "name": "Hanoi House", "image_url": "https://s3-media4.fl.yelpcdn.com/bphoto/AG6DrZBWHPi0IP-mzHYSJA/o.jpg", "is_closed": false, "url": "https://www.yelp.com/biz/hanoi-house-new-york?adjust_creative=9gNmiWYX8uTbFBeTTvJMdA&utm_campaign=yelp_api_v3&utm_medium=api_v3_business_search&utm_source=9gNmiWYX8uTbFBeTTvJMdA", "review_count": 696, "categories": [{"alias": "vietnamese", "title": "Vietnamese"}], "rating": 4.5, "coordinates": {"latitude": 40.727066, "longitude": -73.983505}, "transactions": [], "price": "$$", "location": {"address1": "119 Saint Marks Pl", "address2": "", "address3": null, "city": "New York", "zip_code": "10009", "country": "US", "state": "NY", "display_address": ["119 Saint Marks Pl", "New York, NY 10009"]}, "phone": "+12129955010", "display_phone": "(212) 995-5010", "distance": 3757.322154094794}, {"id": "rvI-gvqsWy_HmunwUsjmGg", "alias": "bangkok-bar-brooklyn-2", "name": "Bangkok BAR", "image_url": "https://s3-media3.fl.yelpcdn.com/bphoto/DDic7vT2iGRqZcmE6JITJw/o.jpg", "is_closed": false, "url": "https://www.yelp.com/biz/bangkok-bar-brooklyn-2?adjust_creative=9gNmiWYX8uTbFBeTTvJMdA&utm_campaign=yelp_api_v3&utm_medium=api_v3_business_search&utm_source=9gNmiWYX8uTbFBeTTvJMdA", "review_count": 40, "categories": [{"alias": "thai", "title": "Thai"}, {"alias": "noodles", "title": "Noodles"}, {"alias": "bars", "title": "Bars"}], "rating": 4.5, "coordinates": {"latitude": 40.657456, "longitude": -74.007112}, "transactions": ["pickup", "delivery"], "location": {"address1": "238 36th St", "address2": "Bldg 2", "address3": null, "city": "Brooklyn", "zip_code": "11232", "country": "US", "state": "NY", "display_address": ["238 36th St", "Bldg 2", "Brooklyn, NY 11232"]}, "phone": "+19177894447", "display_phone": "(917) 789-4447", "distance": 11744.824101461281}, {"id": "TwxP5xU_xyzlf7SVzCnpuA", "alias": "proong-noodle-bar-new-york-6", "name": "Proong Noodle Bar", "image_url": "https://s3-media1.fl.yelpcdn.com/bphoto/xmu_8x3Kxdg1amJqQg4Lyg/o.jpg", "is_closed": false, "url": "https://www.yelp.com/biz/proong-noodle-bar-new-york-6?adjust_creative=9gNmiWYX8uTbFBeTTvJMdA&utm_campaign=yelp_api_v3&utm_medium=api_v3_business_search&utm_source=9gNmiWYX8uTbFBeTTvJMdA", "review_count": 193, "categories": [{"alias": "noodles", "title": "Noodles"}, {"alias": "ramen", "title": "Ramen"}, {"alias": "vegan", "title": "Vegan"}], "rating": 4.5, "coordinates": {"latitude": 40.73528, "longitude": -73.98003}, "transactions": ["pickup", "delivery"], "price": "$$", "location": {"address1": "347 1st Ave", "address2": "", "address3": null, "city": "New York", "zip_code": "10010", "country": "US", "state": "NY", "display_address": ["347 1st Ave", "New York, NY 10010"]}, "phone": "+12124751564", "display_phone": "(212) 475-1564", "distance": 2798.821959592878}, {"id": "Ii8c5ybfIoCZf-H92pLfDg", "alias": "phoshime-new-york", "name": "Phoshime", "image_url": "https://s3-media3.fl.yelpcdn.com/bphoto/sbmf3bCWmdx8BVGvYZGWjQ/o.jpg", "is_closed": false, "url": "https://www.yelp.com/biz/phoshime-new-york?adjust_creative=9gNmiWYX8uTbFBeTTvJMdA&utm_campaign=yelp_api_v3&utm_medium=api_v3_business_search&utm_source=9gNmiWYX8uTbFBeTTvJMdA", "review_count": 13, "categories": [{"alias": "asianfusion", "title": "Asian Fusion"}, {"alias": "japanese", "title": "Japanese"}, {"alias": "vietnamese", "title": "Vietnamese"}], "rating": 4.5, "coordinates": {"latitude": 40.745489, "longitude": -73.979024}, "transactions": ["pickup", "delivery"], "location": {"address1": "165 E 33rd St", "address2": null, "address3": "", "city": "New York", "zip_code": "10016", "country": "US", "state": "NY", "display_address": ["165 E 33rd St", "New York, NY 10016"]}, "phone": "+19178151661", "display_phone": "(917) 815-1661", "distance": 1716.5623206017074}, {"id": "osXwafjTpsJZI1hH3YUhhw", "alias": "fuji-thai-585-yonkers", "name": "Fuji Thai 585", "image_url": "https://s3-media3.fl.yelpcdn.com/bphoto/ZP8fN102SQ4IhBBVvIGGhw/o.jpg", "is_closed": false, "url": "https://www.yelp.com/biz/fuji-thai-585-yonkers?adjust_creative=9gNmiWYX8uTbFBeTTvJMdA&utm_campaign=yelp_api_v3&utm_medium=api_v3_business_search&utm_source=9gNmiWYX8uTbFBeTTvJMdA", "review_count": 2, "categories": [{"alias": "asianfusion", "title": "Asian Fusion"}], "rating": 3.5, "coordinates": {"latitude": 40.913151, "longitude": -73.897064}, "transactions": ["pickup", "delivery"], "price": "$$", "location": {"address1": "585 S Broadway", "address2": "", "address3": "", "city": "Yonkers", "zip_code": "10705", "country": "US", "state": "NY", "display_address": ["585 S Broadway", "Yonkers, NY 10705"]}, "phone": "+19149658800", "display_phone": "(914) 965-8800", "distance": 18163.134264133416}], "total": 1700, "region": {"center": {"longitude": -73.96957397460938, "latitude": 40.75917470627005}}}