{"businesses": [{"id": "mmQuBKL2Q3HCBqQrR7FmQA", "alias": "yummy-asian-food-new-york-3", "name": "Yummy Asian Food", "image_url": "https://s3-media3.fl.yelpcdn.com/bphoto/7ciO07Iu3KQAYn-Ex1n7Tg/o.jpg", "is_closed": false, "url": "https://www.yelp.com/biz/yummy-asian-food-new-york-3?adjust_creative=9gNmiWYX8uTbFBeTTvJMdA&utm_campaign=yelp_api_v3&utm_medium=api_v3_business_search&utm_source=9gNmiWYX8uTbFBeTTvJMdA", "review_count": 7, "categories": [{"alias": "asianfusion", "title": "Asian Fusion"}], "rating": 1.5, "coordinates": {"latitude": 40.722099, "longitude": -73.982215}, "transactions": ["pickup", "delivery"], "location": {"address1": "226 E 3rd St", "address2": null, "address3": "", "city": "New York", "zip_code": "10009", "country": "US", "state": "NY", "display_address": ["226 E 3rd St", "New York, NY 10009"]}, "phone": "+19175172032", "display_phone": "(917) 517-2032", "distance": 4252.52954732099}, {"id": "LQ8ITaZIbaiQ8pHPOx5i6w", "alias": "skyice-thai-food-and-ice-cream-brooklyn-3", "name": "SkyIce Thai Food & Ice Cream", "image_url": "https://s3-media1.fl.yelpcdn.com/bphoto/L_crEBQnh8LVwMo19Ktisw/o.jpg", "is_closed": false, "url": "https://www.yelp.com/biz/skyice-thai-food-and-ice-cream-brooklyn-3?adjust_creative=9gNmiWYX8uTbFBeTTvJMdA&utm_campaign=yelp_api_v3&utm_medium=api_v3_business_search&utm_source=9gNmiWYX8uTbFBeTTvJMdA", "review_count": 786, "categories": [{"alias": "icecream", "title": "Ice Cream & Frozen Yogurt"}, {"alias": "thai", "title": "Thai"}, {"alias": "halal", "title": "Halal"}], "rating": 4.0, "coordinates": {"latitude": 40.6806411743164, "longitude": -73.9772872924805}, "transactions": ["pickup", "delivery"], "price": "$$", "location": {"address1": "63 5th Ave", "address2": "", "address3": "", "city": "Brooklyn", "zip_code": "11217", "country": "US", "state": "NY", "display_address": ["63 5th Ave", "Brooklyn, NY 11217"]}, "phone": "+17182300910", "display_phone": "(718) 230-0910", "distance": 8756.681582166413}, {"id": "S14Ewv4-h0-EtfMeYMbrzg", "alias": "eim-dee-thai-brooklyn", "name": "Eim Dee Thai", "image_url": "https://s3-media3.fl.yelpcdn.com/bphoto/G9nW39MtWMiIexDadJV_TQ/o.jpg", "is_closed": false, "url": "https://www.yelp.com/biz/eim-dee-thai-brooklyn?adjust_creative=9gNmiWYX8uTbFBeTTvJMdA&utm_campaign=yelp_api_v3&utm_medium=api_v3_business_search&utm_source=9gNmiWYX8uTbFBeTTvJMdA", "review_count": 32, "categories": [{"alias": "thai", "title": "Thai"}], "rating": 4.5, "coordinates": {"latitude": 40.706552, "longitude": -73.939477}, "transactions": ["pickup", "delivery"], "location": {"address1": "279 Bushwick Ave", "address2": "", "address3": null, "city": "Brooklyn", "zip_code": "11206", "country": "US", "state": "NY", "display_address": ["279 Bushwick Ave", "Brooklyn, NY 11206"]}, "phone": "+17183812889", "display_phone": "(718) 381-2889", "distance": 6379.876090879061}, {"id": "1oYj65hKwXqhiRgol-YDag", "alias": "thai-ros-thip-brooklyn", "name": "Thai Ros Thip", "image_url": "https://s3-media3.fl.yelpcdn.com/bphoto/ihB-eDz_whl8tMZZise2cA/o.jpg", "is_closed": false, "url": "https://www.yelp.com/biz/thai-ros-thip-brooklyn?adjust_creative=9gNmiWYX8uTbFBeTTvJMdA&utm_campaign=yelp_api_v3&utm_medium=api_v3_business_search&utm_source=9gNmiWYX8uTbFBeTTvJMdA", "review_count": 25, "categories": [{"alias": "thai", "title": "Thai"}, {"alias": "seafood", "title": "Seafood"}, {"alias": "noodles", "title": "Noodles"}], "rating": 4.5, "coordinates": {"latitude": 40.694905, "longitude": -73.911781}, "transactions": ["delivery"], "location": {"address1": "664 Knickerbocker Ave", "address2": null, "address3": "", "city": "Brooklyn", "zip_code": "11221", "country": "US", "state": "NY", "display_address": ["664 Knickerbocker Ave", "Brooklyn, NY 11221"]}, "phone": "+17166878668", "display_phone": "(716) 687-8668", "distance": 8645.760229484275}, {"id": "OPZdWfI1DyLZTLPeDM91pQ", "alias": "poke-zest-brooklyn-3", "name": "Poke Zest", "image_url": "https://s3-media2.fl.yelpcdn.com/bphoto/v14h145ksHJauNdNrjFfBA/o.jpg", "is_closed": false, "url": "https://www.yelp.com/biz/poke-zest-brooklyn-3?adjust_creative=9gNmiWYX8uTbFBeTTvJMdA&utm_campaign=yelp_api_v3&utm_medium=api_v3_business_search&utm_source=9gNmiWYX8uTbFBeTTvJMdA", "review_count": 73, "categories": [{"alias": "hawaiian", "title": "Hawaiian"}, {"alias": "asianfusion", "title": "Asian Fusion"}, {"alias": "poke", "title": "Poke"}], "rating": 4.0, "coordinates": {"latitude": 40.72388, "longitude": -73.95099}, "transactions": ["pickup", "delivery"], "price": "$$", "location": {"address1": "629 Manhattan Ave", "address2": null, "address3": "", "city": "Brooklyn", "zip_code": "11222", "country": "US", "state": "NY", "display_address": ["629 Manhattan Ave", "Brooklyn, NY 11222"]}, "phone": "+17183498999", "display_phone": "(718) 349-8999", "distance": 4228.336684044679}, {"id": "BEuZGvNlbM4tXq7YICyM6w", "alias": "luannes-wild-ginger-all-asian-vegan-new-york", "name": "LuAnne's Wild Ginger All-Asian Vegan", "image_url": "https://s3-media4.fl.yelpcdn.com/bphoto/e0Kg1tJ_2DzAIbMooVQxxw/o.jpg", "is_closed": false, "url": "https://www.yelp.com/biz/luannes-wild-ginger-all-asian-vegan-new-york?adjust_creative=9gNmiWYX8uTbFBeTTvJMdA&utm_campaign=yelp_api_v3&utm_medium=api_v3_business_search&utm_source=9gNmiWYX8uTbFBeTTvJMdA", "review_count": 684, "categories": [{"alias": "vegan", "title": "Vegan"}, {"alias": "panasian", "title": "Pan Asian"}, {"alias": "kosher", "title": "Kosher"}], "rating": 4.0, "coordinates": {"latitude": 40.7204631, "longitude": -73.9964956}, "transactions": ["pickup", "delivery"], "price": "$$", "location": {"address1": "380 Broome St", "address2": null, "address3": "", "city": "New York", "zip_code": "10013", "country": "US", "state": "NY", "display_address": ["380 Broome St", "New York, NY 10013"]}, "phone": "+12129661883", "display_phone": "(212) 966-1883", "distance": 4865.540699105092}, {"id": "7zabQq0iS0xahClnSI3W8w", "alias": "yoi-ramen-and-tea-new-york", "name": "YOI Ramen & Tea", "image_url": "https://s3-media3.fl.yelpcdn.com/bphoto/j-I0h4WeO-x9yPYnk2qHRA/o.jpg", "is_closed": false, "url": "https://www.yelp.com/biz/yoi-ramen-and-tea-new-york?adjust_creative=9gNmiWYX8uTbFBeTTvJMdA&utm_campaign=yelp_api_v3&utm_medium=api_v3_business_search&utm_source=9gNmiWYX8uTbFBeTTvJMdA", "review_count": 21, "categories": [{"alias": "ramen", "title": "Ramen"}, {"alias": "bubbletea", "title": "Bubble Tea"}, {"alias": "asianfusion", "title": "Asian Fusion"}], "rating": 4.0, "coordinates": {"latitude": 40.7433013, "longitude": -73.97730469999999}, "transactions": ["pickup", "delivery"], "location": {"address1": "573 2nd Ave", "address2": "", "address3": null, "city": "New York", "zip_code": "10016", "country": "US", "state": "NY", "display_address": ["573 2nd Ave", "New York, NY 10016"]}, "phone": "+19173882808", "display_phone": "(917) 388-2808", "distance": 1881.3380487965023}, {"id": "1pUp8SvKTAOmbHUw5_B_xA", "alias": "plant-bar-nyc-new-york", "name": "Plant Bar Nyc", "image_url": "https://s3-media2.fl.yelpcdn.com/bphoto/VAb4n6kxNX39c-IZQ-64Iw/o.jpg", "is_closed": false, "url": "https://www.yelp.com/biz/plant-bar-nyc-new-york?adjust_creative=9gNmiWYX8uTbFBeTTvJMdA&utm_campaign=yelp_api_v3&utm_medium=api_v3_business_search&utm_source=9gNmiWYX8uTbFBeTTvJMdA", "review_count": 7, "categories": [{"alias": "vegan", "title": "Vegan"}], "rating": 4.0, "coordinates": {"latitude": 40.74639, "longitude": -73.98838}, "transactions": [], "location": {"address1": "1204 Broadway", "address2": null, "address3": null, "city": "New York", "zip_code": "10001", "country": "US", "state": "NY", "display_address": ["1204 Broadway", "New York, NY 10001"]}, "phone": "+12122136141", "display_phone": "(212) 213-6141", "distance": 2127.8654318975086}, {"id": "8prcl4Adt88JLQVzL74xeQ", "alias": "bolero-brooklyn", "name": "Bolero", "image_url": "https://s3-media2.fl.yelpcdn.com/bphoto/GRrmNm-dOIC2nDMt5NLdUQ/o.jpg", "is_closed": false, "url": "https://www.yelp.com/biz/bolero-brooklyn?adjust_creative=9gNmiWYX8uTbFBeTTvJMdA&utm_campaign=yelp_api_v3&utm_medium=api_v3_business_search&utm_source=9gNmiWYX8uTbFBeTTvJMdA", "review_count": 81, "categories": [{"alias": "vietnamese", "title": "Vietnamese"}], "rating": 4.0, "coordinates": {"latitude": 40.71799, "longitude": -73.95741}, "transactions": ["pickup", "delivery"], "location": {"address1": "177 Bedford Ave", "address2": null, "address3": "", "city": "Brooklyn", "zip_code": "11211", "country": "US", "state": "NY", "display_address": ["177 Bedford Ave", "Brooklyn, NY 11211"]}, "phone": "+17183886801", "display_phone": "(718) 388-6801", "distance": 4696.497140592887}, {"id": "Xh-pnPzmUOnjyDE2bTGv5w", "alias": "ny-thai-grill-and-sushi-bar-new-york", "name": "NY Thai Grill & Sushi Bar", "image_url": "https://s3-media3.fl.yelpcdn.com/bphoto/ph6CspSgBTHDMTxO29mAdw/o.jpg", "is_closed": false, "url": "https://www.yelp.com/biz/ny-thai-grill-and-sushi-bar-new-york?adjust_creative=9gNmiWYX8uTbFBeTTvJMdA&utm_campaign=yelp_api_v3&utm_medium=api_v3_business_search&utm_source=9gNmiWYX8uTbFBeTTvJMdA", "review_count": 153, "categories": [{"alias": "sushi", "title": "Sushi Bars"}, {"alias": "thai", "title": "Thai"}], "rating": 2.0, "coordinates": {"latitude": 40.75334, "longitude": -73.97398}, "transactions": ["pickup", "delivery"], "price": "$$", "location": {"address1": "137 E 45th St", "address2": "", "address3": "", "city": "New York", "zip_code": "10017", "country": "US", "state": "NY", "display_address": ["137 E 45th St", "New York, NY 10017"]}, "phone": "+12125818808", "display_phone": "(212) 581-8808", "distance": 753.5081144290865}, {"id": "Q85ScF9s6vlS5_i453AFvg", "alias": "tangy-noodle-new-york", "name": "Tangy Noodle", "image_url": "https://s3-media3.fl.yelpcdn.com/bphoto/CXgBlH-volea4yZw_iERGA/o.jpg", "is_closed": false, "url": "https://www.yelp.com/biz/tangy-noodle-new-york?adjust_creative=9gNmiWYX8uTbFBeTTvJMdA&utm_campaign=yelp_api_v3&utm_medium=api_v3_business_search&utm_source=9gNmiWYX8uTbFBeTTvJMdA", "review_count": 25, "categories": [{"alias": "noodles", "title": "Noodles"}, {"alias": "dimsum", "title": "Dim Sum"}], "rating": 4.5, "coordinates": {"latitude": 40.740203, "longitude": -74.00193}, "transactions": ["pickup", "delivery"], "location": {"address1": "98 8th Ave", "address2": "", "address3": null, "city": "New York", "zip_code": "10011", "country": "US", "state": "NY", "display_address": ["98 8th Ave", "New York, NY 10011"]}, "phone": "+19172614931", "display_phone": "(917) 261-4931", "distance": 3444.124221272929}, {"id": "0XC6L2GCtuaNEI8XFEyD2g", "alias": "jungle-cafe-brooklyn-2", "name": "Jungle Cafe", "image_url": "https://s3-media4.fl.yelpcdn.com/bphoto/f5uyfDQBe_ICo7v9qniDyg/o.jpg", "is_closed": false, "url": "https://www.yelp.com/biz/jungle-cafe-brooklyn-2?adjust_creative=9gNmiWYX8uTbFBeTTvJMdA&utm_campaign=yelp_api_v3&utm_medium=api_v3_business_search&utm_source=9gNmiWYX8uTbFBeTTvJMdA", "review_count": 281, "categories": [{"alias": "vegan", "title": "Vegan"}], "rating": 4.0, "coordinates": {"latitude": 40.730358, "longitude": -73.954885}, "transactions": ["pickup", "delivery"], "price": "$$", "location": {"address1": "131 Greenpoint Ave", "address2": "", "address3": "", "city": "Brooklyn", "zip_code": "11222", "country": "US", "state": "NY", "display_address": ["131 Greenpoint Ave", "Brooklyn, NY 11222"]}, "phone": "+13479874981", "display_phone": "(347) 987-4981", "distance": 3434.9137580114757}, {"id": "hKLPdXpF7ke7JK2bL3O90A", "alias": "betong-hainan-chicken-flushing", "name": "Betong Hainan Chicken", "image_url": "https://s3-media2.fl.yelpcdn.com/bphoto/Nd6_LdB-cVR9nrAKZERtrw/o.jpg", "is_closed": false, "url": "https://www.yelp.com/biz/betong-hainan-chicken-flushing?adjust_creative=9gNmiWYX8uTbFBeTTvJMdA&utm_campaign=yelp_api_v3&utm_medium=api_v3_business_search&utm_source=9gNmiWYX8uTbFBeTTvJMdA", "review_count": 207, "categories": [{"alias": "chickenshop", "title": "Chicken Shop"}, {"alias": "hainan", "title": "Hainan"}, {"alias": "thai", "title": "Thai"}], "rating": 4.0, "coordinates": {"latitude": 40.75998, "longitude": -73.83103}, "transactions": ["pickup", "delivery"], "price": "$$", "location": {"address1": "135-38 39th Ave", "address2": "", "address3": null, "city": "Flushing", "zip_code": "11354", "country": "US", "state": "NY", "display_address": ["135-38 39th Ave", "Flushing, NY 11354"]}, "phone": "+19295642824", "display_phone": "(929) 564-2824", "distance": 11670.176393733818}, {"id": "PBUIaPtgnhmdHE3KHglK-g", "alias": "jean-georges-new-york-2", "name": "Jean-Georges", "image_url": "https://s3-media1.fl.yelpcdn.com/bphoto/ls3SFvJRa3eyyEBvpz1n7g/o.jpg", "is_closed": false, "url": "https://www.yelp.com/biz/jean-georges-new-york-2?adjust_creative=9gNmiWYX8uTbFBeTTvJMdA&utm_campaign=yelp_api_v3&utm_medium=api_v3_business_search&utm_source=9gNmiWYX8uTbFBeTTvJMdA", "review_count": 1997, "categories": [{"alias": "french", "title": "French"}, {"alias": "newamerican", "title": "American (New)"}, {"alias": "asianfusion", "title": "Asian Fusion"}], "rating": 4.0, "coordinates": {"latitude": 40.7691122743293, "longitude": -73.9814290717583}, "transactions": ["pickup", "delivery"], "price": "$$$$", "location": {"address1": "1 Central Park W", "address2": "", "address3": "", "city": "New York", "zip_code": "10023", "country": "US", "state": "NY", "display_address": ["1 Central Park W", "New York, NY 10023"]}, "phone": "+12122993900", "display_phone": "(212) 299-3900", "distance": 1489.260948280674}, {"id": "iPaule2uCieebZk0rVFG1w", "alias": "lum-dee-thai-cuisine-brooklyn", "name": "Lum Dee Thai Cuisine", "image_url": "https://s3-media1.fl.yelpcdn.com/bphoto/OPpFnVwiZqcvk0ZOKSfEvQ/o.jpg", "is_closed": false, "url": "https://www.yelp.com/biz/lum-dee-thai-cuisine-brooklyn?adjust_creative=9gNmiWYX8uTbFBeTTvJMdA&utm_campaign=yelp_api_v3&utm_medium=api_v3_business_search&utm_source=9gNmiWYX8uTbFBeTTvJMdA", "review_count": 42, "categories": [{"alias": "thai", "title": "Thai"}, {"alias": "noodles", "title": "Noodles"}], "rating": 4.5, "coordinates": {"latitude": 40.68471, "longitude": -74.00301}, "transactions": ["pickup", "delivery"], "location": {"address1": "218 Columbia St", "address2": null, "address3": "", "city": "Brooklyn", "zip_code": "11231", "country": "US", "state": "NY", "display_address": ["218 Columbia St", "Brooklyn, NY 11231"]}, "phone": "+17186432737", "display_phone": "(718) 643-2737", "distance": 8748.551072761065}, {"id": "Vzx-7-jSEBz2g8NuGVhHvQ", "alias": "philippe-by-philippe-chow-new-york", "name": "Philippe By Philippe Chow", "image_url": "https://s3-media1.fl.yelpcdn.com/bphoto/7tnd0b7u-zcCNfop8HfaEg/o.jpg", "is_closed": false, "url": "https://www.yelp.com/biz/philippe-by-philippe-chow-new-york?adjust_creative=9gNmiWYX8uTbFBeTTvJMdA&utm_campaign=yelp_api_v3&utm_medium=api_v3_business_search&utm_source=9gNmiWYX8uTbFBeTTvJMdA", "review_count": 890, "categories": [{"alias": "chinese", "title": "Chinese"}, {"alias": "asianfusion", "title": "Asian Fusion"}], "rating": 3.5, "coordinates": {"latitude": 40.76409, "longitude": -73.97039}, "transactions": ["pickup", "delivery"], "price": "$$$$", "location": {"address1": "33 E 60th St", "address2": "", "address3": "", "city": "New York", "zip_code": "10065", "country": "US", "state": "NY", "display_address": ["33 E 60th St", "New York, NY 10065"]}, "phone": "+12126448885", "display_phone": "(212) 644-8885", "distance": 559.1794552375736}, {"id": "SSDOkx5enfRH3nsniS_2jA", "alias": "5ive-spice-brooklyn-3", "name": "5ive Spice", "image_url": "https://s3-media1.fl.yelpcdn.com/bphoto/c94MoMzHNM7hBawXPgTfsQ/o.jpg", "is_closed": false, "url": "https://www.yelp.com/biz/5ive-spice-brooklyn-3?adjust_creative=9gNmiWYX8uTbFBeTTvJMdA&utm_campaign=yelp_api_v3&utm_medium=api_v3_business_search&utm_source=9gNmiWYX8uTbFBeTTvJMdA", "review_count": 898, "categories": [{"alias": "vietnamese", "title": "Vietnamese"}, {"alias": "coffee", "title": "Coffee & Tea"}, {"alias": "tacos", "title": "Tacos"}], "rating": 4.5, "coordinates": {"latitude": 40.681442, "longitude": -73.977241}, "transactions": ["pickup", "delivery"], "price": "$$", "location": {"address1": "52 5th Ave", "address2": "", "address3": "", "city": "Brooklyn", "zip_code": "11217", "country": "US", "state": "NY", "display_address": ["52 5th Ave", "Brooklyn, NY 11217"]}, "phone": "+17188573483", "display_phone": "(718) 857-3483", "distance": 8667.590150295006}, {"id": "yET_KHFPlCf1M-AD_n1VqQ", "alias": "thai-cheong-salad-plus-brooklyn", "name": "Thai Cheong Salad Plus", "image_url": "", "is_closed": false, "url": "https://www.yelp.com/biz/thai-cheong-salad-plus-brooklyn?adjust_creative=9gNmiWYX8uTbFBeTTvJMdA&utm_campaign=yelp_api_v3&utm_medium=api_v3_business_search&utm_source=9gNmiWYX8uTbFBeTTvJMdA", "review_count": 1, "categories": [{"alias": "salad", "title": "Salad"}, {"alias": "delis", "title": "Delis"}], "rating": 4.0, "coordinates": {"latitude": 40.69155, "longitude": -73.98683}, "transactions": [], "location": {"address1": "455 Fulton St", "address2": "", "address3": "", "city": "Brooklyn", "zip_code": "11201", "country": "US", "state": "NY", "display_address": ["455 Fulton St", "Brooklyn, NY 11201"]}, "phone": "", "display_phone": "", "distance": 7669.569925606328}, {"id": "TuGFxspYWd0smugwUeN9sA", "alias": "a-gusto-thai-bistro-brooklyn", "name": "A Gusto Thai Bistro", "image_url": "https://s3-media3.fl.yelpcdn.com/bphoto/uPHUHCIBjd4cksMDKeeghA/o.jpg", "is_closed": false, "url": "https://www.yelp.com/biz/a-gusto-thai-bistro-brooklyn?adjust_creative=9gNmiWYX8uTbFBeTTvJMdA&utm_campaign=yelp_api_v3&utm_medium=api_v3_business_search&utm_source=9gNmiWYX8uTbFBeTTvJMdA", "review_count": 154, "categories": [{"alias": "cafes", "title": "Cafes"}, {"alias": "wine_bars", "title": "Wine Bars"}, {"alias": "thai", "title": "Thai"}], "rating": 3.5, "coordinates": {"latitude": 40.6798609, "longitude": -73.942852}, "transactions": ["pickup", "delivery"], "price": "$$", "location": {"address1": "1450 Fulton St", "address2": "", "address3": "", "city": "Brooklyn", "zip_code": "11216", "country": "US", "state": "NY", "display_address": ["1450 Fulton St", "Brooklyn, NY 11216"]}, "phone": "+13475339961", "display_phone": "(347) 533-9961", "distance": 9102.271027053639}, {"id": "ZGKdgFAGOL6NOPXPrBkhzA", "alias": "myrtle-thai-brooklyn", "name": "Myrtle Thai", "image_url": "https://s3-media2.fl.yelpcdn.com/bphoto/dycQ0EnrphUGcSQ7K5rErQ/o.jpg", "is_closed": false, "url": "https://www.yelp.com/biz/myrtle-thai-brooklyn?adjust_creative=9gNmiWYX8uTbFBeTTvJMdA&utm_campaign=yelp_api_v3&utm_medium=api_v3_business_search&utm_source=9gNmiWYX8uTbFBeTTvJMdA", "review_count": 195, "categories": [{"alias": "thai", "title": "Thai"}], "rating": 3.5, "coordinates": {"latitude": 40.69308, "longitude": -73.96814}, "transactions": ["pickup", "delivery"], "price": "$$", "location": {"address1": "438 Myrtle Ave", "address2": "", "address3": "", "city": "Brooklyn", "zip_code": "11205", "country": "US", "state": "NY", "display_address": ["438 Myrtle Ave", "Brooklyn, NY 11205"]}, "phone": "+17184221142", "display_phone": "(718) 422-1142", "distance": 7355.108999150242}, {"id": "siAb_uf13RIYW52O-auTpQ", "alias": "born-thai-brooklyn-2", "name": "Born Thai", "image_url": "https://s3-media4.fl.yelpcdn.com/bphoto/txK--V3aAsMsiYCV1muz5A/o.jpg", "is_closed": false, "url": "https://www.yelp.com/biz/born-thai-brooklyn-2?adjust_creative=9gNmiWYX8uTbFBeTTvJMdA&utm_campaign=yelp_api_v3&utm_medium=api_v3_business_search&utm_source=9gNmiWYX8uTbFBeTTvJMdA", "review_count": 399, "categories": [{"alias": "thai", "title": "Thai"}], "rating": 3.5, "coordinates": {"latitude": 40.67903, "longitude": -73.97357}, "transactions": ["pickup", "delivery"], "price": "$$", "location": {"address1": "293 Flatbush Ave", "address2": "", "address3": "", "city": "Brooklyn", "zip_code": "11217", "country": "US", "state": "NY", "display_address": ["293 Flatbush Ave", "Brooklyn, NY 11217"]}, "phone": "+13476633674", "display_phone": "(347) 663-3674", "distance": 8915.731874143463}, {"id": "Ve_iFpnhL8zN789ZL2jnxQ", "alias": "uthai-rego-park", "name": "UThai", "image_url": "https://s3-media2.fl.yelpcdn.com/bphoto/ItbNa7QPvZTFgkPOS37XfA/o.jpg", "is_closed": false, "url": "https://www.yelp.com/biz/uthai-rego-park?adjust_creative=9gNmiWYX8uTbFBeTTvJMdA&utm_campaign=yelp_api_v3&utm_medium=api_v3_business_search&utm_source=9gNmiWYX8uTbFBeTTvJMdA", "review_count": 246, "categories": [{"alias": "thai", "title": "Thai"}, {"alias": "vegan", "title": "Vegan"}, {"alias": "noodles", "title": "Noodles"}], "rating": 4.0, "coordinates": {"latitude": 40.7282415, "longitude": -73.8639467}, "transactions": ["pickup", "delivery"], "price": "$", "location": {"address1": "63-55 Wetherole St", "address2": null, "address3": "", "city": "Rego Park", "zip_code": "11374", "country": "US", "state": "NY", "display_address": ["63-55 Wetherole St", "Rego Park, NY 11374"]}, "phone": "+17188971575", "display_phone": "(718) 897-1575", "distance": 9540.22773095216}, {"id": "xG7W7SpI5_sJQXl-aIciIA", "alias": "9-thai-cuisine-newark-3", "name": "9 Thai Cuisine", "image_url": "https://s3-media2.fl.yelpcdn.com/bphoto/jDAaFJDErr5mW5mZhS_Xkw/o.jpg", "is_closed": false, "url": "https://www.yelp.com/biz/9-thai-cuisine-newark-3?adjust_creative=9gNmiWYX8uTbFBeTTvJMdA&utm_campaign=yelp_api_v3&utm_medium=api_v3_business_search&utm_source=9gNmiWYX8uTbFBeTTvJMdA", "review_count": 45, "categories": [{"alias": "thai", "title": "Thai"}], "rating": 3.5, "coordinates": {"latitude": 40.7407899, "longitude": -74.17213}, "transactions": ["pickup", "delivery"], "location": {"address1": "59 New St", "address2": null, "address3": "", "city": "Newark", "zip_code": "07102", "country": "US", "state": "NJ", "display_address": ["59 New St", "Newark, NJ 07102"]}, "phone": "+19736240624", "display_phone": "(973) 624-0624", "distance": 17189.004540756217}, {"id": "qU3ejLMndurKQTkM01gutg", "alias": "zuma-new-york-2", "name": "Zuma", "image_url": "https://s3-media4.fl.yelpcdn.com/bphoto/rrY5rQfOiUvei0CTNzFE4A/o.jpg", "is_closed": false, "url": "https://www.yelp.com/biz/zuma-new-york-2?adjust_creative=9gNmiWYX8uTbFBeTTvJMdA&utm_campaign=yelp_api_v3&utm_medium=api_v3_business_search&utm_source=9gNmiWYX8uTbFBeTTvJMdA", "review_count": 785, "categories": [{"alias": "sushi", "title": "Sushi Bars"}, {"alias": "japanese", "title": "Japanese"}], "rating": 3.5, "coordinates": {"latitude": 40.750483, "longitude": -73.980642}, "transactions": ["pickup", "delivery"], "price": "$$$$", "location": {"address1": "261 Madison Ave", "address2": "", "address3": "", "city": "New York", "zip_code": "10016", "country": "US", "state": "NY", "display_address": ["261 Madison Ave", "New York, NY 10016"]}, "phone": "+12125449862", "display_phone": "(212) 544-9862", "distance": 1341.3970406939325}, {"id": "wsMThqit2caUREhOMCOyAQ", "alias": "thanh-huong-restaurant-jersey-city", "name": "Thanh Huong Restaurant", "image_url": "https://s3-media4.fl.yelpcdn.com/bphoto/KqrHIYV2vq8yUChzvyZOqw/o.jpg", "is_closed": false, "url": "https://www.yelp.com/biz/thanh-huong-restaurant-jersey-city?adjust_creative=9gNmiWYX8uTbFBeTTvJMdA&utm_campaign=yelp_api_v3&utm_medium=api_v3_business_search&utm_source=9gNmiWYX8uTbFBeTTvJMdA", "review_count": 162, "categories": [{"alias": "vietnamese", "title": "Vietnamese"}], "rating": 4.0, "coordinates": {"latitude": 40.71919, "longitude": -74.08307}, "transactions": [], "price": "$$", "location": {"address1": "533 West Side Ave", "address2": "", "address3": "", "city": "Jersey City", "zip_code": "07304", "country": "US", "state": "NJ", "display_address": ["533 West Side Ave", "Jersey City, NJ 07304"]}, "phone": "+12013333030", "display_phone": "(201) 333-3030", "distance": 10541.391956292324}, {"id": "GSOwJ5Gr8X4eGbkIjCzMWA", "alias": "thaism-brooklyn", "name": "Thaism", "image_url": "https://s3-media2.fl.yelpcdn.com/bphoto/obXw0DmKoVLJOe_olJt4WA/o.jpg", "is_closed": false, "url": "https://www.yelp.com/biz/thaism-brooklyn?adjust_creative=9gNmiWYX8uTbFBeTTvJMdA&utm_campaign=yelp_api_v3&utm_medium=api_v3_business_search&utm_source=9gNmiWYX8uTbFBeTTvJMdA", "review_count": 189, "categories": [{"alias": "thai", "title": "Thai"}], "rating": 3.5, "coordinates": {"latitude": 40.6824841, "longitude": -73.9935637}, "transactions": ["pickup", "delivery"], "price": "$$", "location": {"address1": "278 Smith St", "address2": "", "address3": "", "city": "Brooklyn", "zip_code": "11231", "country": "US", "state": "NY", "display_address": ["278 Smith St", "Brooklyn, NY 11231"]}, "phone": "+17188340505", "display_phone": "(718) 834-0505", "distance": 8763.974036459977}, {"id": "iB1tr_xJk7aAt0AhewoB9Q", "alias": "thai-nam-restaurant-new-york", "name": "Thai-Nam Restaurant", "image_url": "https://s3-media2.fl.yelpcdn.com/bphoto/tJJ7hZXE181okq7QgVXCIw/o.jpg", "is_closed": false, "url": "https://www.yelp.com/biz/thai-nam-restaurant-new-york?adjust_creative=9gNmiWYX8uTbFBeTTvJMdA&utm_campaign=yelp_api_v3&utm_medium=api_v3_business_search&utm_source=9gNmiWYX8uTbFBeTTvJMdA", "review_count": 44, "categories": [{"alias": "thai", "title": "Thai"}], "rating": 2.0, "coordinates": {"latitude": 40.7532501, "longitude": -73.9740524}, "transactions": ["delivery"], "price": "$", "location": {"address1": "137 E 45th St", "address2": "", "address3": "", "city": "New York", "zip_code": "10017", "country": "US", "state": "NY", "display_address": ["137 E 45th St", "New York, NY 10017"]}, "phone": "+12128678222", "display_phone": "(212) 867-8222", "distance": 753.5081144290865}, {"id": "brMIenh-sAXr1zq6zpBKLA", "alias": "sawasde-thai-cooking-brooklyn", "name": "Sawasde Thai Cooking", "image_url": "https://s3-media2.fl.yelpcdn.com/bphoto/PZ9-2Pc86L5YC_J3ydC3Hw/o.jpg", "is_closed": false, "url": "https://www.yelp.com/biz/sawasde-thai-cooking-brooklyn?adjust_creative=9gNmiWYX8uTbFBeTTvJMdA&utm_campaign=yelp_api_v3&utm_medium=api_v3_business_search&utm_source=9gNmiWYX8uTbFBeTTvJMdA", "review_count": 175, "categories": [{"alias": "thai", "title": "Thai"}], "rating": 4.0, "coordinates": {"latitude": 40.6454, "longitude": -73.97973}, "transactions": ["pickup", "delivery"], "price": "$$", "location": {"address1": "359 McDonald Ave", "address2": "", "address3": "", "city": "Brooklyn", "zip_code": "11218", "country": "US", "state": "NY", "display_address": ["359 McDonald Ave", "Brooklyn, NY 11218"]}, "phone": "+17184360589", "display_phone": "(718) 436-0589", "distance": 12687.58256686722}, {"id": "vw_Xsqnep2odsL3l5-Tn1w", "alias": "p-f-changs-to-go-new-york-2", "name": "P.F. Chang's To Go", "image_url": "https://s3-media4.fl.yelpcdn.com/bphoto/F3go1zDD6ZYE602wVL2zfg/o.jpg", "is_closed": false, "url": "https://www.yelp.com/biz/p-f-changs-to-go-new-york-2?adjust_creative=9gNmiWYX8uTbFBeTTvJMdA&utm_campaign=yelp_api_v3&utm_medium=api_v3_business_search&utm_source=9gNmiWYX8uTbFBeTTvJMdA", "review_count": 33, "categories": [{"alias": "chinese", "title": "Chinese"}, {"alias": "asianfusion", "title": "Asian Fusion"}], "rating": 2.5, "coordinates": {"latitude": 40.7598503, "longitude": -73.968008}, "transactions": ["pickup", "delivery"], "location": {"address1": "938 3rd Ave", "address2": null, "address3": "", "city": "New York", "zip_code": "10022", "country": "US", "state": "NY", "display_address": ["938 3rd Ave", "New York, NY 10022"]}, "phone": "+16467870351", "display_phone": "(646) 787-0351", "distance": 143.46517538713962}, {"id": "-n5zd4kpmJdqKzvar-5v8g", "alias": "gogi-grill-hoboken-hoboken-2", "name": "Gogi Grill - Hoboken", "image_url": "https://s3-media1.fl.yelpcdn.com/bphoto/kvvfZU2efqYDg3MHyaAzJA/o.jpg", "is_closed": false, "url": "https://www.yelp.com/biz/gogi-grill-hoboken-hoboken-2?adjust_creative=9gNmiWYX8uTbFBeTTvJMdA&utm_campaign=yelp_api_v3&utm_medium=api_v3_business_search&utm_source=9gNmiWYX8uTbFBeTTvJMdA", "review_count": 257, "categories": [{"alias": "korean", "title": "Korean"}, {"alias": "asianfusion", "title": "Asian Fusion"}, {"alias": "hotdogs", "title": "Fast Food"}], "rating": 4.0, "coordinates": {"latitude": 40.7362061117704, "longitude": -74.0300041437149}, "transactions": ["pickup", "delivery"], "price": "$$", "location": {"address1": "79 Hudson St", "address2": "", "address3": null, "city": "Hoboken", "zip_code": "07030", "country": "US", "state": "NJ", "display_address": ["79 Hudson St", "Hoboken, NJ 07030"]}, "phone": "+12012530885", "display_phone": "(201) 253-0885", "distance": 5695.399577519324}, {"id": "TBW3arqP85VbGqOlQ3PM1Q", "alias": "west-side-wok-new-york", "name": "West Side Wok", "image_url": "https://s3-media2.fl.yelpcdn.com/bphoto/f2H_kZ0pd1Pl5gSjzF3AIw/o.jpg", "is_closed": false, "url": "https://www.yelp.com/biz/west-side-wok-new-york?adjust_creative=9gNmiWYX8uTbFBeTTvJMdA&utm_campaign=yelp_api_v3&utm_medium=api_v3_business_search&utm_source=9gNmiWYX8uTbFBeTTvJMdA", "review_count": 14, "categories": [{"alias": "chinese", "title": "Chinese"}, {"alias": "sushi", "title": "Sushi Bars"}, {"alias": "kosher", "title": "Kosher"}], "rating": 4.0, "coordinates": {"latitude": 40.79235, "longitude": -73.97139}, "transactions": ["pickup", "delivery"], "location": {"address1": "691 Amsterdam Ave", "address2": null, "address3": "", "city": "New York", "zip_code": "10025", "country": "US", "state": "NY", "display_address": ["691 Amsterdam Ave", "New York, NY 10025"]}, "phone": "+12122222373", "display_phone": "(212) 222-2373", "distance": 3697.2437092196506}, {"id": "1HBtCnBGBYoq3zaQUxTbmg", "alias": "sushi-gama-new-york", "name": "Sushi Gama", "image_url": "https://s3-media1.fl.yelpcdn.com/bphoto/EIuXj4_64ElqKPqGTLmbow/o.jpg", "is_closed": false, "url": "https://www.yelp.com/biz/sushi-gama-new-york?adjust_creative=9gNmiWYX8uTbFBeTTvJMdA&utm_campaign=yelp_api_v3&utm_medium=api_v3_business_search&utm_source=9gNmiWYX8uTbFBeTTvJMdA", "review_count": 114, "categories": [{"alias": "sushi", "title": "Sushi Bars"}, {"alias": "japanese", "title": "Japanese"}], "rating": 3.5, "coordinates": {"latitude": 40.76967, "longitude": -73.95796}, "transactions": ["pickup", "delivery"], "price": "$$", "location": {"address1": "1403 2nd Ave", "address2": "", "address3": null, "city": "New York", "zip_code": "10021", "country": "US", "state": "NY", "display_address": ["1403 2nd Ave", "New York, NY 10021"]}, "phone": "+12128792393", "display_phone": "(212) 879-2393", "distance": 1521.1548677752871}, {"id": "yt6reb5HlIhJRubUVX80WA", "alias": "talay-restaurant-staten-island", "name": "Talay Restaurant", "image_url": "https://s3-media2.fl.yelpcdn.com/bphoto/t7fKsUqxia6WKIxWaQkC2w/o.jpg", "is_closed": false, "url": "https://www.yelp.com/biz/talay-restaurant-staten-island?adjust_creative=9gNmiWYX8uTbFBeTTvJMdA&utm_campaign=yelp_api_v3&utm_medium=api_v3_business_search&utm_source=9gNmiWYX8uTbFBeTTvJMdA", "review_count": 16, "categories": [{"alias": "thai", "title": "Thai"}], "rating": 4.0, "coordinates": {"latitude": 40.64249, "longitude": -74.07665}, "transactions": ["pickup", "delivery"], "location": {"address1": "154 Stuyvesant Pl", "address2": "", "address3": null, "city": "Staten Island", "zip_code": "10301", "country": "US", "state": "NY", "display_address": ["154 Stuyvesant Pl", "Staten Island, NY 10301"]}, "phone": "+17165991365", "display_phone": "(716) 599-1365", "distance": 15812.527448954726}, {"id": "rPKXTHDgtGI4XEo2HuVpow", "alias": "mr-jones-supper-club-new-york", "name": "Mr. Jones Supper Club", "image_url": "https://s3-media3.fl.yelpcdn.com/bphoto/UhnbDzXCqvmwVwGqc3z7QA/o.jpg", "is_closed": false, "url": "https://www.yelp.com/biz/mr-jones-supper-club-new-york?adjust_creative=9gNmiWYX8uTbFBeTTvJMdA&utm_campaign=yelp_api_v3&utm_medium=api_v3_business_search&utm_source=9gNmiWYX8uTbFBeTTvJMdA", "review_count": 64, "categories": [{"alias": "australian", "title": "Australian"}, {"alias": "seafood", "title": "Seafood"}, {"alias": "asianfusion", "title": "Asian Fusion"}], "rating": 5.0, "coordinates": {"latitude": 40.7317819, "longitude": -74.0025704}, "transactions": [], "price": "$$$$", "location": {"address1": "22 Jones St", "address2": "", "address3": null, "city": "New York", "zip_code": "10014", "country": "US", "state": "NY", "display_address": ["22 Jones St", "New York, NY 10014"]}, "phone": "", "display_phone": "", "distance": 4123.659846374433}, {"id": "nnSyjwIkhbJIBMiBtch_BQ", "alias": "kimoto-rooftop-brooklyn-5", "name": "Kimoto Rooftop", "image_url": "https://s3-media2.fl.yelpcdn.com/bphoto/6_-ZWMIayaZfxnj19mCZQA/o.jpg", "is_closed": false, "url": "https://www.yelp.com/biz/kimoto-rooftop-brooklyn-5?adjust_creative=9gNmiWYX8uTbFBeTTvJMdA&utm_campaign=yelp_api_v3&utm_medium=api_v3_business_search&utm_source=9gNmiWYX8uTbFBeTTvJMdA", "review_count": 690, "categories": [{"alias": "asianfusion", "title": "Asian Fusion"}, {"alias": "cocktailbars", "title": "Cocktail Bars"}, {"alias": "danceclubs", "title": "Dance Clubs"}], "rating": 3.5, "coordinates": {"latitude": 40.6915156530047, "longitude": -73.9846554}, "transactions": ["pickup", "delivery"], "price": "$$", "location": {"address1": "228 Duffield St", "address2": "", "address3": "", "city": "Brooklyn", "zip_code": "11201", "country": "US", "state": "NY", "display_address": ["228 Duffield St", "Brooklyn, NY 11201"]}, "phone": "+17188588940", "display_phone": "(718) 858-8940", "distance": 7629.923354172501}, {"id": "wJLDkcnzMVx7vsgiTfXKsw", "alias": "kensi-thai-restaurant-new-york", "name": "Kensi Thai Restaurant", "image_url": "https://s3-media3.fl.yelpcdn.com/bphoto/jstDa4dqB9tRhjr5XzB7bQ/o.jpg", "is_closed": false, "url": "https://www.yelp.com/biz/kensi-thai-restaurant-new-york?adjust_creative=9gNmiWYX8uTbFBeTTvJMdA&utm_campaign=yelp_api_v3&utm_medium=api_v3_business_search&utm_source=9gNmiWYX8uTbFBeTTvJMdA", "review_count": 9, "categories": [{"alias": "thai", "title": "Thai"}, {"alias": "asianfusion", "title": "Asian Fusion"}, {"alias": "coffee", "title": "Coffee & Tea"}], "rating": 4.0, "coordinates": {"latitude": 40.82275, "longitude": -73.93876}, "transactions": ["pickup", "delivery"], "location": {"address1": "2528 Adam Clayton Powell Jr Blvd", "address2": null, "address3": "", "city": "New York", "zip_code": "10039", "country": "US", "state": "NY", "display_address": ["2528 Adam Clayton Powell Jr Blvd", "New York, NY 10039"]}, "phone": "+16468500083", "display_phone": "(646) 850-0083", "distance": 7532.493560893197}, {"id": "jLhKLKuNPMTzAMJgEY5DsQ", "alias": "monarch-restaurant-brooklyn", "name": "Monarch Restaurant", "image_url": "https://s3-media2.fl.yelpcdn.com/bphoto/uUpaXi0VyfQ92QXBEyTRYw/o.jpg", "is_closed": false, "url": "https://www.yelp.com/biz/monarch-restaurant-brooklyn?adjust_creative=9gNmiWYX8uTbFBeTTvJMdA&utm_campaign=yelp_api_v3&utm_medium=api_v3_business_search&utm_source=9gNmiWYX8uTbFBeTTvJMdA", "review_count": 112, "categories": [{"alias": "panasian", "title": "Pan Asian"}, {"alias": "cocktailbars", "title": "Cocktail Bars"}, {"alias": "breakfast_brunch", "title": "Breakfast & Brunch"}], "rating": 4.5, "coordinates": {"latitude": 40.715895, "longitude": -73.962271}, "transactions": ["pickup", "delivery"], "price": "$$", "location": {"address1": "146 Metropolitan Ave", "address2": "", "address3": null, "city": "Brooklyn", "zip_code": "11249", "country": "US", "state": "NY", "display_address": ["146 Metropolitan Ave", "Brooklyn, NY 11249"]}, "phone": "+19179091596", "display_phone": "(917) 909-1596", "distance": 4850.045033117468}, {"id": "viB_c1ywQJJOr-zVQHkr0A", "alias": "roomservice-new-york", "name": "Roomservice", "image_url": "", "is_closed": false, "url": "https://www.yelp.com/biz/roomservice-new-york?adjust_creative=9gNmiWYX8uTbFBeTTvJMdA&utm_campaign=yelp_api_v3&utm_medium=api_v3_business_search&utm_source=9gNmiWYX8uTbFBeTTvJMdA", "review_count": 1, "categories": [{"alias": "thai", "title": "Thai"}], "rating": 5.0, "coordinates": {"latitude": 40.73039, "longitude": -73.98381}, "transactions": [], "location": {"address1": "349 E 12th St", "address2": null, "address3": null, "city": "New York", "zip_code": "10003", "country": "US", "state": "NY", "display_address": ["349 E 12th St", "New York, NY 10003"]}, "phone": "+12126140155", "display_phone": "(212) 614-0155", "distance": 3419.850301765769}, {"id": "ubX4CD4GqXpXjLfuBJo8HQ", "alias": "spicy-republic-new-york", "name": "Spicy Republic", "image_url": "", "is_closed": false, "url": "https://www.yelp.com/biz/spicy-republic-new-york?adjust_creative=9gNmiWYX8uTbFBeTTvJMdA&utm_campaign=yelp_api_v3&utm_medium=api_v3_business_search&utm_source=9gNmiWYX8uTbFBeTTvJMdA", "review_count": 2, "categories": [{"alias": "thai", "title": "Thai"}], "rating": 2.5, "coordinates": {"latitude": 40.7557, "longitude": -73.96771}, "transactions": [], "price": "$", "location": {"address1": "972 Second Ave", "address2": "", "address3": "", "city": "New York", "zip_code": "10021", "country": "US", "state": "NY", "display_address": ["972 Second Ave", "New York, NY 10021"]}, "phone": "+12124212324", "display_phone": "(212) 421-2324", "distance": 426.66248440875296}, {"id": "UBnrFZuqa1nMrV7ncWHBwA", "alias": "corthaiyou-brooklyn", "name": "Corthaiyou", "image_url": "https://s3-media2.fl.yelpcdn.com/bphoto/FUj3bTcBBLQi9DGBLfhQLg/o.jpg", "is_closed": false, "url": "https://www.yelp.com/biz/corthaiyou-brooklyn?adjust_creative=9gNmiWYX8uTbFBeTTvJMdA&utm_campaign=yelp_api_v3&utm_medium=api_v3_business_search&utm_source=9gNmiWYX8uTbFBeTTvJMdA", "review_count": 232, "categories": [{"alias": "thai", "title": "Thai"}], "rating": 3.5, "coordinates": {"latitude": 40.640433, "longitude": -73.965713}, "transactions": ["pickup", "delivery"], "price": "$$", "location": {"address1": "1310 Cortelyou Rd", "address2": "", "address3": null, "city": "Brooklyn", "zip_code": "11226", "country": "US", "state": "NY", "display_address": ["1310 Cortelyou Rd", "Brooklyn, NY 11226"]}, "phone": "+17186767388", "display_phone": "(718) 676-7388", "distance": 13207.471867077942}, {"id": "CODADSsXEq7PsdV7BncjFw", "alias": "uni-thai-bistro-brooklyn", "name": "Uni Thai Bistro", "image_url": "https://s3-media1.fl.yelpcdn.com/bphoto/YhvYkdoB7EbpK-DHG7exDg/o.jpg", "is_closed": false, "url": "https://www.yelp.com/biz/uni-thai-bistro-brooklyn?adjust_creative=9gNmiWYX8uTbFBeTTvJMdA&utm_campaign=yelp_api_v3&utm_medium=api_v3_business_search&utm_source=9gNmiWYX8uTbFBeTTvJMdA", "review_count": 36, "categories": [{"alias": "thai", "title": "Thai"}], "rating": 4.5, "coordinates": {"latitude": 40.64571, "longitude": -73.97302}, "transactions": ["pickup", "delivery"], "location": {"address1": "265 E 7th St", "address2": null, "address3": "", "city": "Brooklyn", "zip_code": "11218", "country": "US", "state": "NY", "display_address": ["265 E 7th St", "Brooklyn, NY 11218"]}, "phone": "+19294195642", "display_phone": "(929) 419-5642", "distance": 12622.18308123869}, {"id": "JUPxlDVMxuRSsqMcH6RCVg", "alias": "mitsuwa-marketplace-edgewater-3", "name": "Mitsuwa Marketplace", "image_url": "https://s3-media2.fl.yelpcdn.com/bphoto/X6ii0lDI0n7Ml8CiK7mNzg/o.jpg", "is_closed": false, "url": "https://www.yelp.com/biz/mitsuwa-marketplace-edgewater-3?adjust_creative=9gNmiWYX8uTbFBeTTvJMdA&utm_campaign=yelp_api_v3&utm_medium=api_v3_business_search&utm_source=9gNmiWYX8uTbFBeTTvJMdA", "review_count": 1855, "categories": [{"alias": "japanese", "title": "Japanese"}, {"alias": "sushi", "title": "Sushi Bars"}, {"alias": "intlgrocery", "title": "International Grocery"}], "rating": 4.5, "coordinates": {"latitude": 40.8158107608922, "longitude": -73.9801246070119}, "transactions": [], "price": "$$", "location": {"address1": "595 River Rd", "address2": "", "address3": "", "city": "Edgewater", "zip_code": "07020", "country": "US", "state": "NJ", "display_address": ["595 River Rd", "Edgewater, NJ 07020"]}, "phone": "+12019419113", "display_phone": "(201) 941-9113", "distance": 6359.968821171349}, {"id": "WOrCzAOgs50Wf-dlnHrzDw", "alias": "mee-thai-cuisine-brooklyn-2", "name": "Mee Thai Cuisine", "image_url": "https://s3-media4.fl.yelpcdn.com/bphoto/SUnF2yC4kZQk-z5nDjKnnw/o.jpg", "is_closed": false, "url": "https://www.yelp.com/biz/mee-thai-cuisine-brooklyn-2?adjust_creative=9gNmiWYX8uTbFBeTTvJMdA&utm_campaign=yelp_api_v3&utm_medium=api_v3_business_search&utm_source=9gNmiWYX8uTbFBeTTvJMdA", "review_count": 188, "categories": [{"alias": "thai", "title": "Thai"}, {"alias": "noodles", "title": "Noodles"}, {"alias": "fishnchips", "title": "Fish & Chips"}], "rating": 4.0, "coordinates": {"latitude": 40.67739457061641, "longitude": -73.97997011876328}, "transactions": ["pickup", "delivery"], "price": "$$", "location": {"address1": "180 5th Ave", "address2": "", "address3": "", "city": "Brooklyn", "zip_code": "11217", "country": "US", "state": "NY", "display_address": ["180 5th Ave", "Brooklyn, NY 11217"]}, "phone": "+17182308280", "display_phone": "(718) 230-8280", "distance": 9135.637571109353}, {"id": "r_4ygAZcSaRVE0hV5pKkoA", "alias": "just-salad-new-york-62", "name": "Just Salad", "image_url": "https://s3-media3.fl.yelpcdn.com/bphoto/GV9NkSXcclCDWcSyYQYZfA/o.jpg", "is_closed": false, "url": "https://www.yelp.com/biz/just-salad-new-york-62?adjust_creative=9gNmiWYX8uTbFBeTTvJMdA&utm_campaign=yelp_api_v3&utm_medium=api_v3_business_search&utm_source=9gNmiWYX8uTbFBeTTvJMdA", "review_count": 8, "categories": [{"alias": "vegan", "title": "Vegan"}, {"alias": "vegetarian", "title": "Vegetarian"}, {"alias": "salad", "title": "Salad"}], "rating": 4.5, "coordinates": {"latitude": 40.76256, "longitude": -73.97778}, "transactions": ["pickup", "delivery"], "location": {"address1": "1350 Ave of the Americas", "address2": null, "address3": "", "city": "New York", "zip_code": "10019", "country": "US", "state": "NY", "display_address": ["1350 Ave of the Americas", "New York, NY 10019"]}, "phone": "+18666733757", "display_phone": "(866) 673-3757", "distance": 788.4303446236705}, {"id": "tguMh2GgOcU9fu6WN3dqpw", "alias": "the-original-buddha-bodai-kosher-vegetarian-restaurant-new-york-4", "name": "The Original Buddha Bodai Kosher Vegetarian Restaurant", "image_url": "https://s3-media2.fl.yelpcdn.com/bphoto/amfkulADNxnzUgWez2J4oA/o.jpg", "is_closed": false, "url": "https://www.yelp.com/biz/the-original-buddha-bodai-kosher-vegetarian-restaurant-new-york-4?adjust_creative=9gNmiWYX8uTbFBeTTvJMdA&utm_campaign=yelp_api_v3&utm_medium=api_v3_business_search&utm_source=9gNmiWYX8uTbFBeTTvJMdA", "review_count": 1236, "categories": [{"alias": "chinese", "title": "Chinese"}, {"alias": "kosher", "title": "Kosher"}, {"alias": "vegan", "title": "Vegan"}], "rating": 4.0, "coordinates": {"latitude": 40.7138543, "longitude": -73.9989484}, "transactions": ["pickup", "delivery"], "price": "$$", "location": {"address1": "5 Mott St", "address2": null, "address3": "", "city": "New York", "zip_code": "10013", "country": "US", "state": "NY", "display_address": ["5 Mott St", "New York, NY 10013"]}, "phone": "+12125668388", "display_phone": "(212) 566-8388", "distance": 5614.332983938372}, {"id": "3BYgbjo8MtaIyLZMdTxrOQ", "alias": "geisha-sushi-new-york", "name": "Geisha Sushi", "image_url": "https://s3-media2.fl.yelpcdn.com/bphoto/yD3K-CtpQXL11Bpyt1fyZQ/o.jpg", "is_closed": false, "url": "https://www.yelp.com/biz/geisha-sushi-new-york?adjust_creative=9gNmiWYX8uTbFBeTTvJMdA&utm_campaign=yelp_api_v3&utm_medium=api_v3_business_search&utm_source=9gNmiWYX8uTbFBeTTvJMdA", "review_count": 454, "categories": [{"alias": "japanese", "title": "Japanese"}, {"alias": "sushi", "title": "Sushi Bars"}, {"alias": "wine_bars", "title": "Wine Bars"}], "rating": 4.0, "coordinates": {"latitude": 40.8241613, "longitude": -73.9519775}, "transactions": ["pickup", "delivery"], "price": "$$", "location": {"address1": "3468 Broadway", "address2": "", "address3": "", "city": "New York", "zip_code": "10031", "country": "US", "state": "NY", "display_address": ["3468 Broadway", "New York, NY 10031"]}, "phone": "+12128627800", "display_phone": "(212) 862-7800", "distance": 7376.445755064692}, {"id": "DYOyC7JQ0DBCY59b7HKb6A", "alias": "thai-mis-delicias-truck-1-new-york", "name": "Thai Mis Delicias - Truck 1", "image_url": "https://s3-media1.fl.yelpcdn.com/bphoto/ePBjbcwXhlrWKrU9iBlL6Q/o.jpg", "is_closed": false, "url": "https://www.yelp.com/biz/thai-mis-delicias-truck-1-new-york?adjust_creative=9gNmiWYX8uTbFBeTTvJMdA&utm_campaign=yelp_api_v3&utm_medium=api_v3_business_search&utm_source=9gNmiWYX8uTbFBeTTvJMdA", "review_count": 9, "categories": [{"alias": "thai", "title": "Thai"}, {"alias": "foodtrucks", "title": "Food Trucks"}], "rating": 2.5, "coordinates": {"latitude": 40.7388444, "longitude": -73.9922313}, "transactions": ["pickup", "delivery"], "location": {"address1": "130 5th Ave", "address2": null, "address3": null, "city": "New York", "zip_code": "10010", "country": "US", "state": "NY", "display_address": ["130 5th Ave", "New York, NY 10010"]}, "phone": "+13477541201", "display_phone": "(347) 754-1201", "distance": 2958.5897438028633}, {"id": "cqj7o7uZ_jboXL0BqO4YMg", "alias": "glaze-teriyaki-new-york-4", "name": "Glaze Teriyaki", "image_url": "https://s3-media1.fl.yelpcdn.com/bphoto/WAMAfgxH2GF_t3NJEeHvFQ/o.jpg", "is_closed": false, "url": "https://www.yelp.com/biz/glaze-teriyaki-new-york-4?adjust_creative=9gNmiWYX8uTbFBeTTvJMdA&utm_campaign=yelp_api_v3&utm_medium=api_v3_business_search&utm_source=9gNmiWYX8uTbFBeTTvJMdA", "review_count": 332, "categories": [{"alias": "japanese", "title": "Japanese"}, {"alias": "gluten_free", "title": "Gluten-Free"}, {"alias": "asianfusion", "title": "Asian Fusion"}], "rating": 3.5, "coordinates": {"latitude": 40.7591909, "longitude": -73.9704258}, "transactions": ["pickup", "delivery"], "price": "$$", "location": {"address1": "643 Lexington Ave", "address2": "", "address3": "", "city": "New York", "zip_code": "10022", "country": "US", "state": "NY", "display_address": ["643 Lexington Ave", "New York, NY 10022"]}, "phone": "+12129353400", "display_phone": "(212) 935-3400", "distance": 71.76814456984961}, {"id": "GIlunJr5LNcU1mHCchiKPA", "alias": "betong-khao-man-gai-new-york", "name": "Betong - Khao Man Gai", "image_url": "https://s3-media2.fl.yelpcdn.com/bphoto/oKDdK1edc-nOsMQqh4PydA/o.jpg", "is_closed": false, "url": "https://www.yelp.com/biz/betong-khao-man-gai-new-york?adjust_creative=9gNmiWYX8uTbFBeTTvJMdA&utm_campaign=yelp_api_v3&utm_medium=api_v3_business_search&utm_source=9gNmiWYX8uTbFBeTTvJMdA", "review_count": 12, "categories": [{"alias": "thai", "title": "Thai"}], "rating": 4.0, "coordinates": {"latitude": 40.718985, "longitude": -74.000702}, "transactions": [], "location": {"address1": "261 Canal St", "address2": null, "address3": "", "city": "New York", "zip_code": "10013", "country": "US", "state": "NY", "display_address": ["261 Canal St", "New York, NY 10013"]}, "phone": "", "display_phone": "", "distance": 5182.072461271841}, {"id": "uK7BhMiook9Ij93l-5nEUA", "alias": "hanabi-new-york", "name": "Hanabi", "image_url": "https://s3-media4.fl.yelpcdn.com/bphoto/ECqMVej9bI-5OEZdcSdRkg/o.jpg", "is_closed": false, "url": "https://www.yelp.com/biz/hanabi-new-york?adjust_creative=9gNmiWYX8uTbFBeTTvJMdA&utm_campaign=yelp_api_v3&utm_medium=api_v3_business_search&utm_source=9gNmiWYX8uTbFBeTTvJMdA", "review_count": 132, "categories": [{"alias": "sushi", "title": "Sushi Bars"}, {"alias": "salad", "title": "Salad"}, {"alias": "soup", "title": "Soup"}], "rating": 3.5, "coordinates": {"latitude": 40.771, "longitude": -73.95636}, "transactions": ["pickup", "delivery"], "price": "$", "location": {"address1": "1450 2nd Ave", "address2": "", "address3": "", "city": "New York", "zip_code": "10021", "country": "US", "state": "NY", "display_address": ["1450 2nd Ave", "New York, NY 10021"]}, "phone": "+12125701228", "display_phone": "(212) 570-1228", "distance": 1718.7688995001859}], "total": 1700, "region": {"center": {"longitude": -73.96957397460938, "latitude": 40.75917470627005}}}