{"businesses": [{"id": "jvPYm9rYK-5ddnjU30Oz4Q", "alias": "avant-garden-new-york", "name": "Avant Garden", "image_url": "https://s3-media1.fl.yelpcdn.com/bphoto/0DTlNsBy9zXYsgM9nTLv-Q/o.jpg", "is_closed": false, "url": "https://www.yelp.com/biz/avant-garden-new-york?adjust_creative=9gNmiWYX8uTbFBeTTvJMdA&utm_campaign=yelp_api_v3&utm_medium=api_v3_business_search&utm_source=9gNmiWYX8uTbFBeTTvJMdA", "review_count": 415, "categories": [{"alias": "newamerican", "title": "American (New)"}, {"alias": "vegan", "title": "Vegan"}, {"alias": "vegetarian", "title": "Vegetarian"}], "rating": 4.5, "coordinates": {"latitude": 40.7261499, "longitude": -73.98402}, "transactions": ["delivery", "pickup"], "price": "$$$", "location": {"address1": "130 E 7th St", "address2": null, "address3": "", "city": "New York", "zip_code": "10009", "country": "US", "state": "NY", "display_address": ["130 E 7th St", "New York, NY 10009"]}, "phone": "+19173367179", "display_phone": "(917) 336-7179", "distance": 3871.11361378816}, {"id": "WFx1VcopQGjW7jbERZUUbA", "alias": "tommy-thai-elmhurst-6", "name": "Tommy Thai", "image_url": "https://s3-media3.fl.yelpcdn.com/bphoto/VXZkt-JfKOui7B6nrTvCiQ/o.jpg", "is_closed": false, "url": "https://www.yelp.com/biz/tommy-thai-elmhurst-6?adjust_creative=9gNmiWYX8uTbFBeTTvJMdA&utm_campaign=yelp_api_v3&utm_medium=api_v3_business_search&utm_source=9gNmiWYX8uTbFBeTTvJMdA", "review_count": 168, "categories": [{"alias": "thai", "title": "Thai"}], "rating": 4.0, "coordinates": {"latitude": 40.7353096, "longitude": -73.8810272}, "transactions": ["delivery", "pickup"], "price": "$$", "location": {"address1": "85-32 Grand Ave", "address2": null, "address3": "", "city": "Elmhurst", "zip_code": "11373", "country": "US", "state": "NY", "display_address": ["85-32 Grand Ave", "Elmhurst, NY 11373"]}, "phone": "+19178326881", "display_phone": "(917) 832-6881", "distance": 7915.880017455809}, {"id": "fJW2CdsqXrKRtaHqoZoeHg", "alias": "jad-jaan-thai-vietnamese-new-york", "name": "Jad Jaan Thai Vietnamese", "image_url": "https://s3-media1.fl.yelpcdn.com/bphoto/rSFSxEvuALJ0ihxhe85cKg/o.jpg", "is_closed": false, "url": "https://www.yelp.com/biz/jad-jaan-thai-vietnamese-new-york?adjust_creative=9gNmiWYX8uTbFBeTTvJMdA&utm_campaign=yelp_api_v3&utm_medium=api_v3_business_search&utm_source=9gNmiWYX8uTbFBeTTvJMdA", "review_count": 41, "categories": [{"alias": "thai", "title": "Thai"}, {"alias": "vietnamese", "title": "Vietnamese"}], "rating": 4.0, "coordinates": {"latitude": 40.84124, "longitude": -73.93768}, "transactions": ["delivery", "pickup"], "location": {"address1": "83 Audubon Ave", "address2": null, "address3": "", "city": "New York", "zip_code": "10032", "country": "US", "state": "NY", "display_address": ["83 Audubon Ave", "New York, NY 10032"]}, "phone": "+19173883460", "display_phone": "(917) 388-3460", "distance": 9520.09620219495}, {"id": "gXnpqJ3NHF6Kxa3kfWs1oA", "alias": "proper-food-new-york-6", "name": "Proper Food", "image_url": "https://s3-media2.fl.yelpcdn.com/bphoto/XH43AH1jq92dDE_1djUSGA/o.jpg", "is_closed": false, "url": "https://www.yelp.com/biz/proper-food-new-york-6?adjust_creative=9gNmiWYX8uTbFBeTTvJMdA&utm_campaign=yelp_api_v3&utm_medium=api_v3_business_search&utm_source=9gNmiWYX8uTbFBeTTvJMdA", "review_count": 13, "categories": [{"alias": "salad", "title": "Salad"}, {"alias": "sandwiches", "title": "Sandwiches"}, {"alias": "breakfast_brunch", "title": "Breakfast & Brunch"}], "rating": 3.5, "coordinates": {"latitude": 40.761454, "longitude": -73.97273}, "transactions": ["delivery", "pickup"], "location": {"address1": "555 Madison Ave", "address2": null, "address3": "", "city": "New York", "zip_code": "10022", "country": "US", "state": "NY", "display_address": ["555 Madison Ave", "New York, NY 10022"]}, "phone": "+12128459885", "display_phone": "(212) 845-9885", "distance": 353.68320878134045}, {"id": "3ik-lT8Pu7PAc_04af1J0w", "alias": "vegan-ginger-root-new-york-2", "name": "Vegan Ginger Root", "image_url": "https://s3-media2.fl.yelpcdn.com/bphoto/oKEzVVexEPotc76zLmAFbQ/o.jpg", "is_closed": false, "url": "https://www.yelp.com/biz/vegan-ginger-root-new-york-2?adjust_creative=9gNmiWYX8uTbFBeTTvJMdA&utm_campaign=yelp_api_v3&utm_medium=api_v3_business_search&utm_source=9gNmiWYX8uTbFBeTTvJMdA", "review_count": 148, "categories": [{"alias": "vegan", "title": "Vegan"}], "rating": 4.0, "coordinates": {"latitude": 40.76252961552352, "longitude": -73.95957}, "transactions": ["delivery", "pickup"], "price": "$$", "location": {"address1": "1164 1st Ave", "address2": null, "address3": "", "city": "New York", "zip_code": "10065", "country": "US", "state": "NY", "display_address": ["1164 1st Ave", "New York, NY 10065"]}, "phone": "+16463019817", "display_phone": "(646) 301-9817", "distance": 921.4605978013637}, {"id": "rBZeiAqUn2m6mnVX7n7e0A", "alias": "fresh-ginger-new-york-5", "name": "Fresh Ginger", "image_url": "https://s3-media4.fl.yelpcdn.com/bphoto/ITNQwOMC5p_rlPW2icsaRg/o.jpg", "is_closed": false, "url": "https://www.yelp.com/biz/fresh-ginger-new-york-5?adjust_creative=9gNmiWYX8uTbFBeTTvJMdA&utm_campaign=yelp_api_v3&utm_medium=api_v3_business_search&utm_source=9gNmiWYX8uTbFBeTTvJMdA", "review_count": 46, "categories": [{"alias": "ramen", "title": "Ramen"}, {"alias": "sushi", "title": "Sushi Bars"}, {"alias": "poke", "title": "Poke"}], "rating": 4.0, "coordinates": {"latitude": 40.75159117, "longitude": -73.970003}, "transactions": ["delivery", "pickup"], "price": "$$", "location": {"address1": "311 East 45th St", "address2": null, "address3": "", "city": "New York", "zip_code": "10017", "country": "US", "state": "NY", "display_address": ["311 East 45th St", "New York, NY 10017"]}, "phone": "+12124081782", "display_phone": "(212) 408-1782", "distance": 846.3582037819508}, {"id": "ONQRhDuWv0e9R5xOiI7YAA", "alias": "gyu-kaku-japanese-bbq-new-york-3", "name": "Gyu-Kaku Japanese BBQ", "image_url": "https://s3-media1.fl.yelpcdn.com/bphoto/nLuORVBHq736K32tDUfoaA/o.jpg", "is_closed": false, "url": "https://www.yelp.com/biz/gyu-kaku-japanese-bbq-new-york-3?adjust_creative=9gNmiWYX8uTbFBeTTvJMdA&utm_campaign=yelp_api_v3&utm_medium=api_v3_business_search&utm_source=9gNmiWYX8uTbFBeTTvJMdA", "review_count": 1350, "categories": [{"alias": "japanese", "title": "Japanese"}, {"alias": "bbq", "title": "Barbeque"}, {"alias": "asianfusion", "title": "Asian Fusion"}], "rating": 4.0, "coordinates": {"latitude": 40.759142237934725, "longitude": -73.98989855434367}, "transactions": ["delivery", "pickup"], "price": "$$", "location": {"address1": "321 W 44th St", "address2": "Ste 103", "address3": "", "city": "New York", "zip_code": "10036", "country": "US", "state": "NY", "display_address": ["321 W 44th St", "Ste 103", "New York, NY 10036"]}, "phone": "+16466929115", "display_phone": "(646) 692-9115", "distance": 1711.8554784944351}, {"id": "8b7Nr6624zlBJTf8zYyrLw", "alias": "mama-sushi-new-york", "name": "Mama Sushi", "image_url": "https://s3-media1.fl.yelpcdn.com/bphoto/OMNTBkvokgd1wopFVwF77A/o.jpg", "is_closed": false, "url": "https://www.yelp.com/biz/mama-sushi-new-york?adjust_creative=9gNmiWYX8uTbFBeTTvJMdA&utm_campaign=yelp_api_v3&utm_medium=api_v3_business_search&utm_source=9gNmiWYX8uTbFBeTTvJMdA", "review_count": 843, "categories": [{"alias": "sushi", "title": "Sushi Bars"}, {"alias": "japanese", "title": "Japanese"}, {"alias": "cocktailbars", "title": "Cocktail Bars"}], "rating": 3.0, "coordinates": {"latitude": 40.8661259, "longitude": -73.9277212}, "transactions": ["delivery", "pickup"], "price": "$$", "location": {"address1": "237 Dyckman St", "address2": "", "address3": "", "city": "New York", "zip_code": "10034", "country": "US", "state": "NY", "display_address": ["237 Dyckman St", "New York, NY 10034"]}, "phone": "+12125440003", "display_phone": "(212) 544-0003", "distance": 12417.01969805152}, {"id": "_6SrrLr7qe6-dhPkzWrTSg", "alias": "kung-fu-pho-jersey-city", "name": "Kung Fu Pho", "image_url": "https://s3-media3.fl.yelpcdn.com/bphoto/yPlf8UHBO9O1i-E9CZ3FZA/o.jpg", "is_closed": false, "url": "https://www.yelp.com/biz/kung-fu-pho-jersey-city?adjust_creative=9gNmiWYX8uTbFBeTTvJMdA&utm_campaign=yelp_api_v3&utm_medium=api_v3_business_search&utm_source=9gNmiWYX8uTbFBeTTvJMdA", "review_count": 44, "categories": [{"alias": "vietnamese", "title": "Vietnamese"}], "rating": 3.5, "coordinates": {"latitude": 40.71599, "longitude": -74.04551}, "transactions": ["delivery", "pickup"], "location": {"address1": "257 Grand St", "address2": "", "address3": null, "city": "Jersey City", "zip_code": "07302", "country": "US", "state": "NJ", "display_address": ["257 Grand St", "Jersey City, NJ 07302"]}, "phone": "+12015162181", "display_phone": "(201) 516-2181", "distance": 7997.093312199566}, {"id": "61JIVs4L3wmP1j4vJar1Tg", "alias": "saku-hoboken-2", "name": "Saku", "image_url": "https://s3-media1.fl.yelpcdn.com/bphoto/b0gmBUOQ2ydZhjUr1UGOrQ/o.jpg", "is_closed": false, "url": "https://www.yelp.com/biz/saku-hoboken-2?adjust_creative=9gNmiWYX8uTbFBeTTvJMdA&utm_campaign=yelp_api_v3&utm_medium=api_v3_business_search&utm_source=9gNmiWYX8uTbFBeTTvJMdA", "review_count": 333, "categories": [{"alias": "cocktailbars", "title": "Cocktail Bars"}, {"alias": "asianfusion", "title": "Asian Fusion"}, {"alias": "japanese", "title": "Japanese"}], "rating": 4.0, "coordinates": {"latitude": 40.7482982, "longitude": -74.0305929}, "transactions": ["delivery", "pickup"], "price": "$$", "location": {"address1": "936 Park Ave", "address2": "", "address3": null, "city": "Hoboken", "zip_code": "07030", "country": "US", "state": "NJ", "display_address": ["936 Park Ave", "Hoboken, NJ 07030"]}, "phone": "+12019423956", "display_phone": "(201) 942-3956", "distance": 5259.074717386997}, {"id": "3LQD4aB3UYPteZfsyglV4w", "alias": "jin-sushi-and-thai-brooklyn-3", "name": "Jin Sushi & Thai", "image_url": "https://s3-media2.fl.yelpcdn.com/bphoto/yyG6-XH83YPj5EwArB-d9w/o.jpg", "is_closed": false, "url": "https://www.yelp.com/biz/jin-sushi-and-thai-brooklyn-3?adjust_creative=9gNmiWYX8uTbFBeTTvJMdA&utm_campaign=yelp_api_v3&utm_medium=api_v3_business_search&utm_source=9gNmiWYX8uTbFBeTTvJMdA", "review_count": 107, "categories": [{"alias": "japanese", "title": "Japanese"}, {"alias": "thai", "title": "Thai"}, {"alias": "sushi", "title": "Sushi Bars"}], "rating": 4.0, "coordinates": {"latitude": 40.6081597222155, "longitude": -73.9574643192272}, "transactions": ["delivery", "pickup"], "price": "$$", "location": {"address1": "1708 E 16th St", "address2": "", "address3": "", "city": "Brooklyn", "zip_code": "11229", "country": "US", "state": "NY", "display_address": ["1708 E 16th St", "Brooklyn, NY 11229"]}, "phone": "+17183363811", "display_phone": "(718) 336-3811", "distance": 16823.098575106287}, {"id": "9DceMTrjyVqBgQRqgR6GWw", "alias": "red-bamboo-new-york", "name": "Red Bamboo", "image_url": "https://s3-media4.fl.yelpcdn.com/bphoto/dvbsjK-TA2KpUyMun7T7Nw/o.jpg", "is_closed": false, "url": "https://www.yelp.com/biz/red-bamboo-new-york?adjust_creative=9gNmiWYX8uTbFBeTTvJMdA&utm_campaign=yelp_api_v3&utm_medium=api_v3_business_search&utm_source=9gNmiWYX8uTbFBeTTvJMdA", "review_count": 1824, "categories": [{"alias": "vegetarian", "title": "Vegetarian"}, {"alias": "soulfood", "title": "Soul Food"}, {"alias": "vegan", "title": "Vegan"}], "rating": 4.0, "coordinates": {"latitude": 40.7311846, "longitude": -74.00042619999999}, "transactions": ["delivery", "pickup"], "price": "$$", "location": {"address1": "140 W 4th St", "address2": "Ste A", "address3": "", "city": "New York", "zip_code": "10012", "country": "US", "state": "NY", "display_address": ["140 W 4th St", "Ste A", "New York, NY 10012"]}, "phone": "+12122601212", "display_phone": "(212) 260-1212", "distance": 4054.879823650619}, {"id": "S1yH5vdJh2L2UIb7zJ2OHg", "alias": "mito-forest-hills", "name": "Mito", "image_url": "https://s3-media4.fl.yelpcdn.com/bphoto/ZzcQvleJXTGcCfJw4aDztQ/o.jpg", "is_closed": false, "url": "https://www.yelp.com/biz/mito-forest-hills?adjust_creative=9gNmiWYX8uTbFBeTTvJMdA&utm_campaign=yelp_api_v3&utm_medium=api_v3_business_search&utm_source=9gNmiWYX8uTbFBeTTvJMdA", "review_count": 451, "categories": [{"alias": "japanese", "title": "Japanese"}, {"alias": "sushi", "title": "Sushi Bars"}, {"alias": "asianfusion", "title": "Asian Fusion"}], "rating": 4.0, "coordinates": {"latitude": 40.732417, "longitude": -73.849864}, "transactions": ["delivery", "pickup"], "price": "$$", "location": {"address1": "64-18 108th St", "address2": "", "address3": null, "city": "Forest Hills", "zip_code": "11375", "country": "US", "state": "NY", "display_address": ["64-18 108th St", "Forest Hills, NY 11375"]}, "phone": "+17182556668", "display_phone": "(718) 255-6668", "distance": 10514.432559500101}, {"id": "DY0y0KPwu8LnQteNB-uoAQ", "alias": "amaze-new-york", "name": "Amaze", "image_url": "https://s3-media1.fl.yelpcdn.com/bphoto/ct7SAtAdWU-2Z8dnPoZLlQ/o.jpg", "is_closed": false, "url": "https://www.yelp.com/biz/amaze-new-york?adjust_creative=9gNmiWYX8uTbFBeTTvJMdA&utm_campaign=yelp_api_v3&utm_medium=api_v3_business_search&utm_source=9gNmiWYX8uTbFBeTTvJMdA", "review_count": 279, "categories": [{"alias": "lounges", "title": "Lounges"}, {"alias": "asianfusion", "title": "Asian Fusion"}, {"alias": "pubs", "title": "Pubs"}], "rating": 3.0, "coordinates": {"latitude": 40.7519302, "longitude": -73.9739609}, "transactions": ["delivery", "pickup"], "price": "$$", "location": {"address1": "694 3rd Ave", "address2": "", "address3": "", "city": "New York", "zip_code": "10017", "country": "US", "state": "NY", "display_address": ["694 3rd Ave", "New York, NY 10017"]}, "phone": "+12129865555", "display_phone": "(212) 986-5555", "distance": 886.9857861462277}, {"id": "KQVwmDSp1N3v6pWQXtlV1Q", "alias": "padthaiguy-new-york", "name": "PadThaiGuy", "image_url": "https://s3-media2.fl.yelpcdn.com/bphoto/euItyMqqkv9vBhDvyrSXCQ/o.jpg", "is_closed": false, "url": "https://www.yelp.com/biz/padthaiguy-new-york?adjust_creative=9gNmiWYX8uTbFBeTTvJMdA&utm_campaign=yelp_api_v3&utm_medium=api_v3_business_search&utm_source=9gNmiWYX8uTbFBeTTvJMdA", "review_count": 2, "categories": [{"alias": "fooddeliveryservices", "title": "Food Delivery Services"}, {"alias": "thai", "title": "Thai"}], "rating": 3.0, "coordinates": {"latitude": 40.71626663208008, "longitude": -73.98758697509766}, "transactions": ["delivery"], "location": {"address1": null, "address2": null, "address3": null, "city": "New York", "zip_code": "10002", "country": "US", "state": "NY", "display_address": ["New York, NY 10002"]}, "phone": "+19172617891", "display_phone": "(917) 261-7891", "distance": 5261.642168386665}, {"id": "vck-SQMVm4dXEoXkNWXGUg", "alias": "chill-d-taste-thai-flushing", "name": "Chill D Taste Thai", "image_url": "https://s3-media4.fl.yelpcdn.com/bphoto/s9MwbhuRhv8us_o1BSdu5g/o.jpg", "is_closed": false, "url": "https://www.yelp.com/biz/chill-d-taste-thai-flushing?adjust_creative=9gNmiWYX8uTbFBeTTvJMdA&utm_campaign=yelp_api_v3&utm_medium=api_v3_business_search&utm_source=9gNmiWYX8uTbFBeTTvJMdA", "review_count": 41, "categories": [{"alias": "thai", "title": "Thai"}], "rating": 4.0, "coordinates": {"latitude": 40.7229760286472, "longitude": -73.80069668193148}, "transactions": ["delivery", "pickup"], "location": {"address1": "167-11 Union Tpke", "address2": "", "address3": null, "city": "Flushing", "zip_code": "11366", "country": "US", "state": "NY", "display_address": ["167-11 Union Tpke", "Flushing, NY 11366"]}, "phone": "+19293860017", "display_phone": "(929) 386-0017", "distance": 14786.07815235062}, {"id": "FvyhJRPCth2_1pmXlBbTGA", "alias": "pine-box-rock-shop-brooklyn", "name": "Pine Box Rock Shop", "image_url": "https://s3-media2.fl.yelpcdn.com/bphoto/4sAMSK5l6EE0RKW8ZvXV4Q/o.jpg", "is_closed": false, "url": "https://www.yelp.com/biz/pine-box-rock-shop-brooklyn?adjust_creative=9gNmiWYX8uTbFBeTTvJMdA&utm_campaign=yelp_api_v3&utm_medium=api_v3_business_search&utm_source=9gNmiWYX8uTbFBeTTvJMdA", "review_count": 234, "categories": [{"alias": "vegan", "title": "Vegan"}, {"alias": "cocktailbars", "title": "Cocktail Bars"}], "rating": 4.0, "coordinates": {"latitude": 40.70528, "longitude": -73.93267}, "transactions": ["delivery", "pickup"], "price": "$$", "location": {"address1": "12 Grattan St", "address2": "", "address3": "", "city": "Brooklyn", "zip_code": "11206", "country": "US", "state": "NY", "display_address": ["12 Grattan St", "Brooklyn, NY 11206"]}, "phone": "+17183666311", "display_phone": "(718) 366-6311", "distance": 6747.29474233536}, {"id": "od-5v2v1HdGisEDAXotqeg", "alias": "poke-new-york", "name": "Poke", "image_url": "https://s3-media2.fl.yelpcdn.com/bphoto/ZdoXwEVY8d-yel5DJ4QkJw/o.jpg", "is_closed": false, "url": "https://www.yelp.com/biz/poke-new-york?adjust_creative=9gNmiWYX8uTbFBeTTvJMdA&utm_campaign=yelp_api_v3&utm_medium=api_v3_business_search&utm_source=9gNmiWYX8uTbFBeTTvJMdA", "review_count": 492, "categories": [{"alias": "sushi", "title": "Sushi Bars"}, {"alias": "japanese", "title": "Japanese"}], "rating": 4.0, "coordinates": {"latitude": 40.7766, "longitude": -73.95057}, "transactions": ["delivery"], "price": "$$", "location": {"address1": "343 E 85th St", "address2": null, "address3": "", "city": "New York", "zip_code": "10028", "country": "US", "state": "NY", "display_address": ["343 E 85th St", "New York, NY 10028"]}, "phone": "+12122490569", "display_phone": "(212) 249-0569", "distance": 2524.055281261452}, {"id": "zpJeDFSaXag2jot5uMTrCQ", "alias": "little-mint-new-york", "name": "little mint", "image_url": "", "is_closed": false, "url": "https://www.yelp.com/biz/little-mint-new-york?adjust_creative=9gNmiWYX8uTbFBeTTvJMdA&utm_campaign=yelp_api_v3&utm_medium=api_v3_business_search&utm_source=9gNmiWYX8uTbFBeTTvJMdA", "review_count": 3, "categories": [{"alias": "fooddeliveryservices", "title": "Food Delivery Services"}], "rating": 1.0, "coordinates": {"latitude": 40.7357336, "longitude": -73.9942513}, "transactions": ["delivery", "pickup"], "location": {"address1": "74 5th Ave", "address2": "", "address3": null, "city": "New York", "zip_code": "10011", "country": "US", "state": "NY", "display_address": ["74 5th Ave", "New York, NY 10011"]}, "phone": "", "display_phone": "", "distance": 3333.996230337624}, {"id": "hzh4b_Ly9AvIxWMGRjr_fw", "alias": "p-f-changs-new-york-4", "name": "P F Chang's", "image_url": "https://s3-media3.fl.yelpcdn.com/bphoto/4wNxaoQANa_Zk1Vus__VNg/o.jpg", "is_closed": false, "url": "https://www.yelp.com/biz/p-f-changs-new-york-4?adjust_creative=9gNmiWYX8uTbFBeTTvJMdA&utm_campaign=yelp_api_v3&utm_medium=api_v3_business_search&utm_source=9gNmiWYX8uTbFBeTTvJMdA", "review_count": 32, "categories": [{"alias": "chinese", "title": "Chinese"}, {"alias": "asianfusion", "title": "Asian Fusion"}], "rating": 4.5, "coordinates": {"latitude": 40.73422449698378, "longitude": -73.99228516504304}, "transactions": ["delivery", "pickup"], "location": {"address1": "113 University Pl", "address2": null, "address3": null, "city": "New York", "zip_code": "10003", "country": "US", "state": "NY", "display_address": ["113 University Pl", "New York, NY 10003"]}, "phone": "+13323349290", "display_phone": "(332) 334-9290", "distance": 3370.06723324174}, {"id": "8c0xdJdmJxzmjQ7INX2h8A", "alias": "just-salad-new-york-67", "name": "Just Salad", "image_url": "https://s3-media3.fl.yelpcdn.com/bphoto/nqzWl0IlXMz15R6QWxyqYw/o.jpg", "is_closed": false, "url": "https://www.yelp.com/biz/just-salad-new-york-67?adjust_creative=9gNmiWYX8uTbFBeTTvJMdA&utm_campaign=yelp_api_v3&utm_medium=api_v3_business_search&utm_source=9gNmiWYX8uTbFBeTTvJMdA", "review_count": 2, "categories": [{"alias": "salad", "title": "Salad"}, {"alias": "vegan", "title": "Vegan"}, {"alias": "vegetarian", "title": "Vegetarian"}], "rating": 5.0, "coordinates": {"latitude": 40.74137, "longitude": -73.99448}, "transactions": ["delivery", "pickup"], "location": {"address1": "655 6th Ave", "address2": null, "address3": "", "city": "New York", "zip_code": "10011", "country": "US", "state": "NY", "display_address": ["655 6th Ave", "New York, NY 10011"]}, "phone": "+18666733757", "display_phone": "(866) 673-3757", "distance": 2866.627380289916}, {"id": "OPmRU32uFQ0Cx-7M3zX3bw", "alias": "lucys-vietnamese-bedford-stuyvesant-brooklyn", "name": "Lucy's Vietnamese - Bedford Stuyvesant", "image_url": "https://s3-media1.fl.yelpcdn.com/bphoto/nFFVxYXzI4KV4kKKEAOjog/o.jpg", "is_closed": false, "url": "https://www.yelp.com/biz/lucys-vietnamese-bedford-stuyvesant-brooklyn?adjust_creative=9gNmiWYX8uTbFBeTTvJMdA&utm_campaign=yelp_api_v3&utm_medium=api_v3_business_search&utm_source=9gNmiWYX8uTbFBeTTvJMdA", "review_count": 28, "categories": [{"alias": "vietnamese", "title": "Vietnamese"}, {"alias": "noodles", "title": "Noodles"}], "rating": 4.5, "coordinates": {"latitude": 40.68563468966789, "longitude": -73.9541969}, "transactions": ["delivery", "pickup"], "location": {"address1": "1111 Bedford Ave", "address2": null, "address3": "", "city": "Brooklyn", "zip_code": "11216", "country": "US", "state": "NY", "display_address": ["1111 Bedford Ave", "Brooklyn, NY 11216"]}, "phone": "+17188854446", "display_phone": "(718) 885-4446", "distance": 8279.309174624646}, {"id": "IJg3TdXz8IzKTfcspmr8MQ", "alias": "seasoned-vegan-new-york-2", "name": "Seasoned Vegan", "image_url": "https://s3-media2.fl.yelpcdn.com/bphoto/h8QbeXUGSz9AIFL8nM-zkA/o.jpg", "is_closed": false, "url": "https://www.yelp.com/biz/seasoned-vegan-new-york-2?adjust_creative=9gNmiWYX8uTbFBeTTvJMdA&utm_campaign=yelp_api_v3&utm_medium=api_v3_business_search&utm_source=9gNmiWYX8uTbFBeTTvJMdA", "review_count": 1238, "categories": [{"alias": "vegan", "title": "Vegan"}, {"alias": "soulfood", "title": "Soul Food"}, {"alias": "newamerican", "title": "American (New)"}], "rating": 4.0, "coordinates": {"latitude": 40.800664, "longitude": -73.952757}, "transactions": ["delivery", "pickup"], "price": "$$", "location": {"address1": "55 Saint Nicholas Ave", "address2": "", "address3": "", "city": "New York", "zip_code": "10026", "country": "US", "state": "NY", "display_address": ["55 Saint Nicholas Ave", "New York, NY 10026"]}, "phone": "+12122220092", "display_phone": "(212) 222-0092", "distance": 4825.193830423795}, {"id": "kBZggrnSP1kcUMnsnfkTaQ", "alias": "nan-xiang-xiao-long-bao-flushing-flushing", "name": "Nan Xiang Xiao Long Bao - Flushing", "image_url": "https://s3-media2.fl.yelpcdn.com/bphoto/_swf0c4gtBCd1Yu9ExJABA/o.jpg", "is_closed": false, "url": "https://www.yelp.com/biz/nan-xiang-xiao-long-bao-flushing-flushing?adjust_creative=9gNmiWYX8uTbFBeTTvJMdA&utm_campaign=yelp_api_v3&utm_medium=api_v3_business_search&utm_source=9gNmiWYX8uTbFBeTTvJMdA", "review_count": 4402, "categories": [{"alias": "shanghainese", "title": "Shanghainese"}, {"alias": "gourmet", "title": "Specialty Food"}, {"alias": "noodles", "title": "Noodles"}], "rating": 4.0, "coordinates": {"latitude": 40.75924, "longitude": -73.8326}, "transactions": ["delivery", "pickup"], "price": "$$", "location": {"address1": "39-16 Prince St", "address2": "Ste 104", "address3": "", "city": "Flushing", "zip_code": "11354", "country": "US", "state": "NY", "display_address": ["39-16 Prince St", "Ste 104", "Flushing, NY 11354"]}, "phone": "+17183213838", "display_phone": "(718) 321-3838", "distance": 11566.464604894709}, {"id": "YCBjn0t4bMaQb8Bk7l37ng", "alias": "gan-asia-new-york", "name": "Gan Asia", "image_url": "https://s3-media1.fl.yelpcdn.com/bphoto/cvNymAuaQJq8Bk111MPkwA/o.jpg", "is_closed": false, "url": "https://www.yelp.com/biz/gan-asia-new-york?adjust_creative=9gNmiWYX8uTbFBeTTvJMdA&utm_campaign=yelp_api_v3&utm_medium=api_v3_business_search&utm_source=9gNmiWYX8uTbFBeTTvJMdA", "review_count": 49, "categories": [{"alias": "chinese", "title": "Chinese"}, {"alias": "kosher", "title": "Kosher"}, {"alias": "thai", "title": "Thai"}], "rating": 2.5, "coordinates": {"latitude": 40.7923393, "longitude": -73.971405}, "transactions": ["delivery", "pickup"], "price": "$$", "location": {"address1": "691 Amsterdam Ave", "address2": "", "address3": "", "city": "New York", "zip_code": "10025", "country": "US", "state": "NY", "display_address": ["691 Amsterdam Ave", "New York, NY 10025"]}, "phone": "+12122803800", "display_phone": "(212) 280-3800", "distance": 3697.2437092196506}, {"id": "7hNakgpvyCVLotXhALvi_g", "alias": "mochi-dolci-new-york", "name": "Mochi Dolci", "image_url": "https://s3-media3.fl.yelpcdn.com/bphoto/qcQQArI3sNt9CYlE2Pp-tQ/o.jpg", "is_closed": false, "url": "https://www.yelp.com/biz/mochi-dolci-new-york?adjust_creative=9gNmiWYX8uTbFBeTTvJMdA&utm_campaign=yelp_api_v3&utm_medium=api_v3_business_search&utm_source=9gNmiWYX8uTbFBeTTvJMdA", "review_count": 19, "categories": [{"alias": "bubbletea", "title": "Bubble Tea"}, {"alias": "donuts", "title": "Donuts"}, {"alias": "thai", "title": "Thai"}], "rating": 4.0, "coordinates": {"latitude": 40.78334389566669, "longitude": -73.97945610000001}, "transactions": ["pickup"], "location": {"address1": "222 W 79th St", "address2": "", "address3": null, "city": "New York", "zip_code": "10024", "country": "US", "state": "NY", "display_address": ["222 W 79th St", "New York, NY 10024"]}, "phone": "+13326001199", "display_phone": "(332) 600-1199", "distance": 2813.3809033913203}, {"id": "EEf5KB5wx340TY7QwDKIqQ", "alias": "more-express-jersey-city", "name": "More Express", "image_url": "https://s3-media1.fl.yelpcdn.com/bphoto/gKm_-Z6paovOZxVEZhJ84w/o.jpg", "is_closed": false, "url": "https://www.yelp.com/biz/more-express-jersey-city?adjust_creative=9gNmiWYX8uTbFBeTTvJMdA&utm_campaign=yelp_api_v3&utm_medium=api_v3_business_search&utm_source=9gNmiWYX8uTbFBeTTvJMdA", "review_count": 369, "categories": [{"alias": "sushi", "title": "Sushi Bars"}, {"alias": "thai", "title": "Thai"}, {"alias": "soup", "title": "Soup"}], "rating": 3.5, "coordinates": {"latitude": 40.717907, "longitude": -74.0441}, "transactions": ["delivery", "pickup"], "price": "$$", "location": {"address1": "281 Grove St", "address2": "", "address3": "", "city": "Jersey City", "zip_code": "07302", "country": "US", "state": "NJ", "display_address": ["281 Grove St", "Jersey City, NJ 07302"]}, "phone": "+12014321673", "display_phone": "(201) 432-1673", "distance": 7777.010963070971}, {"id": "U9ze3syYNgM1CK14ELA9Xw", "alias": "kyuramen-bayside-bayside", "name": "Kyuramen - Bayside", "image_url": "https://s3-media4.fl.yelpcdn.com/bphoto/yI0Gso13P369ZX1Zc4G7ZQ/o.jpg", "is_closed": false, "url": "https://www.yelp.com/biz/kyuramen-bayside-bayside?adjust_creative=9gNmiWYX8uTbFBeTTvJMdA&utm_campaign=yelp_api_v3&utm_medium=api_v3_business_search&utm_source=9gNmiWYX8uTbFBeTTvJMdA", "review_count": 482, "categories": [{"alias": "ramen", "title": "Ramen"}, {"alias": "noodles", "title": "Noodles"}], "rating": 4.5, "coordinates": {"latitude": 40.7655861, "longitude": -73.7718426}, "transactions": ["delivery", "restaurant_reservation"], "price": "$$", "location": {"address1": "38-35 Bell Blvd", "address2": null, "address3": null, "city": "Bayside", "zip_code": "11361", "country": "US", "state": "NY", "display_address": ["38-35 Bell Blvd", "Bayside, NY 11361"]}, "phone": "+13478368484", "display_phone": "(347) 836-8484", "distance": 16676.52109610365}, {"id": "gLrHRCRSMLiUfqtcJ3S5Tw", "alias": "henrys-sandwich-new-york", "name": "Henry's Sandwich", "image_url": "https://s3-media2.fl.yelpcdn.com/bphoto/YBmnKlzLkriOwEETSgYVYw/o.jpg", "is_closed": false, "url": "https://www.yelp.com/biz/henrys-sandwich-new-york?adjust_creative=9gNmiWYX8uTbFBeTTvJMdA&utm_campaign=yelp_api_v3&utm_medium=api_v3_business_search&utm_source=9gNmiWYX8uTbFBeTTvJMdA", "review_count": 2, "categories": [{"alias": "vietnamese", "title": "Vietnamese"}, {"alias": "sandwiches", "title": "Sandwiches"}, {"alias": "bubbletea", "title": "Bubble Tea"}], "rating": 4.5, "coordinates": {"latitude": 40.70912, "longitude": -74.00578}, "transactions": ["delivery", "pickup"], "location": {"address1": "88 Fulton St", "address2": null, "address3": "", "city": "New York", "zip_code": "10038", "country": "US", "state": "NY", "display_address": ["88 Fulton St", "New York, NY 10038"]}, "phone": "+16468667818", "display_phone": "(646) 866-7818", "distance": 6345.125151666569}, {"id": "cWjl9L5VaM8lfUrb0dCPcg", "alias": "hanco-s-brooklyn", "name": "Hanco\u2019s", "image_url": "https://s3-media2.fl.yelpcdn.com/bphoto/fpq7L0g-1XDXoM1fczOprg/o.jpg", "is_closed": false, "url": "https://www.yelp.com/biz/hanco-s-brooklyn?adjust_creative=9gNmiWYX8uTbFBeTTvJMdA&utm_campaign=yelp_api_v3&utm_medium=api_v3_business_search&utm_source=9gNmiWYX8uTbFBeTTvJMdA", "review_count": 570, "categories": [{"alias": "vietnamese", "title": "Vietnamese"}, {"alias": "bubbletea", "title": "Bubble Tea"}, {"alias": "sandwiches", "title": "Sandwiches"}], "rating": 4.0, "coordinates": {"latitude": 40.666206583447085, "longitude": -73.982383}, "transactions": ["delivery", "pickup"], "price": "$", "location": {"address1": "354 7th Ave", "address2": "", "address3": "", "city": "Brooklyn", "zip_code": "11215", "country": "US", "state": "NY", "display_address": ["354 7th Ave", "Brooklyn, NY 11215"]}, "phone": "+17184998081", "display_phone": "(718) 499-8081", "distance": 10393.793286410057}, {"id": "i8NvYgvKTcckH5r87e_BxA", "alias": "just-salad-new-york-68", "name": "Just Salad", "image_url": "https://s3-media1.fl.yelpcdn.com/bphoto/RfGZPybCoHSGR3h2Dw7ORQ/o.jpg", "is_closed": false, "url": "https://www.yelp.com/biz/just-salad-new-york-68?adjust_creative=9gNmiWYX8uTbFBeTTvJMdA&utm_campaign=yelp_api_v3&utm_medium=api_v3_business_search&utm_source=9gNmiWYX8uTbFBeTTvJMdA", "review_count": 2, "categories": [{"alias": "salad", "title": "Salad"}, {"alias": "vegan", "title": "Vegan"}, {"alias": "vegetarian", "title": "Vegetarian"}], "rating": 5.0, "coordinates": {"latitude": 40.75179, "longitude": -73.98983}, "transactions": ["delivery", "pickup"], "location": {"address1": "463 7th Ave", "address2": null, "address3": "", "city": "New York", "zip_code": "10018", "country": "US", "state": "NY", "display_address": ["463 7th Ave", "New York, NY 10018"]}, "phone": "+18666733757", "display_phone": "(866) 673-3757", "distance": 1894.6606609341882}, {"id": "JhJLPp6KuBcD3CHCkEKJ_A", "alias": "cocoron-and-goemon-curry-new-york-2", "name": "Cocoron  & Goemon Curry", "image_url": "https://s3-media2.fl.yelpcdn.com/bphoto/hTP2OyCxqduTwaX-XzyF6A/o.jpg", "is_closed": false, "url": "https://www.yelp.com/biz/cocoron-and-goemon-curry-new-york-2?adjust_creative=9gNmiWYX8uTbFBeTTvJMdA&utm_campaign=yelp_api_v3&utm_medium=api_v3_business_search&utm_source=9gNmiWYX8uTbFBeTTvJMdA", "review_count": 1080, "categories": [{"alias": "japanese", "title": "Japanese"}, {"alias": "noodles", "title": "Noodles"}, {"alias": "comfortfood", "title": "Comfort Food"}], "rating": 4.0, "coordinates": {"latitude": 40.72029996280202, "longitude": -73.99304888458795}, "transactions": ["delivery", "pickup"], "price": "$$", "location": {"address1": "16 Delancey St", "address2": "", "address3": "", "city": "New York", "zip_code": "10002", "country": "US", "state": "NY", "display_address": ["16 Delancey St", "New York, NY 10002"]}, "phone": "+12124771212", "display_phone": "(212) 477-1212", "distance": 4753.634059242793}, {"id": "LHzu-L1UoWnTrBdiGLMaPQ", "alias": "muteki-ramen-jersey-city", "name": "Muteki Ramen", "image_url": "https://s3-media4.fl.yelpcdn.com/bphoto/OWv6IKubC7vWIWZrPHM03w/o.jpg", "is_closed": false, "url": "https://www.yelp.com/biz/muteki-ramen-jersey-city?adjust_creative=9gNmiWYX8uTbFBeTTvJMdA&utm_campaign=yelp_api_v3&utm_medium=api_v3_business_search&utm_source=9gNmiWYX8uTbFBeTTvJMdA", "review_count": 42, "categories": [{"alias": "ramen", "title": "Ramen"}, {"alias": "noodles", "title": "Noodles"}], "rating": 4.0, "coordinates": {"latitude": 40.71626, "longitude": -74.03796}, "transactions": ["delivery", "pickup"], "location": {"address1": "100 York St", "address2": null, "address3": "", "city": "Jersey City", "zip_code": "07302", "country": "US", "state": "NJ", "display_address": ["100 York St", "Jersey City, NJ 07302"]}, "phone": "+12015209521", "display_phone": "(201) 520-9521", "distance": 7481.860513850748}, {"id": "IIKK1IKRVNEyE7lFo9pprQ", "alias": "tiny-thai-cafe-new-york-2", "name": "Tiny Thai Cafe", "image_url": "", "is_closed": false, "url": "https://www.yelp.com/biz/tiny-thai-cafe-new-york-2?adjust_creative=9gNmiWYX8uTbFBeTTvJMdA&utm_campaign=yelp_api_v3&utm_medium=api_v3_business_search&utm_source=9gNmiWYX8uTbFBeTTvJMdA", "review_count": 1, "categories": [{"alias": "thai", "title": "Thai"}], "rating": 3.0, "coordinates": {"latitude": 40.742176, "longitude": -73.98104}, "transactions": [], "location": {"address1": "394 3rd Ave", "address2": "", "address3": "", "city": "New York", "zip_code": "10003", "country": "US", "state": "NY", "display_address": ["394 3rd Ave", "New York, NY 10003"]}, "phone": "", "display_phone": "", "distance": 2122.7118278419553}, {"id": "StFf9fVnAlhwrUWan0C4Ww", "alias": "wanisa-home-kitchen-brooklyn", "name": "Wanisa Home Kitchen", "image_url": "https://s3-media1.fl.yelpcdn.com/bphoto/azd794dZJoROs5zyEizhrA/o.jpg", "is_closed": false, "url": "https://www.yelp.com/biz/wanisa-home-kitchen-brooklyn?adjust_creative=9gNmiWYX8uTbFBeTTvJMdA&utm_campaign=yelp_api_v3&utm_medium=api_v3_business_search&utm_source=9gNmiWYX8uTbFBeTTvJMdA", "review_count": 205, "categories": [{"alias": "thai", "title": "Thai"}, {"alias": "buffets", "title": "Buffets"}, {"alias": "bars", "title": "Bars"}], "rating": 4.0, "coordinates": {"latitude": 40.687, "longitude": -73.99042}, "transactions": ["delivery", "pickup"], "price": "$$", "location": {"address1": "142 Smith St", "address2": null, "address3": "", "city": "Brooklyn", "zip_code": "11201", "country": "US", "state": "NY", "display_address": ["142 Smith St", "Brooklyn, NY 11201"]}, "phone": "+17185223027", "display_phone": "(718) 522-3027", "distance": 8214.803535525862}, {"id": "gpt2U4ecZSCLmgVQPtkzbA", "alias": "cha-pas-noodles-and-grill-new-york", "name": "Cha Pa's Noodles And Grill", "image_url": "https://s3-media3.fl.yelpcdn.com/bphoto/zikkzJs_Css6wXcQnR6Kfw/o.jpg", "is_closed": false, "url": "https://www.yelp.com/biz/cha-pas-noodles-and-grill-new-york?adjust_creative=9gNmiWYX8uTbFBeTTvJMdA&utm_campaign=yelp_api_v3&utm_medium=api_v3_business_search&utm_source=9gNmiWYX8uTbFBeTTvJMdA", "review_count": 713, "categories": [{"alias": "vietnamese", "title": "Vietnamese"}, {"alias": "noodles", "title": "Noodles"}, {"alias": "sandwiches", "title": "Sandwiches"}], "rating": 3.5, "coordinates": {"latitude": 40.7637, "longitude": -73.98615}, "transactions": ["delivery", "pickup"], "price": "$$", "location": {"address1": "314 W 52nd St", "address2": "", "address3": "", "city": "New York", "zip_code": "10019", "country": "US", "state": "NY", "display_address": ["314 W 52nd St", "New York, NY 10019"]}, "phone": "+12129569300", "display_phone": "(212) 956-9300", "distance": 1485.3873715739317}, {"id": "vZHrCNLcCh_3slkuNRW7GQ", "alias": "itteast-new-york-2", "name": "IttEast", "image_url": "https://s3-media2.fl.yelpcdn.com/bphoto/x9VSCzcwCHKnNElAyRE-yA/o.jpg", "is_closed": false, "url": "https://www.yelp.com/biz/itteast-new-york-2?adjust_creative=9gNmiWYX8uTbFBeTTvJMdA&utm_campaign=yelp_api_v3&utm_medium=api_v3_business_search&utm_source=9gNmiWYX8uTbFBeTTvJMdA", "review_count": 5, "categories": [{"alias": "hotdogs", "title": "Fast Food"}, {"alias": "thai", "title": "Thai"}], "rating": 5.0, "coordinates": {"latitude": 40.72821465492107, "longitude": -73.98921267054533}, "transactions": ["delivery", "pickup"], "location": {"address1": "32 E 7th St", "address2": null, "address3": "", "city": "New York", "zip_code": "10003", "country": "US", "state": "NY", "display_address": ["32 E 7th St", "New York, NY 10003"]}, "phone": "+12126734610", "display_phone": "(212) 673-4610", "distance": 3819.52024826883}, {"id": "l8BnQQIStXZebg41xyqwPw", "alias": "dunhuang-beef-noodle-elmhurst-elmhurst", "name": "Dunhuang Beef Noodle - Elmhurst", "image_url": "https://s3-media2.fl.yelpcdn.com/bphoto/5zUg5biK-yXDjhz6kecGKQ/o.jpg", "is_closed": false, "url": "https://www.yelp.com/biz/dunhuang-beef-noodle-elmhurst-elmhurst?adjust_creative=9gNmiWYX8uTbFBeTTvJMdA&utm_campaign=yelp_api_v3&utm_medium=api_v3_business_search&utm_source=9gNmiWYX8uTbFBeTTvJMdA", "review_count": 7, "categories": [{"alias": "chinese", "title": "Chinese"}, {"alias": "noodles", "title": "Noodles"}, {"alias": "bbq", "title": "Barbeque"}], "rating": 4.5, "coordinates": {"latitude": 40.74021, "longitude": -73.87925}, "transactions": ["delivery", "pickup"], "location": {"address1": "83-34 Broadway", "address2": null, "address3": "", "city": "Elmhurst", "zip_code": "11373", "country": "US", "state": "NY", "display_address": ["83-34 Broadway", "Elmhurst, NY 11373"]}, "phone": "+17182101668", "display_phone": "(718) 210-1668", "distance": 7890.007893414344}, {"id": "ybPMdh4XiTTwLWOMUXdwlw", "alias": "thai-101-bistro-brooklyn-2", "name": "Thai 101 Bistro", "image_url": "https://s3-media4.fl.yelpcdn.com/bphoto/YgI-BUaG_hAfer8bj7ctlw/o.jpg", "is_closed": false, "url": "https://www.yelp.com/biz/thai-101-bistro-brooklyn-2?adjust_creative=9gNmiWYX8uTbFBeTTvJMdA&utm_campaign=yelp_api_v3&utm_medium=api_v3_business_search&utm_source=9gNmiWYX8uTbFBeTTvJMdA", "review_count": 213, "categories": [{"alias": "thai", "title": "Thai"}], "rating": 3.0, "coordinates": {"latitude": 40.6930313110352, "longitude": -73.9674987792969}, "transactions": ["delivery", "pickup"], "price": "$$", "location": {"address1": "448 Myrtle Ave", "address2": "", "address3": "", "city": "Brooklyn", "zip_code": "11205", "country": "US", "state": "NY", "display_address": ["448 Myrtle Ave", "Brooklyn, NY 11205"]}, "phone": "+17188558518", "display_phone": "(718) 855-8518", "distance": 7353.007418893429}, {"id": "Os6Qyq_LOmbGXIlfha5dsw", "alias": "urbanbelly-brooklyn", "name": "Urbanbelly", "image_url": "https://s3-media3.fl.yelpcdn.com/bphoto/OkS46xj_vItcJZ-BVd77QA/o.jpg", "is_closed": false, "url": "https://www.yelp.com/biz/urbanbelly-brooklyn?adjust_creative=9gNmiWYX8uTbFBeTTvJMdA&utm_campaign=yelp_api_v3&utm_medium=api_v3_business_search&utm_source=9gNmiWYX8uTbFBeTTvJMdA", "review_count": 1, "categories": [{"alias": "asianfusion", "title": "Asian Fusion"}, {"alias": "bars", "title": "Bars"}], "rating": 5.0, "coordinates": {"latitude": 40.716907, "longitude": -73.961885}, "transactions": ["delivery", "pickup"], "location": {"address1": "103 N 3rd St", "address2": "", "address3": null, "city": "Brooklyn", "zip_code": "11249", "country": "US", "state": "NY", "display_address": ["103 N 3rd St", "Brooklyn, NY 11249"]}, "phone": "", "display_phone": "", "distance": 4739.449125729632}, {"id": "iueVEi_vQxdAzdXs-8Fvrg", "alias": "atami-japanese-fusion-new-york", "name": "Atami Japanese Fusion", "image_url": "https://s3-media1.fl.yelpcdn.com/bphoto/FaH5URgLwt8jAWjk7eaJnA/o.jpg", "is_closed": false, "url": "https://www.yelp.com/biz/atami-japanese-fusion-new-york?adjust_creative=9gNmiWYX8uTbFBeTTvJMdA&utm_campaign=yelp_api_v3&utm_medium=api_v3_business_search&utm_source=9gNmiWYX8uTbFBeTTvJMdA", "review_count": 172, "categories": [{"alias": "japanese", "title": "Japanese"}, {"alias": "sushi", "title": "Sushi Bars"}, {"alias": "asianfusion", "title": "Asian Fusion"}], "rating": 4.0, "coordinates": {"latitude": 40.76226, "longitude": -73.9635}, "transactions": ["delivery", "pickup"], "price": "$$", "location": {"address1": "1167 2nd Ave", "address2": "", "address3": "", "city": "New York", "zip_code": "10065", "country": "US", "state": "NY", "display_address": ["1167 2nd Ave", "New York, NY 10065"]}, "phone": "+12126886868", "display_phone": "(212) 688-6868", "distance": 615.4417945173227}, {"id": "naqIvgUYz6tleWu6S-j-uw", "alias": "hainan-jones-new-york", "name": "Hainan Jones", "image_url": "https://s3-media1.fl.yelpcdn.com/bphoto/A1slSOCNXpsGg8WC5lT1gA/o.jpg", "is_closed": false, "url": "https://www.yelp.com/biz/hainan-jones-new-york?adjust_creative=9gNmiWYX8uTbFBeTTvJMdA&utm_campaign=yelp_api_v3&utm_medium=api_v3_business_search&utm_source=9gNmiWYX8uTbFBeTTvJMdA", "review_count": 41, "categories": [{"alias": "foodstands", "title": "Food Stands"}, {"alias": "singaporean", "title": "Singaporean"}], "rating": 4.0, "coordinates": {"latitude": 40.760904, "longitude": -73.982122}, "transactions": [], "location": {"address1": "135 W 50th St", "address2": "", "address3": null, "city": "New York", "zip_code": "10020", "country": "US", "state": "NY", "display_address": ["135 W 50th St", "New York, NY 10020"]}, "phone": "", "display_phone": "", "distance": 1109.7329083765796}, {"id": "Jy-QPfrClkgZkI95j7hhiQ", "alias": "warkop-nyc-new-york-2", "name": "Warkop NYC", "image_url": "https://s3-media2.fl.yelpcdn.com/bphoto/UKvxaTN9hJZ-Bf-B-7EbWA/o.jpg", "is_closed": false, "url": "https://www.yelp.com/biz/warkop-nyc-new-york-2?adjust_creative=9gNmiWYX8uTbFBeTTvJMdA&utm_campaign=yelp_api_v3&utm_medium=api_v3_business_search&utm_source=9gNmiWYX8uTbFBeTTvJMdA", "review_count": 21, "categories": [{"alias": "indonesian", "title": "Indonesian"}, {"alias": "noodles", "title": "Noodles"}, {"alias": "coffee", "title": "Coffee & Tea"}], "rating": 4.5, "coordinates": {"latitude": 40.76444, "longitude": -73.98759}, "transactions": ["delivery", "pickup"], "location": {"address1": "366 W 52nd St", "address2": null, "address3": "", "city": "New York", "zip_code": "10019", "country": "US", "state": "NY", "display_address": ["366 W 52nd St", "New York, NY 10019"]}, "phone": "", "display_phone": "", "distance": 1626.8398377547182}, {"id": "rehmlZmUNL2AthW-VTXJJQ", "alias": "tasty-thai-ridgewood", "name": "Tasty Thai", "image_url": "https://s3-media2.fl.yelpcdn.com/bphoto/rqXPJTuYRG10Cq_2ek9zeg/o.jpg", "is_closed": false, "url": "https://www.yelp.com/biz/tasty-thai-ridgewood?adjust_creative=9gNmiWYX8uTbFBeTTvJMdA&utm_campaign=yelp_api_v3&utm_medium=api_v3_business_search&utm_source=9gNmiWYX8uTbFBeTTvJMdA", "review_count": 134, "categories": [{"alias": "thai", "title": "Thai"}], "rating": 4.0, "coordinates": {"latitude": 40.69984, "longitude": -73.89958}, "transactions": ["delivery", "pickup"], "price": "$", "location": {"address1": "72-04 Forest Ave", "address2": null, "address3": "", "city": "Ridgewood", "zip_code": "11385", "country": "US", "state": "NY", "display_address": ["72-04 Forest Ave", "Ridgewood, NY 11385"]}, "phone": "+19179090937", "display_phone": "(917) 909-0937", "distance": 8846.076879366092}, {"id": "A1ZL9ukJ1m5gxSgHTGs3UQ", "alias": "incredi-fusion-inc-new-york", "name": "Incredi Fusion Inc.", "image_url": "https://s3-media2.fl.yelpcdn.com/bphoto/0PWwUhoTPJs_4RPZfxv2yg/o.jpg", "is_closed": false, "url": "https://www.yelp.com/biz/incredi-fusion-inc-new-york?adjust_creative=9gNmiWYX8uTbFBeTTvJMdA&utm_campaign=yelp_api_v3&utm_medium=api_v3_business_search&utm_source=9gNmiWYX8uTbFBeTTvJMdA", "review_count": 10, "categories": [{"alias": "asianfusion", "title": "Asian Fusion"}], "rating": 3.5, "coordinates": {"latitude": 40.7408142089844, "longitude": -73.9812774658203}, "transactions": ["delivery", "pickup"], "price": "$$", "location": {"address1": "363 3rd Ave", "address2": "", "address3": "", "city": "New York", "zip_code": "10016", "country": "US", "state": "NY", "display_address": ["363 3rd Ave", "New York, NY 10016"]}, "phone": "", "display_phone": "", "distance": 2265.660912190931}, {"id": "56rTisZA_iEekMsyZHvSHQ", "alias": "momentea-kitchen-new-york-2", "name": "MomenTea Kitchen", "image_url": "https://s3-media3.fl.yelpcdn.com/bphoto/31kmNUC6gs_YC07AHWGy7A/o.jpg", "is_closed": false, "url": "https://www.yelp.com/biz/momentea-kitchen-new-york-2?adjust_creative=9gNmiWYX8uTbFBeTTvJMdA&utm_campaign=yelp_api_v3&utm_medium=api_v3_business_search&utm_source=9gNmiWYX8uTbFBeTTvJMdA", "review_count": 106, "categories": [{"alias": "sushi", "title": "Sushi Bars"}, {"alias": "bubbletea", "title": "Bubble Tea"}, {"alias": "chinese", "title": "Chinese"}], "rating": 4.0, "coordinates": {"latitude": 40.7551628731681, "longitude": -73.9885599911213}, "transactions": ["delivery", "pickup"], "price": "$$", "location": {"address1": "213 W 40th St", "address2": "", "address3": null, "city": "New York", "zip_code": "10018", "country": "US", "state": "NY", "display_address": ["213 W 40th St", "New York, NY 10018"]}, "phone": "+16466660308", "display_phone": "(646) 666-0308", "distance": 1660.213077560395}, {"id": "3Qpi419I29t3sCHMzC_h-g", "alias": "harvest-chinese-and-thai-cuisine-new-york", "name": "Harvest Chinese & Thai Cuisine", "image_url": "https://s3-media3.fl.yelpcdn.com/bphoto/bVXHoSFdZ8kMnGMmgk9tIQ/o.jpg", "is_closed": false, "url": "https://www.yelp.com/biz/harvest-chinese-and-thai-cuisine-new-york?adjust_creative=9gNmiWYX8uTbFBeTTvJMdA&utm_campaign=yelp_api_v3&utm_medium=api_v3_business_search&utm_source=9gNmiWYX8uTbFBeTTvJMdA", "review_count": 110, "categories": [{"alias": "thai", "title": "Thai"}, {"alias": "chinese", "title": "Chinese"}], "rating": 3.5, "coordinates": {"latitude": 40.7718201, "longitude": -73.9526672}, "transactions": ["delivery", "pickup"], "price": "$$", "location": {"address1": "1502 1st Ave", "address2": "", "address3": "", "city": "New York", "zip_code": "10075", "country": "US", "state": "NY", "display_address": ["1502 1st Ave", "New York, NY 10075"]}, "phone": "+12129882268", "display_phone": "(212) 988-2268", "distance": 1999.6924009312675}, {"id": "0lZeHrKy9DLfBxek_oR3Kg", "alias": "yama-new-york", "name": "Yama", "image_url": "https://s3-media1.fl.yelpcdn.com/bphoto/l-5iBL5rstlucKVHgMKkvQ/o.jpg", "is_closed": false, "url": "https://www.yelp.com/biz/yama-new-york?adjust_creative=9gNmiWYX8uTbFBeTTvJMdA&utm_campaign=yelp_api_v3&utm_medium=api_v3_business_search&utm_source=9gNmiWYX8uTbFBeTTvJMdA", "review_count": 449, "categories": [{"alias": "japanese", "title": "Japanese"}, {"alias": "sushi", "title": "Sushi Bars"}], "rating": 3.5, "coordinates": {"latitude": 40.73590516663025, "longitude": -73.98767988956808}, "transactions": ["delivery", "pickup"], "price": "$$", "location": {"address1": "122 E 17th St", "address2": "", "address3": "", "city": "New York", "zip_code": "10003", "country": "US", "state": "NY", "display_address": ["122 E 17th St", "New York, NY 10003"]}, "phone": "+12124750969", "display_phone": "(212) 475-0969", "distance": 3003.5468289106852}, {"id": "itblJyiTY2h2ACidLk66oA", "alias": "takahachi-new-york", "name": "Takahachi", "image_url": "https://s3-media1.fl.yelpcdn.com/bphoto/J5fjCWwHnf0zENVfgLjfaw/o.jpg", "is_closed": false, "url": "https://www.yelp.com/biz/takahachi-new-york?adjust_creative=9gNmiWYX8uTbFBeTTvJMdA&utm_campaign=yelp_api_v3&utm_medium=api_v3_business_search&utm_source=9gNmiWYX8uTbFBeTTvJMdA", "review_count": 603, "categories": [{"alias": "sushi", "title": "Sushi Bars"}, {"alias": "japanese", "title": "Japanese"}], "rating": 4.0, "coordinates": {"latitude": 40.725315, "longitude": -73.984436}, "transactions": ["delivery"], "price": "$$", "location": {"address1": "85 Ave A", "address2": "", "address3": "", "city": "New York", "zip_code": "10009", "country": "US", "state": "NY", "display_address": ["85 Ave A", "New York, NY 10009"]}, "phone": "+12125056524", "display_phone": "(212) 505-6524", "distance": 3974.9687415520293}, {"id": "kgX1iNxVYKFSQ9k0oPaeKA", "alias": "dill-and-parsley-new-york-7", "name": "Dill & Parsley", "image_url": "https://s3-media2.fl.yelpcdn.com/bphoto/c_oJyNV490zsd5xLOdg9UQ/o.jpg", "is_closed": false, "url": "https://www.yelp.com/biz/dill-and-parsley-new-york-7?adjust_creative=9gNmiWYX8uTbFBeTTvJMdA&utm_campaign=yelp_api_v3&utm_medium=api_v3_business_search&utm_source=9gNmiWYX8uTbFBeTTvJMdA", "review_count": 61, "categories": [{"alias": "mediterranean", "title": "Mediterranean"}, {"alias": "vegetarian", "title": "Vegetarian"}, {"alias": "gluten_free", "title": "Gluten-Free"}], "rating": 4.0, "coordinates": {"latitude": 40.75666, "longitude": -73.98335}, "transactions": ["delivery", "pickup"], "price": "$$", "location": {"address1": "1155 Avenue Of Americas", "address2": "Grnd Floor, 45th Street", "address3": "", "city": "New York", "zip_code": "10036", "country": "US", "state": "NY", "display_address": ["1155 Avenue Of Americas", "Grnd Floor, 45th Street", "New York, NY 10036"]}, "phone": "+16463629920", "display_phone": "(646) 362-9920", "distance": 1198.9218286406358}], "total": 1700, "region": {"center": {"longitude": -73.96957397460938, "latitude": 40.75917470627005}}}