{"businesses": [{"id": "Ycz0lIQObftqCnJJvln2WQ", "alias": "hanamichi-new-york", "name": "HanaMichi", "image_url": "https://s3-media1.fl.yelpcdn.com/bphoto/V3GISoc6EBC3vsq3lRbc5A/o.jpg", "is_closed": false, "url": "https://www.yelp.com/biz/hanamichi-new-york?adjust_creative=9gNmiWYX8uTbFBeTTvJMdA&utm_campaign=yelp_api_v3&utm_medium=api_v3_business_search&utm_source=9gNmiWYX8uTbFBeTTvJMdA", "review_count": 491, "categories": [{"alias": "japanese", "title": "Japanese"}, {"alias": "korean", "title": "Korean"}, {"alias": "sushi", "title": "Sushi Bars"}], "rating": 3.0, "coordinates": {"latitude": 40.7475814819336, "longitude": -73.9870910644531}, "transactions": ["pickup", "delivery"], "price": "$$", "location": {"address1": "28 W 32nd St", "address2": "", "address3": "", "city": "New York", "zip_code": "10001", "country": "US", "state": "NY", "display_address": ["28 W 32nd St", "New York, NY 10001"]}, "phone": "+12127365393", "display_phone": "(212) 736-5393", "distance": 1956.4593670101947}, {"id": "itaeq_Z1dykkxaE7ZIAK7Q", "alias": "thai-thai-thai-new-york", "name": "Thai Thai Thai", "image_url": "https://s3-media1.fl.yelpcdn.com/bphoto/1bjqdzU3w3h3j489JzS71A/o.jpg", "is_closed": false, "url": "https://www.yelp.com/biz/thai-thai-thai-new-york?adjust_creative=9gNmiWYX8uTbFBeTTvJMdA&utm_campaign=yelp_api_v3&utm_medium=api_v3_business_search&utm_source=9gNmiWYX8uTbFBeTTvJMdA", "review_count": 2, "categories": [{"alias": "fooddeliveryservices", "title": "Food Delivery Services"}, {"alias": "thai", "title": "Thai"}], "rating": 1.0, "coordinates": {"latitude": 40.72033, "longitude": -74.00556}, "transactions": ["delivery"], "location": {"address1": "", "address2": null, "address3": null, "city": "New York", "zip_code": "10013", "country": "US", "state": "NY", "display_address": ["New York, NY 10013"]}, "phone": "+19173883627", "display_phone": "(917) 388-3627", "distance": 5344.990494525853}, {"id": "Edkx9frqYknN9ykTEqTVXg", "alias": "miso-restaurant-brooklyn", "name": "Miso Restaurant", "image_url": "https://s3-media2.fl.yelpcdn.com/bphoto/hC6blM_7H3eLblh47SAh1w/o.jpg", "is_closed": false, "url": "https://www.yelp.com/biz/miso-restaurant-brooklyn?adjust_creative=9gNmiWYX8uTbFBeTTvJMdA&utm_campaign=yelp_api_v3&utm_medium=api_v3_business_search&utm_source=9gNmiWYX8uTbFBeTTvJMdA", "review_count": 123, "categories": [{"alias": "sushi", "title": "Sushi Bars"}, {"alias": "japanese", "title": "Japanese"}], "rating": 3.0, "coordinates": {"latitude": 40.7028045654297, "longitude": -73.990852355957}, "transactions": ["pickup", "delivery"], "price": "$$", "location": {"address1": "40 Main St", "address2": "", "address3": "", "city": "Brooklyn", "zip_code": "11201", "country": "US", "state": "NY", "display_address": ["40 Main St", "Brooklyn, NY 11201"]}, "phone": "+17188588388", "display_phone": "(718) 858-8388", "distance": 6521.429750175792}, {"id": "Zu38mP1A6UOBspzRhfAOGQ", "alias": "barney-brown-new-york-4", "name": "Barney Brown", "image_url": "https://s3-media1.fl.yelpcdn.com/bphoto/GD6efqkLau_kLs_8cNNWmw/o.jpg", "is_closed": false, "url": "https://www.yelp.com/biz/barney-brown-new-york-4?adjust_creative=9gNmiWYX8uTbFBeTTvJMdA&utm_campaign=yelp_api_v3&utm_medium=api_v3_business_search&utm_source=9gNmiWYX8uTbFBeTTvJMdA", "review_count": 3, "categories": [{"alias": "sandwiches", "title": "Sandwiches"}, {"alias": "delis", "title": "Delis"}, {"alias": "fooddeliveryservices", "title": "Food Delivery Services"}], "rating": 5.0, "coordinates": {"latitude": 40.75332, "longitude": -73.98698}, "transactions": ["pickup", "delivery"], "location": {"address1": "1410 Broadway", "address2": null, "address3": "", "city": "New York", "zip_code": "10018", "country": "US", "state": "NY", "display_address": ["1410 Broadway", "New York, NY 10018"]}, "phone": "", "display_phone": "", "distance": 1599.5755450249594}, {"id": "qb8zEppvglM41R6oZHx2FQ", "alias": "brooklyn-dumpling-shop-hoboken-hoboken", "name": "Brooklyn Dumpling Shop - Hoboken", "image_url": "https://s3-media2.fl.yelpcdn.com/bphoto/PyM4C4nG2Yn806K2txGBTg/o.jpg", "is_closed": false, "url": "https://www.yelp.com/biz/brooklyn-dumpling-shop-hoboken-hoboken?adjust_creative=9gNmiWYX8uTbFBeTTvJMdA&utm_campaign=yelp_api_v3&utm_medium=api_v3_business_search&utm_source=9gNmiWYX8uTbFBeTTvJMdA", "review_count": 6, "categories": [{"alias": "dimsum", "title": "Dim Sum"}, {"alias": "steak", "title": "Steakhouses"}, {"alias": "asianfusion", "title": "Asian Fusion"}], "rating": 4.0, "coordinates": {"latitude": 40.74294980292616, "longitude": -74.02951957334565}, "transactions": [], "location": {"address1": "514 Washington St", "address2": "", "address3": null, "city": "Hoboken", "zip_code": "07030", "country": "US", "state": "NJ", "display_address": ["514 Washington St", "Hoboken, NJ 07030"]}, "phone": "+12012382489", "display_phone": "(201) 238-2489", "distance": 5362.188327461572}, {"id": "JylIStPfFLOctHdlglvALA", "alias": "ut47-new-york-3", "name": "UT47", "image_url": "https://s3-media1.fl.yelpcdn.com/bphoto/X3kei7Z_5H5dvGMsUm6h4Q/o.jpg", "is_closed": false, "url": "https://www.yelp.com/biz/ut47-new-york-3?adjust_creative=9gNmiWYX8uTbFBeTTvJMdA&utm_campaign=yelp_api_v3&utm_medium=api_v3_business_search&utm_source=9gNmiWYX8uTbFBeTTvJMdA", "review_count": 359, "categories": [{"alias": "breakfast_brunch", "title": "Breakfast & Brunch"}, {"alias": "korean", "title": "Korean"}, {"alias": "vegan", "title": "Vegan"}], "rating": 4.5, "coordinates": {"latitude": 40.76135, "longitude": -73.98995}, "transactions": ["pickup", "delivery"], "price": "$$", "location": {"address1": "358 W 47th St", "address2": "", "address3": null, "city": "New York", "zip_code": "10036", "country": "US", "state": "NY", "display_address": ["358 W 47th St", "New York, NY 10036"]}, "phone": "+19172658629", "display_phone": "(917) 265-8629", "distance": 1734.8108537162004}, {"id": "IoPJ1I0eQn6wnrFAoqFXOw", "alias": "banhmigos-brooklyn-7", "name": "Banhmigos", "image_url": "https://s3-media1.fl.yelpcdn.com/bphoto/envy2u_wdpUzHR6Fybzryg/o.jpg", "is_closed": false, "url": "https://www.yelp.com/biz/banhmigos-brooklyn-7?adjust_creative=9gNmiWYX8uTbFBeTTvJMdA&utm_campaign=yelp_api_v3&utm_medium=api_v3_business_search&utm_source=9gNmiWYX8uTbFBeTTvJMdA", "review_count": 72, "categories": [{"alias": "vietnamese", "title": "Vietnamese"}, {"alias": "bubbletea", "title": "Bubble Tea"}, {"alias": "sandwiches", "title": "Sandwiches"}], "rating": 4.5, "coordinates": {"latitude": 40.69111, "longitude": -73.99184}, "transactions": ["pickup", "delivery"], "price": "$$", "location": {"address1": "92 Court St", "address2": null, "address3": "", "city": "Brooklyn", "zip_code": "11201", "country": "US", "state": "NY", "display_address": ["92 Court St", "Brooklyn, NY 11201"]}, "phone": "+19293376188", "display_phone": "(929) 337-6188", "distance": 7796.927248858614}, {"id": "k6J8jvPev2z6Q5iNRjquuw", "alias": "yummy-yummy-bayside", "name": "Yummy Yummy", "image_url": "https://s3-media4.fl.yelpcdn.com/bphoto/gxe4vxLn6HRNq1AP_Oga1Q/o.jpg", "is_closed": false, "url": "https://www.yelp.com/biz/yummy-yummy-bayside?adjust_creative=9gNmiWYX8uTbFBeTTvJMdA&utm_campaign=yelp_api_v3&utm_medium=api_v3_business_search&utm_source=9gNmiWYX8uTbFBeTTvJMdA", "review_count": 43, "categories": [{"alias": "asianfusion", "title": "Asian Fusion"}, {"alias": "mediterranean", "title": "Mediterranean"}], "rating": 4.0, "coordinates": {"latitude": 40.7561902, "longitude": -73.767676}, "transactions": ["pickup", "delivery"], "location": {"address1": "4724 Bell Blvd", "address2": null, "address3": "", "city": "Bayside", "zip_code": "11361", "country": "US", "state": "NY", "display_address": ["4724 Bell Blvd", "Bayside, NY 11361"]}, "phone": "+17187377771", "display_phone": "(718) 737-7771", "distance": 17003.77436696358}, {"id": "7rxA2Ne0ON6iHFBJ6TJDIg", "alias": "luck-thai-brooklyn", "name": "Luck Thai", "image_url": "https://s3-media3.fl.yelpcdn.com/bphoto/LgfhNPjmQXp--Db4aUSMyg/o.jpg", "is_closed": false, "url": "https://www.yelp.com/biz/luck-thai-brooklyn?adjust_creative=9gNmiWYX8uTbFBeTTvJMdA&utm_campaign=yelp_api_v3&utm_medium=api_v3_business_search&utm_source=9gNmiWYX8uTbFBeTTvJMdA", "review_count": 182, "categories": [{"alias": "thai", "title": "Thai"}], "rating": 4.0, "coordinates": {"latitude": 40.6708409022866, "longitude": -73.9847199825745}, "transactions": ["pickup", "delivery"], "price": "$$", "location": {"address1": "386 5th Ave", "address2": "", "address3": "", "city": "Brooklyn", "zip_code": "11215", "country": "US", "state": "NY", "display_address": ["386 5th Ave", "Brooklyn, NY 11215"]}, "phone": "+17184991888", "display_phone": "(718) 499-1888", "distance": 9904.863354677185}, {"id": "M-b7twkT82r5InB5VMusag", "alias": "xeo-cantina-new-york", "name": "Xeo Cantina", "image_url": "https://s3-media3.fl.yelpcdn.com/bphoto/rdCrkM0jLTJNUgl6ih1LVA/o.jpg", "is_closed": false, "url": "https://www.yelp.com/biz/xeo-cantina-new-york?adjust_creative=9gNmiWYX8uTbFBeTTvJMdA&utm_campaign=yelp_api_v3&utm_medium=api_v3_business_search&utm_source=9gNmiWYX8uTbFBeTTvJMdA", "review_count": 30, "categories": [{"alias": "vietnamese", "title": "Vietnamese"}], "rating": 4.0, "coordinates": {"latitude": 40.72607237832973, "longitude": -73.9923001}, "transactions": ["pickup", "delivery"], "location": {"address1": "334 Bowery St", "address2": null, "address3": "", "city": "New York", "zip_code": "10012", "country": "US", "state": "NY", "display_address": ["334 Bowery St", "New York, NY 10012"]}, "phone": "", "display_phone": "", "distance": 4148.979408424584}, {"id": "AFisWoWm0pfxEi1dMYitKw", "alias": "kyoto-brooklyn", "name": "Kyoto", "image_url": "https://s3-media3.fl.yelpcdn.com/bphoto/tsaPXswocSvunGg5je1-mA/o.jpg", "is_closed": false, "url": "https://www.yelp.com/biz/kyoto-brooklyn?adjust_creative=9gNmiWYX8uTbFBeTTvJMdA&utm_campaign=yelp_api_v3&utm_medium=api_v3_business_search&utm_source=9gNmiWYX8uTbFBeTTvJMdA", "review_count": 245, "categories": [{"alias": "sushi", "title": "Sushi Bars"}, {"alias": "japanese", "title": "Japanese"}], "rating": 4.0, "coordinates": {"latitude": 40.6877593994141, "longitude": -73.989501953125}, "transactions": ["pickup", "delivery"], "price": "$$", "location": {"address1": "115 Smith St", "address2": "", "address3": "", "city": "Brooklyn", "zip_code": "11201", "country": "US", "state": "NY", "display_address": ["115 Smith St", "Brooklyn, NY 11201"]}, "phone": "+17185225888", "display_phone": "(718) 522-5888", "distance": 8116.050678741585}, {"id": "c-nOD2qAj9b2LfY_uK6WFA", "alias": "cafe-28-new-york-4", "name": "Cafe 28", "image_url": "https://s3-media3.fl.yelpcdn.com/bphoto/JEnH6855KMeGT50SO1DKkQ/o.jpg", "is_closed": false, "url": "https://www.yelp.com/biz/cafe-28-new-york-4?adjust_creative=9gNmiWYX8uTbFBeTTvJMdA&utm_campaign=yelp_api_v3&utm_medium=api_v3_business_search&utm_source=9gNmiWYX8uTbFBeTTvJMdA", "review_count": 240, "categories": [{"alias": "salad", "title": "Salad"}, {"alias": "buffets", "title": "Buffets"}, {"alias": "sandwiches", "title": "Sandwiches"}], "rating": 3.0, "coordinates": {"latitude": 40.7445372084, "longitude": -73.987168336272}, "transactions": ["pickup", "delivery"], "price": "$$", "location": {"address1": "245 5th Ave", "address2": null, "address3": "", "city": "New York", "zip_code": "10016", "country": "US", "state": "NY", "display_address": ["245 5th Ave", "New York, NY 10016"]}, "phone": "+12126867300", "display_phone": "(212) 686-7300", "distance": 2201.278730227073}, {"id": "vb-8neuGi8GPDTTnT2WO7g", "alias": "mekong-bk-brooklyn", "name": "Mekong BK", "image_url": "https://s3-media2.fl.yelpcdn.com/bphoto/Qk_Bkqyj2I0Baw1Bx6T45A/o.jpg", "is_closed": false, "url": "https://www.yelp.com/biz/mekong-bk-brooklyn?adjust_creative=9gNmiWYX8uTbFBeTTvJMdA&utm_campaign=yelp_api_v3&utm_medium=api_v3_business_search&utm_source=9gNmiWYX8uTbFBeTTvJMdA", "review_count": 99, "categories": [{"alias": "vietnamese", "title": "Vietnamese"}], "rating": 4.0, "coordinates": {"latitude": 40.6892852945551, "longitude": -73.968862183392}, "transactions": ["pickup", "delivery"], "price": "$$", "location": {"address1": "250 Dekalb Ave", "address2": "", "address3": null, "city": "Brooklyn", "zip_code": "11205", "country": "US", "state": "NY", "display_address": ["250 Dekalb Ave", "Brooklyn, NY 11205"]}, "phone": "+13479873712", "display_phone": "(347) 987-3712", "distance": 7771.570872067876}, {"id": "3n6i8TwGEIL9KnCCHUyiqA", "alias": "sai-rego-park", "name": "Sai", "image_url": "https://s3-media2.fl.yelpcdn.com/bphoto/DMTNe2RehCF4AXRxnH4Jww/o.jpg", "is_closed": false, "url": "https://www.yelp.com/biz/sai-rego-park?adjust_creative=9gNmiWYX8uTbFBeTTvJMdA&utm_campaign=yelp_api_v3&utm_medium=api_v3_business_search&utm_source=9gNmiWYX8uTbFBeTTvJMdA", "review_count": 321, "categories": [{"alias": "sushi", "title": "Sushi Bars"}, {"alias": "japanese", "title": "Japanese"}], "rating": 4.5, "coordinates": {"latitude": 40.73012, "longitude": -73.8636}, "transactions": ["restaurant_reservation", "pickup", "delivery"], "price": "$$", "location": {"address1": "95-34 Queens Blvd", "address2": "", "address3": null, "city": "Rego Park", "zip_code": "11374", "country": "US", "state": "NY", "display_address": ["95-34 Queens Blvd", "Rego Park, NY 11374"]}, "phone": "+17188970429", "display_phone": "(718) 897-0429", "distance": 9495.62191856904}, {"id": "gjIctg7P18f6UocGVW2IMQ", "alias": "bite-new-york-6", "name": "Bite", "image_url": "https://s3-media2.fl.yelpcdn.com/bphoto/wG24AhAoy1giNDdq_kLqbg/o.jpg", "is_closed": false, "url": "https://www.yelp.com/biz/bite-new-york-6?adjust_creative=9gNmiWYX8uTbFBeTTvJMdA&utm_campaign=yelp_api_v3&utm_medium=api_v3_business_search&utm_source=9gNmiWYX8uTbFBeTTvJMdA", "review_count": 361, "categories": [{"alias": "salad", "title": "Salad"}, {"alias": "mediterranean", "title": "Mediterranean"}, {"alias": "sandwiches", "title": "Sandwiches"}], "rating": 4.0, "coordinates": {"latitude": 40.74189, "longitude": -73.99305}, "transactions": ["pickup", "delivery"], "price": "$$", "location": {"address1": "62 W 22nd St", "address2": "", "address3": "", "city": "New York", "zip_code": "10010", "country": "US", "state": "NY", "display_address": ["62 W 22nd St", "New York, NY 10010"]}, "phone": "+16466492768", "display_phone": "(646) 649-2768", "distance": 2753.7294176195082}, {"id": "Jn_p5WaprUY3Ql_539gsWw", "alias": "m-and-j-asian-cuisine-new-york", "name": "M&J Asian Cuisine", "image_url": "https://s3-media2.fl.yelpcdn.com/bphoto/C-y8rlSEA0PqKs0ITKZrkA/o.jpg", "is_closed": false, "url": "https://www.yelp.com/biz/m-and-j-asian-cuisine-new-york?adjust_creative=9gNmiWYX8uTbFBeTTvJMdA&utm_campaign=yelp_api_v3&utm_medium=api_v3_business_search&utm_source=9gNmiWYX8uTbFBeTTvJMdA", "review_count": 54, "categories": [{"alias": "asianfusion", "title": "Asian Fusion"}, {"alias": "sushi", "title": "Sushi Bars"}], "rating": 4.0, "coordinates": {"latitude": 40.7292851717997, "longitude": -73.9780369922164}, "transactions": ["pickup", "delivery"], "price": "$", "location": {"address1": "600 E 14th St", "address2": "", "address3": "", "city": "New York", "zip_code": "10009", "country": "US", "state": "NY", "display_address": ["600 E 14th St", "New York, NY 10009"]}, "phone": "+12125336888", "display_phone": "(212) 533-6888", "distance": 3399.1725531620514}, {"id": "kIXRfa42eX1J8rnLgMGt9A", "alias": "mito-bayside", "name": "Mito", "image_url": "https://s3-media4.fl.yelpcdn.com/bphoto/xfVDMdG2mU0sbiQZD706SQ/o.jpg", "is_closed": false, "url": "https://www.yelp.com/biz/mito-bayside?adjust_creative=9gNmiWYX8uTbFBeTTvJMdA&utm_campaign=yelp_api_v3&utm_medium=api_v3_business_search&utm_source=9gNmiWYX8uTbFBeTTvJMdA", "review_count": 128, "categories": [{"alias": "japanese", "title": "Japanese"}, {"alias": "sushi", "title": "Sushi Bars"}, {"alias": "bars", "title": "Bars"}], "rating": 3.5, "coordinates": {"latitude": 40.7777335, "longitude": -73.7797385}, "transactions": ["pickup", "delivery"], "price": "$$", "location": {"address1": "210-35 26th Ave", "address2": null, "address3": "", "city": "Bayside", "zip_code": "11360", "country": "US", "state": "NY", "display_address": ["210-35 26th Ave", "Bayside, NY 11360"]}, "phone": "+17188198817", "display_phone": "(718) 819-8817", "distance": 16195.702871386286}, {"id": "_zGsfwGAY8ZTob_mIFAM-w", "alias": "pokeworks-new-york-12", "name": "Pokeworks", "image_url": "https://s3-media2.fl.yelpcdn.com/bphoto/vel7myhDs0mIobsNYwQXwg/o.jpg", "is_closed": false, "url": "https://www.yelp.com/biz/pokeworks-new-york-12?adjust_creative=9gNmiWYX8uTbFBeTTvJMdA&utm_campaign=yelp_api_v3&utm_medium=api_v3_business_search&utm_source=9gNmiWYX8uTbFBeTTvJMdA", "review_count": 1835, "categories": [{"alias": "sushi", "title": "Sushi Bars"}, {"alias": "poke", "title": "Poke"}, {"alias": "salad", "title": "Salad"}], "rating": 4.0, "coordinates": {"latitude": 40.75166024917636, "longitude": -73.98585830122367}, "transactions": ["pickup", "delivery"], "price": "$$", "location": {"address1": "63 W 37th St", "address2": "", "address3": "", "city": "New York", "zip_code": "10018", "country": "US", "state": "NY", "display_address": ["63 W 37th St", "New York, NY 10018"]}, "phone": "+16462574251", "display_phone": "(646) 257-4251", "distance": 1606.1007188208423}, {"id": "oe8GEFE4QLFAKt87y7zcgA", "alias": "very-fresh-noodles-new-york", "name": "Very Fresh Noodles", "image_url": "https://s3-media2.fl.yelpcdn.com/bphoto/gRqfWsSDep7gFKGE4lChBQ/o.jpg", "is_closed": false, "url": "https://www.yelp.com/biz/very-fresh-noodles-new-york?adjust_creative=9gNmiWYX8uTbFBeTTvJMdA&utm_campaign=yelp_api_v3&utm_medium=api_v3_business_search&utm_source=9gNmiWYX8uTbFBeTTvJMdA", "review_count": 1345, "categories": [{"alias": "taiwanese", "title": "Taiwanese"}, {"alias": "chinese", "title": "Chinese"}, {"alias": "noodles", "title": "Noodles"}], "rating": 4.5, "coordinates": {"latitude": 40.74207, "longitude": -74.00565}, "transactions": ["pickup", "delivery"], "price": "$$", "location": {"address1": "409 W 15th St", "address2": null, "address3": "", "city": "New York", "zip_code": "10011", "country": "US", "state": "NY", "display_address": ["409 W 15th St", "New York, NY 10011"]}, "phone": "+13322156161", "display_phone": "(332) 215-6161", "distance": 3584.567737363314}, {"id": "D9nQb14gqhCAOaUUvJz3-Q", "alias": "reserve-cut-new-york", "name": "Reserve Cut", "image_url": "https://s3-media4.fl.yelpcdn.com/bphoto/GLU8J_rMWhr0EUsYsJj91A/o.jpg", "is_closed": false, "url": "https://www.yelp.com/biz/reserve-cut-new-york?adjust_creative=9gNmiWYX8uTbFBeTTvJMdA&utm_campaign=yelp_api_v3&utm_medium=api_v3_business_search&utm_source=9gNmiWYX8uTbFBeTTvJMdA", "review_count": 321, "categories": [{"alias": "steak", "title": "Steakhouses"}, {"alias": "kosher", "title": "Kosher"}, {"alias": "asianfusion", "title": "Asian Fusion"}], "rating": 4.0, "coordinates": {"latitude": 40.706043, "longitude": -74.011776}, "transactions": ["delivery"], "price": "$$$$", "location": {"address1": "40 Broad St", "address2": "Fl 2", "address3": "", "city": "New York", "zip_code": "10004", "country": "US", "state": "NY", "display_address": ["40 Broad St", "Fl 2", "New York, NY 10004"]}, "phone": "+12127470300", "display_phone": "(212) 747-0300", "distance": 6895.551115108246}, {"id": "0Lnp_fi3gI2bfJ8RcMDfjg", "alias": "gen-brooklyn", "name": "Gen", "image_url": "https://s3-media3.fl.yelpcdn.com/bphoto/MNEDT6fxSj82B1eM6R2fMA/o.jpg", "is_closed": false, "url": "https://www.yelp.com/biz/gen-brooklyn?adjust_creative=9gNmiWYX8uTbFBeTTvJMdA&utm_campaign=yelp_api_v3&utm_medium=api_v3_business_search&utm_source=9gNmiWYX8uTbFBeTTvJMdA", "review_count": 298, "categories": [{"alias": "japanese", "title": "Japanese"}, {"alias": "sushi", "title": "Sushi Bars"}], "rating": 4.0, "coordinates": {"latitude": 40.677639, "longitude": -73.963485}, "transactions": ["pickup", "delivery"], "price": "$$", "location": {"address1": "659 Washington Ave", "address2": "", "address3": "", "city": "Brooklyn", "zip_code": "11238", "country": "US", "state": "NY", "display_address": ["659 Washington Ave", "Brooklyn, NY 11238"]}, "phone": "+17183983550", "display_phone": "(718) 398-3550", "distance": 9082.0849714508}, {"id": "nqNo2xuL7ViG7dIA8nHEbQ", "alias": "mama-pho-new-york-3", "name": "Mama Pho", "image_url": "https://s3-media2.fl.yelpcdn.com/bphoto/1AyOyLt14Qb3HFzUc6Uuzg/o.jpg", "is_closed": false, "url": "https://www.yelp.com/biz/mama-pho-new-york-3?adjust_creative=9gNmiWYX8uTbFBeTTvJMdA&utm_campaign=yelp_api_v3&utm_medium=api_v3_business_search&utm_source=9gNmiWYX8uTbFBeTTvJMdA", "review_count": 17, "categories": [{"alias": "vietnamese", "title": "Vietnamese"}], "rating": 2.5, "coordinates": {"latitude": 40.7534, "longitude": -73.9694029}, "transactions": [], "location": {"address1": "900 2nd Ave", "address2": "", "address3": null, "city": "New York", "zip_code": "10017", "country": "US", "state": "NY", "display_address": ["900 2nd Ave", "New York, NY 10017"]}, "phone": "", "display_phone": "", "distance": 655.9708378652477}, {"id": "G6wqjI4NFAvc_46P_dsjjg", "alias": "the-mill-new-york-3", "name": "The Mill", "image_url": "https://s3-media2.fl.yelpcdn.com/bphoto/W2GsLk2RZBemExGlYoVEeg/o.jpg", "is_closed": false, "url": "https://www.yelp.com/biz/the-mill-new-york-3?adjust_creative=9gNmiWYX8uTbFBeTTvJMdA&utm_campaign=yelp_api_v3&utm_medium=api_v3_business_search&utm_source=9gNmiWYX8uTbFBeTTvJMdA", "review_count": 89, "categories": [{"alias": "breakfast_brunch", "title": "Breakfast & Brunch"}, {"alias": "sandwiches", "title": "Sandwiches"}, {"alias": "salad", "title": "Salad"}], "rating": 3.5, "coordinates": {"latitude": 40.7574988825129, "longitude": -73.9712691307068}, "transactions": ["pickup", "delivery"], "price": "$", "location": {"address1": "140 E 52nd St", "address2": null, "address3": null, "city": "New York", "zip_code": "10022", "country": "US", "state": "NY", "display_address": ["140 E 52nd St", "New York, NY 10022"]}, "phone": "+12128260302", "display_phone": "(212) 826-0302", "distance": 234.7532196418625}, {"id": "4hukJNoy9F2ILYJZWl4Xlw", "alias": "set-les-new-york", "name": "Set LES", "image_url": "https://s3-media4.fl.yelpcdn.com/bphoto/9b3_zIvuRXvALuuoGlKUzQ/o.jpg", "is_closed": false, "url": "https://www.yelp.com/biz/set-les-new-york?adjust_creative=9gNmiWYX8uTbFBeTTvJMdA&utm_campaign=yelp_api_v3&utm_medium=api_v3_business_search&utm_source=9gNmiWYX8uTbFBeTTvJMdA", "review_count": 532, "categories": [{"alias": "gastropubs", "title": "Gastropubs"}, {"alias": "asianfusion", "title": "Asian Fusion"}, {"alias": "newamerican", "title": "American (New)"}], "rating": 4.0, "coordinates": {"latitude": 40.7198495417833, "longitude": -73.9885318279266}, "transactions": ["pickup", "delivery"], "price": "$$", "location": {"address1": "127 Ludlow St", "address2": "", "address3": "", "city": "New York", "zip_code": "10002", "country": "US", "state": "NY", "display_address": ["127 Ludlow St", "New York, NY 10002"]}, "phone": "+12129828225", "display_phone": "(212) 982-8225", "distance": 4652.574753809734}, {"id": "79-I5OTfhsfPCZGgcB4J5A", "alias": "mizu-sushi-new-york-3", "name": "Mizu Sushi", "image_url": "https://s3-media1.fl.yelpcdn.com/bphoto/iUvhj5EzaEJu43CVdBM2yA/o.jpg", "is_closed": false, "url": "https://www.yelp.com/biz/mizu-sushi-new-york-3?adjust_creative=9gNmiWYX8uTbFBeTTvJMdA&utm_campaign=yelp_api_v3&utm_medium=api_v3_business_search&utm_source=9gNmiWYX8uTbFBeTTvJMdA", "review_count": 284, "categories": [{"alias": "sushi", "title": "Sushi Bars"}, {"alias": "noodles", "title": "Noodles"}, {"alias": "soup", "title": "Soup"}], "rating": 3.5, "coordinates": {"latitude": 40.739068, "longitude": -73.9889649}, "transactions": ["pickup", "delivery"], "price": "$$", "location": {"address1": "29 E 20th St", "address2": "", "address3": "", "city": "New York", "zip_code": "10003", "country": "US", "state": "NY", "display_address": ["29 E 20th St", "New York, NY 10003"]}, "phone": "+12125056687", "display_phone": "(212) 505-6687", "distance": 2768.902620954732}, {"id": "98URsYAwTfXRPP5e1ONPug", "alias": "maya-congee-cafe-brooklyn-2", "name": "Maya Congee Cafe", "image_url": "https://s3-media4.fl.yelpcdn.com/bphoto/jxHJmLw-tf00R3bnHTlihw/o.jpg", "is_closed": false, "url": "https://www.yelp.com/biz/maya-congee-cafe-brooklyn-2?adjust_creative=9gNmiWYX8uTbFBeTTvJMdA&utm_campaign=yelp_api_v3&utm_medium=api_v3_business_search&utm_source=9gNmiWYX8uTbFBeTTvJMdA", "review_count": 133, "categories": [{"alias": "coffee", "title": "Coffee & Tea"}, {"alias": "intlgrocery", "title": "International Grocery"}, {"alias": "asianfusion", "title": "Asian Fusion"}], "rating": 4.5, "coordinates": {"latitude": 40.68719, "longitude": -73.944167}, "transactions": ["pickup", "delivery"], "price": "$$", "location": {"address1": "563 Gates Ave", "address2": "", "address3": "", "city": "Brooklyn", "zip_code": "11221", "country": "US", "state": "NY", "display_address": ["563 Gates Ave", "Brooklyn, NY 11221"]}, "phone": "+19293678867", "display_phone": "(929) 367-8867", "distance": 8289.542009391504}, {"id": "b84MxqecL2XOpwYCT6oHWg", "alias": "bao-bae-new-york", "name": "Bao Bae", "image_url": "https://s3-media3.fl.yelpcdn.com/bphoto/8IhD82kAfkI2aVC_61OhzQ/o.jpg", "is_closed": false, "url": "https://www.yelp.com/biz/bao-bae-new-york?adjust_creative=9gNmiWYX8uTbFBeTTvJMdA&utm_campaign=yelp_api_v3&utm_medium=api_v3_business_search&utm_source=9gNmiWYX8uTbFBeTTvJMdA", "review_count": 5, "categories": [{"alias": "asianfusion", "title": "Asian Fusion"}], "rating": 3.0, "coordinates": {"latitude": 40.735737, "longitude": -73.994247}, "transactions": ["pickup", "delivery"], "location": {"address1": "74 5th Ave", "address2": null, "address3": "", "city": "New York", "zip_code": "10011", "country": "US", "state": "NY", "display_address": ["74 5th Ave", "New York, NY 10011"]}, "phone": "", "display_phone": "", "distance": 3333.996230337624}, {"id": "Il1K0hzGEiJgLLBCZCfA1A", "alias": "pnoi-thaithai-grocery-new-york", "name": "P'Noi Thaithai Grocery", "image_url": "https://s3-media4.fl.yelpcdn.com/bphoto/Vqwg0CAzc5weBMkafmWhjw/o.jpg", "is_closed": false, "url": "https://www.yelp.com/biz/pnoi-thaithai-grocery-new-york?adjust_creative=9gNmiWYX8uTbFBeTTvJMdA&utm_campaign=yelp_api_v3&utm_medium=api_v3_business_search&utm_source=9gNmiWYX8uTbFBeTTvJMdA", "review_count": 29, "categories": [{"alias": "thai", "title": "Thai"}, {"alias": "importedfood", "title": "Imported Food"}, {"alias": "grocery", "title": "Grocery"}], "rating": 4.0, "coordinates": {"latitude": 40.74369, "longitude": -73.88835}, "transactions": [], "price": "$", "location": {"address1": "76-13 Woodside Ave", "address2": "", "address3": "", "city": "New York", "zip_code": "11373", "country": "US", "state": "NY", "display_address": ["76-13 Woodside Ave", "New York, NY 11373"]}, "phone": "+19177696168", "display_phone": "(917) 769-6168", "distance": 7052.517155104503}, {"id": "SoBdWOxymmY5yKANn63UWw", "alias": "ozu-brooklyn", "name": "Ozu", "image_url": "https://s3-media3.fl.yelpcdn.com/bphoto/SVBt5zN80L9_LXgFtfKJtg/o.jpg", "is_closed": false, "url": "https://www.yelp.com/biz/ozu-brooklyn?adjust_creative=9gNmiWYX8uTbFBeTTvJMdA&utm_campaign=yelp_api_v3&utm_medium=api_v3_business_search&utm_source=9gNmiWYX8uTbFBeTTvJMdA", "review_count": 285, "categories": [{"alias": "japanese", "title": "Japanese"}, {"alias": "sushi", "title": "Sushi Bars"}, {"alias": "asianfusion", "title": "Asian Fusion"}], "rating": 4.0, "coordinates": {"latitude": 40.69743399861925, "longitude": -73.99336007813704}, "transactions": ["pickup", "delivery"], "price": "$$", "location": {"address1": "78 Clark St", "address2": "", "address3": "", "city": "Brooklyn", "zip_code": "11201", "country": "US", "state": "NY", "display_address": ["78 Clark St", "Brooklyn, NY 11201"]}, "phone": "+17187973288", "display_phone": "(718) 797-3288", "distance": 7151.848708224965}, {"id": "ZaJS8EKQNSaQpwpmgN-vVw", "alias": "samurai-mama-brooklyn", "name": "Samurai Mama", "image_url": "https://s3-media1.fl.yelpcdn.com/bphoto/iU4mCy9pszj-Kx3WzcAXQw/o.jpg", "is_closed": false, "url": "https://www.yelp.com/biz/samurai-mama-brooklyn?adjust_creative=9gNmiWYX8uTbFBeTTvJMdA&utm_campaign=yelp_api_v3&utm_medium=api_v3_business_search&utm_source=9gNmiWYX8uTbFBeTTvJMdA", "review_count": 652, "categories": [{"alias": "japanese", "title": "Japanese"}, {"alias": "noodles", "title": "Noodles"}], "rating": 4.0, "coordinates": {"latitude": 40.7140208838114, "longitude": -73.960325717926}, "transactions": ["pickup", "delivery"], "price": "$$", "location": {"address1": "205 Grand St", "address2": "", "address3": "", "city": "Brooklyn", "zip_code": "11211", "country": "US", "state": "NY", "display_address": ["205 Grand St", "Brooklyn, NY 11211"]}, "phone": "+17185996161", "display_phone": "(718) 599-6161", "distance": 5080.974324914697}, {"id": "pqGGfA3Vm9srfTIJLgL0Ew", "alias": "mamas-noodle-house-brooklyn-3", "name": "Mama's Noodle House", "image_url": "https://s3-media2.fl.yelpcdn.com/bphoto/ttX8J_08kjXvBW5FE_gX7A/o.jpg", "is_closed": false, "url": "https://www.yelp.com/biz/mamas-noodle-house-brooklyn-3?adjust_creative=9gNmiWYX8uTbFBeTTvJMdA&utm_campaign=yelp_api_v3&utm_medium=api_v3_business_search&utm_source=9gNmiWYX8uTbFBeTTvJMdA", "review_count": 149, "categories": [{"alias": "cantonese", "title": "Cantonese"}, {"alias": "szechuan", "title": "Szechuan"}, {"alias": "noodles", "title": "Noodles"}], "rating": 4.5, "coordinates": {"latitude": 40.6168614546041, "longitude": -73.9930436387658}, "transactions": ["pickup", "delivery"], "price": "$", "location": {"address1": "1782 Bay Ridge Ave", "address2": "", "address3": null, "city": "Brooklyn", "zip_code": "11204", "country": "US", "state": "NY", "display_address": ["1782 Bay Ridge Ave", "Brooklyn, NY 11204"]}, "phone": "+16468973171", "display_phone": "(646) 897-3171", "distance": 15947.74284477442}, {"id": "dgGeBcV4oanNupGpzq8xIQ", "alias": "planta-new-york", "name": "PLANTA", "image_url": "https://s3-media1.fl.yelpcdn.com/bphoto/m7Acxto1vj5d0CVK6_0mfA/o.jpg", "is_closed": false, "url": "https://www.yelp.com/biz/planta-new-york?adjust_creative=9gNmiWYX8uTbFBeTTvJMdA&utm_campaign=yelp_api_v3&utm_medium=api_v3_business_search&utm_source=9gNmiWYX8uTbFBeTTvJMdA", "review_count": 8, "categories": [{"alias": "vegan", "title": "Vegan"}, {"alias": "sushi", "title": "Sushi Bars"}, {"alias": "pizza", "title": "Pizza"}], "rating": 4.5, "coordinates": {"latitude": 40.71538076, "longitude": -73.96472208}, "transactions": ["pickup", "delivery"], "location": {"address1": "316 Wythe Ave", "address2": null, "address3": "", "city": "New York", "zip_code": "11249", "country": "US", "state": "NY", "display_address": ["316 Wythe Ave", "New York, NY 11249"]}, "phone": "+19173383845", "display_phone": "(917) 338-3845", "distance": 4877.56029935398}, {"id": "EzyjRrhRpt_NR7wIwqm_Rg", "alias": "prik-thai-kitchen-astoria", "name": "Prik Thai Kitchen", "image_url": "https://s3-media2.fl.yelpcdn.com/bphoto/eKkQ2c-MoKcFB1YvND0gVQ/o.jpg", "is_closed": false, "url": "https://www.yelp.com/biz/prik-thai-kitchen-astoria?adjust_creative=9gNmiWYX8uTbFBeTTvJMdA&utm_campaign=yelp_api_v3&utm_medium=api_v3_business_search&utm_source=9gNmiWYX8uTbFBeTTvJMdA", "review_count": 103, "categories": [{"alias": "thai", "title": "Thai"}], "rating": 3.5, "coordinates": {"latitude": 40.760919256927295, "longitude": -73.90903266139871}, "transactions": ["pickup", "delivery"], "price": "$", "location": {"address1": "4716 30th Ave", "address2": "", "address3": "", "city": "Astoria", "zip_code": "11103", "country": "US", "state": "NY", "display_address": ["4716 30th Ave", "Astoria, NY 11103"]}, "phone": "+17187771502", "display_phone": "(718) 777-1502", "distance": 5102.753964718106}, {"id": "l0zNwRbEQFP1pbbdXZZxcg", "alias": "mai-thai-brooklyn", "name": "Mai Thai", "image_url": "https://s3-media2.fl.yelpcdn.com/bphoto/JXiC02TZKqJN05D0BW3H9Q/o.jpg", "is_closed": false, "url": "https://www.yelp.com/biz/mai-thai-brooklyn?adjust_creative=9gNmiWYX8uTbFBeTTvJMdA&utm_campaign=yelp_api_v3&utm_medium=api_v3_business_search&utm_source=9gNmiWYX8uTbFBeTTvJMdA", "review_count": 190, "categories": [{"alias": "thai", "title": "Thai"}], "rating": 3.0, "coordinates": {"latitude": 40.64305, "longitude": -74.00192}, "transactions": ["pickup", "delivery"], "price": "$", "location": {"address1": "4618 8th Ave", "address2": "", "address3": "", "city": "Brooklyn", "zip_code": "11220", "country": "US", "state": "NY", "display_address": ["4618 8th Ave", "Brooklyn, NY 11220"]}, "phone": "+17184383413", "display_phone": "(718) 438-3413", "distance": 13201.111427037438}, {"id": "zuc_k20f-E9f42BZa_cyLQ", "alias": "iron-fish-new-york-2", "name": "Iron Fish", "image_url": "https://s3-media2.fl.yelpcdn.com/bphoto/TwhqOHGjx0UviNm8YbN3CA/o.jpg", "is_closed": false, "url": "https://www.yelp.com/biz/iron-fish-new-york-2?adjust_creative=9gNmiWYX8uTbFBeTTvJMdA&utm_campaign=yelp_api_v3&utm_medium=api_v3_business_search&utm_source=9gNmiWYX8uTbFBeTTvJMdA", "review_count": 5, "categories": [{"alias": "noodles", "title": "Noodles"}], "rating": 4.0, "coordinates": {"latitude": 40.82408, "longitude": -73.95183}, "transactions": ["pickup", "delivery"], "location": {"address1": "3468 Broadway", "address2": null, "address3": "", "city": "New York", "zip_code": "10031", "country": "US", "state": "NY", "display_address": ["3468 Broadway", "New York, NY 10031"]}, "phone": "+13155445528", "display_phone": "(315) 544-5528", "distance": 7368.131370337565}, {"id": "z7aGXL9WSu9DVLB_27OBBQ", "alias": "chef-cbtm-bistro-jackson-heights", "name": "Chef CBTM Bistro", "image_url": "https://s3-media1.fl.yelpcdn.com/bphoto/Qc6l87M_Cqh0TIc5gt_iKg/o.jpg", "is_closed": false, "url": "https://www.yelp.com/biz/chef-cbtm-bistro-jackson-heights?adjust_creative=9gNmiWYX8uTbFBeTTvJMdA&utm_campaign=yelp_api_v3&utm_medium=api_v3_business_search&utm_source=9gNmiWYX8uTbFBeTTvJMdA", "review_count": 16, "categories": [{"alias": "asianfusion", "title": "Asian Fusion"}, {"alias": "malaysian", "title": "Malaysian"}, {"alias": "thai", "title": "Thai"}], "rating": 4.5, "coordinates": {"latitude": 40.74716, "longitude": -73.89124}, "transactions": [], "location": {"address1": "37-65 74th St", "address2": null, "address3": "", "city": "Jackson Heights", "zip_code": "11372", "country": "US", "state": "NY", "display_address": ["37-65 74th St", "Jackson Heights, NY 11372"]}, "phone": "+13472422293", "display_phone": "(347) 242-2293", "distance": 6723.180668094589}, {"id": "0vSAR3Ym2fuehBvHSZyqIQ", "alias": "koi-restaurant-new-york-2", "name": "Koi Restaurant", "image_url": "https://s3-media1.fl.yelpcdn.com/bphoto/NrdjJTw4Kw8wx17Lh1bwCA/o.jpg", "is_closed": false, "url": "https://www.yelp.com/biz/koi-restaurant-new-york-2?adjust_creative=9gNmiWYX8uTbFBeTTvJMdA&utm_campaign=yelp_api_v3&utm_medium=api_v3_business_search&utm_source=9gNmiWYX8uTbFBeTTvJMdA", "review_count": 824, "categories": [{"alias": "sushi", "title": "Sushi Bars"}, {"alias": "japanese", "title": "Japanese"}], "rating": 3.5, "coordinates": {"latitude": 40.75306524578346, "longitude": -73.98408130671038}, "transactions": ["pickup", "delivery"], "price": "$$$", "location": {"address1": "40 W 40th St", "address2": "", "address3": "", "city": "New York", "zip_code": "10018", "country": "US", "state": "NY", "display_address": ["40 W 40th St", "New York, NY 10018"]}, "phone": "+12129213330", "display_phone": "(212) 921-3330", "distance": 1398.0897119225326}, {"id": "ngrgNE6xT54amiZvxGttWw", "alias": "aubergine-cafe-woodside-3", "name": "Aubergine Cafe", "image_url": "https://s3-media2.fl.yelpcdn.com/bphoto/B4r7pa3If2FW-FxG3rOcEA/o.jpg", "is_closed": false, "url": "https://www.yelp.com/biz/aubergine-cafe-woodside-3?adjust_creative=9gNmiWYX8uTbFBeTTvJMdA&utm_campaign=yelp_api_v3&utm_medium=api_v3_business_search&utm_source=9gNmiWYX8uTbFBeTTvJMdA", "review_count": 355, "categories": [{"alias": "coffee", "title": "Coffee & Tea"}, {"alias": "sandwiches", "title": "Sandwiches"}, {"alias": "salad", "title": "Salad"}], "rating": 4.0, "coordinates": {"latitude": 40.7460689, "longitude": -73.9149198}, "transactions": ["pickup", "delivery"], "price": "$$", "location": {"address1": "49-22 Skillman Ave", "address2": null, "address3": "", "city": "Woodside", "zip_code": "11377", "country": "US", "state": "NY", "display_address": ["49-22 Skillman Ave", "Woodside, NY 11377"]}, "phone": "+17188991735", "display_phone": "(718) 899-1735", "distance": 4867.823180313772}, {"id": "2rSmA4IK51QAQj60YGvjnw", "alias": "new-asian-cuisine-woodside", "name": "New Asian Cuisine", "image_url": "https://s3-media3.fl.yelpcdn.com/bphoto/oODsr0KRQxLQOWeVyb42QA/o.jpg", "is_closed": false, "url": "https://www.yelp.com/biz/new-asian-cuisine-woodside?adjust_creative=9gNmiWYX8uTbFBeTTvJMdA&utm_campaign=yelp_api_v3&utm_medium=api_v3_business_search&utm_source=9gNmiWYX8uTbFBeTTvJMdA", "review_count": 36, "categories": [{"alias": "asianfusion", "title": "Asian Fusion"}, {"alias": "chinese", "title": "Chinese"}], "rating": 3.5, "coordinates": {"latitude": 40.7393524, "longitude": -73.9210213}, "transactions": ["pickup", "delivery"], "price": "$", "location": {"address1": "44-20 48th Ave", "address2": null, "address3": "", "city": "Woodside", "zip_code": "11377", "country": "US", "state": "NY", "display_address": ["44-20 48th Ave", "Woodside, NY 11377"]}, "phone": "+17187844989", "display_phone": "(718) 784-4989", "distance": 4684.908260587794}, {"id": "No1PU4NbOdoaG1lSikfeNg", "alias": "7-elephants-new-york", "name": "7 Elephants", "image_url": "https://s3-media4.fl.yelpcdn.com/bphoto/RylEgFXmusdxb6sLLrxvBA/o.jpg", "is_closed": false, "url": "https://www.yelp.com/biz/7-elephants-new-york?adjust_creative=9gNmiWYX8uTbFBeTTvJMdA&utm_campaign=yelp_api_v3&utm_medium=api_v3_business_search&utm_source=9gNmiWYX8uTbFBeTTvJMdA", "review_count": 58, "categories": [{"alias": "thai", "title": "Thai"}, {"alias": "noodles", "title": "Noodles"}, {"alias": "comfortfood", "title": "Comfort Food"}], "rating": 4.5, "coordinates": {"latitude": 40.714099, "longitude": -73.986987}, "transactions": ["pickup", "delivery"], "location": {"address1": "221 East Broadway", "address2": null, "address3": "", "city": "New York", "zip_code": "10002", "country": "US", "state": "NY", "display_address": ["221 East Broadway", "New York, NY 10002"]}, "phone": "+16467527940", "display_phone": "(646) 752-7940", "distance": 5220.997456603461}, {"id": "fQBbb7wB_GOXsDmSqCEx4w", "alias": "bocaphe-new-york-5", "name": "BoCaphe", "image_url": "https://s3-media2.fl.yelpcdn.com/bphoto/L4fFpPE921XfpNd5rVQeTQ/o.jpg", "is_closed": false, "url": "https://www.yelp.com/biz/bocaphe-new-york-5?adjust_creative=9gNmiWYX8uTbFBeTTvJMdA&utm_campaign=yelp_api_v3&utm_medium=api_v3_business_search&utm_source=9gNmiWYX8uTbFBeTTvJMdA", "review_count": 40, "categories": [{"alias": "vietnamese", "title": "Vietnamese"}, {"alias": "breakfast_brunch", "title": "Breakfast & Brunch"}, {"alias": "french", "title": "French"}], "rating": 3.5, "coordinates": {"latitude": 40.74053, "longitude": -74.00173}, "transactions": ["delivery"], "location": {"address1": "104 8th Ave", "address2": null, "address3": "", "city": "New York", "zip_code": "10011", "country": "US", "state": "NY", "display_address": ["104 8th Ave", "New York, NY 10011"]}, "phone": "+19172615700", "display_phone": "(917) 261-5700", "distance": 3405.4683968438135}, {"id": "SkYcO8FaqYgoP-66g58OMw", "alias": "thai-pot-forest-hills", "name": "Thai Pot", "image_url": "https://s3-media4.fl.yelpcdn.com/bphoto/Qu_oE3bTpWt-pJw8r4LXxw/o.jpg", "is_closed": false, "url": "https://www.yelp.com/biz/thai-pot-forest-hills?adjust_creative=9gNmiWYX8uTbFBeTTvJMdA&utm_campaign=yelp_api_v3&utm_medium=api_v3_business_search&utm_source=9gNmiWYX8uTbFBeTTvJMdA", "review_count": 265, "categories": [{"alias": "thai", "title": "Thai"}], "rating": 3.0, "coordinates": {"latitude": 40.7247545048924, "longitude": -73.8498401641846}, "transactions": ["pickup", "delivery"], "price": "$$", "location": {"address1": "103-07 Queens Blvd", "address2": "", "address3": "", "city": "Forest Hills", "zip_code": "11375", "country": "US", "state": "NY", "display_address": ["103-07 Queens Blvd", "Forest Hills, NY 11375"]}, "phone": "+17188973898", "display_phone": "(718) 897-3898", "distance": 10788.95670643592}, {"id": "i9OqZT0dLMPC1TbMtyaIWQ", "alias": "the-noodle-new-york", "name": "The Noodle", "image_url": "https://s3-media3.fl.yelpcdn.com/bphoto/cryEyILrYWd48fnmWqEYjw/o.jpg", "is_closed": false, "url": "https://www.yelp.com/biz/the-noodle-new-york?adjust_creative=9gNmiWYX8uTbFBeTTvJMdA&utm_campaign=yelp_api_v3&utm_medium=api_v3_business_search&utm_source=9gNmiWYX8uTbFBeTTvJMdA", "review_count": 269, "categories": [{"alias": "noodles", "title": "Noodles"}], "rating": 4.5, "coordinates": {"latitude": 40.81002, "longitude": -73.94352}, "transactions": ["pickup", "delivery"], "location": {"address1": "370 Malcolm X Blvd", "address2": "", "address3": null, "city": "New York", "zip_code": "10027", "country": "US", "state": "NY", "display_address": ["370 Malcolm X Blvd", "New York, NY 10027"]}, "phone": "+16468500208", "display_phone": "(646) 850-0208", "distance": 6057.437068685734}, {"id": "o2Sxmbm3aLxrkzsN-y5aVA", "alias": "banh-mi-cafe-brooklyn", "name": "Banh Mi Cafe", "image_url": "https://s3-media3.fl.yelpcdn.com/bphoto/Mf70w-4KNyV_GsKRP03l9A/o.jpg", "is_closed": false, "url": "https://www.yelp.com/biz/banh-mi-cafe-brooklyn?adjust_creative=9gNmiWYX8uTbFBeTTvJMdA&utm_campaign=yelp_api_v3&utm_medium=api_v3_business_search&utm_source=9gNmiWYX8uTbFBeTTvJMdA", "review_count": 10, "categories": [{"alias": "vietnamese", "title": "Vietnamese"}], "rating": 4.0, "coordinates": {"latitude": 40.67369, "longitude": -73.95}, "transactions": ["pickup", "delivery"], "location": {"address1": "689 Nostrand Ave", "address2": "", "address3": null, "city": "Brooklyn", "zip_code": "11216", "country": "US", "state": "NY", "display_address": ["689 Nostrand Ave", "Brooklyn, NY 11216"]}, "phone": "+19293828111", "display_phone": "(929) 382-8111", "distance": 9650.168051875586}, {"id": "abNHO9-xlCsv31gghCUuxw", "alias": "zutto-japanese-american-pub-new-york-2", "name": "Zutto Japanese American Pub", "image_url": "https://s3-media2.fl.yelpcdn.com/bphoto/KE6W8KsdS4fWHB3fvHBTQQ/o.jpg", "is_closed": false, "url": "https://www.yelp.com/biz/zutto-japanese-american-pub-new-york-2?adjust_creative=9gNmiWYX8uTbFBeTTvJMdA&utm_campaign=yelp_api_v3&utm_medium=api_v3_business_search&utm_source=9gNmiWYX8uTbFBeTTvJMdA", "review_count": 996, "categories": [{"alias": "sushi", "title": "Sushi Bars"}, {"alias": "ramen", "title": "Ramen"}, {"alias": "cocktailbars", "title": "Cocktail Bars"}], "rating": 4.0, "coordinates": {"latitude": 40.71847, "longitude": -74.00903}, "transactions": ["pickup", "delivery"], "price": "$$", "location": {"address1": "77 Hudson St", "address2": null, "address3": "", "city": "New York", "zip_code": "10013", "country": "US", "state": "NY", "display_address": ["77 Hudson St", "New York, NY 10013"]}, "phone": "+12122333287", "display_phone": "(212) 233-3287", "distance": 5619.023517958044}, {"id": "FhXBKrLHyK7np4d0_f1s-w", "alias": "swadist-restaurant-jersey-city", "name": "Swadist Restaurant", "image_url": "https://s3-media2.fl.yelpcdn.com/bphoto/v6y2YlFGvWg3PtHojTkAlg/o.jpg", "is_closed": false, "url": "https://www.yelp.com/biz/swadist-restaurant-jersey-city?adjust_creative=9gNmiWYX8uTbFBeTTvJMdA&utm_campaign=yelp_api_v3&utm_medium=api_v3_business_search&utm_source=9gNmiWYX8uTbFBeTTvJMdA", "review_count": 191, "categories": [{"alias": "indpak", "title": "Indian"}, {"alias": "chinese", "title": "Chinese"}, {"alias": "thai", "title": "Thai"}], "rating": 4.5, "coordinates": {"latitude": 40.734995, "longitude": -74.061407}, "transactions": ["pickup", "delivery"], "price": "$$", "location": {"address1": "715 Newark Ave", "address2": null, "address3": "", "city": "Jersey City", "zip_code": "07306", "country": "US", "state": "NJ", "display_address": ["715 Newark Ave", "Jersey City, NJ 07306"]}, "phone": "+12017215152", "display_phone": "(201) 721-5152", "distance": 8190.004947050068}, {"id": "I7z828r-k_shx2JbqL2DeQ", "alias": "little-myanmar-new-york-2", "name": "Little Myanmar", "image_url": "https://s3-media4.fl.yelpcdn.com/bphoto/jp2nfClbjL_yt6Zqdzb7qw/o.jpg", "is_closed": false, "url": "https://www.yelp.com/biz/little-myanmar-new-york-2?adjust_creative=9gNmiWYX8uTbFBeTTvJMdA&utm_campaign=yelp_api_v3&utm_medium=api_v3_business_search&utm_source=9gNmiWYX8uTbFBeTTvJMdA", "review_count": 65, "categories": [{"alias": "burmese", "title": "Burmese"}, {"alias": "salad", "title": "Salad"}, {"alias": "soup", "title": "Soup"}], "rating": 4.0, "coordinates": {"latitude": 40.72300252512418, "longitude": -73.98551929999999}, "transactions": ["pickup", "delivery"], "location": {"address1": "150 E 2nd St", "address2": "", "address3": null, "city": "New York", "zip_code": "10009", "country": "US", "state": "NY", "display_address": ["150 E 2nd St", "New York, NY 10009"]}, "phone": "+19174751183", "display_phone": "(917) 475-1183", "distance": 4240.566583116877}, {"id": "HOZsJkXLEWMy03TOMaH0jQ", "alias": "the-pho-2-new-york-3", "name": "The Pho 2", "image_url": "https://s3-media1.fl.yelpcdn.com/bphoto/zOVri-gwuwF_M613jdFQeA/o.jpg", "is_closed": false, "url": "https://www.yelp.com/biz/the-pho-2-new-york-3?adjust_creative=9gNmiWYX8uTbFBeTTvJMdA&utm_campaign=yelp_api_v3&utm_medium=api_v3_business_search&utm_source=9gNmiWYX8uTbFBeTTvJMdA", "review_count": 204, "categories": [{"alias": "vietnamese", "title": "Vietnamese"}], "rating": 3.5, "coordinates": {"latitude": 40.7457768, "longitude": -73.9983051}, "transactions": ["pickup", "delivery"], "price": "$$", "location": {"address1": "273 8th Ave", "address2": "", "address3": null, "city": "New York", "zip_code": "10011", "country": "US", "state": "NY", "display_address": ["273 8th Ave", "New York, NY 10011"]}, "phone": "+19172617592", "display_phone": "(917) 261-7592", "distance": 2846.961669531982}, {"id": "7EaiwMVaNdQibSs0yYkE5Q", "alias": "sushi-yasuda-new-york", "name": "Sushi Yasuda", "image_url": "https://s3-media1.fl.yelpcdn.com/bphoto/MNQ210kOJ3qQRYyJZke9Qw/o.jpg", "is_closed": false, "url": "https://www.yelp.com/biz/sushi-yasuda-new-york?adjust_creative=9gNmiWYX8uTbFBeTTvJMdA&utm_campaign=yelp_api_v3&utm_medium=api_v3_business_search&utm_source=9gNmiWYX8uTbFBeTTvJMdA", "review_count": 2252, "categories": [{"alias": "sushi", "title": "Sushi Bars"}, {"alias": "japanese", "title": "Japanese"}], "rating": 4.0, "coordinates": {"latitude": 40.75113, "longitude": -73.97347}, "transactions": [], "price": "$$$$", "location": {"address1": "204 E 43rd St", "address2": "", "address3": "", "city": "New York", "zip_code": "10017", "country": "US", "state": "NY", "display_address": ["204 E 43rd St", "New York, NY 10017"]}, "phone": "+12129721001", "display_phone": "(212) 972-1001", "distance": 954.9886317390013}, {"id": "q2HGvziLlfQGChoDPFjTCQ", "alias": "szechaun-mirchi-jersey-city", "name": "Szechaun Mirchi", "image_url": "https://s3-media1.fl.yelpcdn.com/bphoto/BJ61PmuYWz1772ptczaV4w/o.jpg", "is_closed": false, "url": "https://www.yelp.com/biz/szechaun-mirchi-jersey-city?adjust_creative=9gNmiWYX8uTbFBeTTvJMdA&utm_campaign=yelp_api_v3&utm_medium=api_v3_business_search&utm_source=9gNmiWYX8uTbFBeTTvJMdA", "review_count": 85, "categories": [{"alias": "indpak", "title": "Indian"}, {"alias": "asianfusion", "title": "Asian Fusion"}, {"alias": "thai", "title": "Thai"}], "rating": 4.0, "coordinates": {"latitude": 40.73621, "longitude": -74.067281}, "transactions": ["pickup", "delivery"], "price": "$$", "location": {"address1": "850 Newark Ave", "address2": "", "address3": null, "city": "Jersey City", "zip_code": "07306", "country": "US", "state": "NJ", "display_address": ["850 Newark Ave", "Jersey City, NJ 07306"]}, "phone": "+12017433720", "display_phone": "(201) 743-3720", "distance": 8617.871234752163}], "total": 1700, "region": {"center": {"longitude": -73.96957397460938, "latitude": 40.75917470627005}}}