{"businesses": [{"id": "EBIjeMlkgU12CyCcUDj-kg", "alias": "shuko-new-york-2", "name": "Shuko", "image_url": "https://s3-media4.fl.yelpcdn.com/bphoto/wmycvVeAoEl-zIXE6lr5sw/o.jpg", "is_closed": false, "url": "https://www.yelp.com/biz/shuko-new-york-2?adjust_creative=9gNmiWYX8uTbFBeTTvJMdA&utm_campaign=yelp_api_v3&utm_medium=api_v3_business_search&utm_source=9gNmiWYX8uTbFBeTTvJMdA", "review_count": 331, "categories": [{"alias": "japanese", "title": "Japanese"}, {"alias": "sushi", "title": "Sushi Bars"}], "rating": 4.0, "coordinates": {"latitude": 40.7334269431242, "longitude": -73.9914635674129}, "transactions": ["delivery"], "price": "$$$$", "location": {"address1": "47 E 12th St", "address2": "", "address3": "", "city": "New York", "zip_code": "10003", "country": "US", "state": "NY", "display_address": ["47 E 12th St", "New York, NY 10003"]}, "phone": "+12122286088", "display_phone": "(212) 228-6088", "distance": 3405.4790991227987}, {"id": "1851MMElaLteR03rnGAMlw", "alias": "pho-87-new-york-4", "name": "Pho 87", "image_url": "https://s3-media2.fl.yelpcdn.com/bphoto/5k9bqnDh06f8BCr7gXZm0Q/o.jpg", "is_closed": false, "url": "https://www.yelp.com/biz/pho-87-new-york-4?adjust_creative=9gNmiWYX8uTbFBeTTvJMdA&utm_campaign=yelp_api_v3&utm_medium=api_v3_business_search&utm_source=9gNmiWYX8uTbFBeTTvJMdA", "review_count": 536, "categories": [{"alias": "vietnamese", "title": "Vietnamese"}], "rating": 4.0, "coordinates": {"latitude": 40.717587, "longitude": -73.9944029}, "transactions": ["pickup", "delivery"], "price": "$$", "location": {"address1": "87 Chrystie St", "address2": "", "address3": "", "city": "New York", "zip_code": "10002", "country": "US", "state": "NY", "display_address": ["87 Chrystie St", "New York, NY 10002"]}, "phone": "+19176756754", "display_phone": "(917) 675-6754", "distance": 5075.47837582865}, {"id": "8YiflQbkpVA2CEb4C6DkKw", "alias": "papa-don-nyc-astoria", "name": "Papa Don NYC", "image_url": "https://s3-media1.fl.yelpcdn.com/bphoto/vKRZEZD2Nrm-jR198AZt-Q/o.jpg", "is_closed": false, "url": "https://www.yelp.com/biz/papa-don-nyc-astoria?adjust_creative=9gNmiWYX8uTbFBeTTvJMdA&utm_campaign=yelp_api_v3&utm_medium=api_v3_business_search&utm_source=9gNmiWYX8uTbFBeTTvJMdA", "review_count": 27, "categories": [{"alias": "indonesian", "title": "Indonesian"}, {"alias": "bubbletea", "title": "Bubble Tea"}, {"alias": "pancakes", "title": "Pancakes"}], "rating": 3.5, "coordinates": {"latitude": 40.77573646756682, "longitude": -73.91500841997382}, "transactions": ["pickup", "delivery"], "price": "$", "location": {"address1": "27-10 23rd Ave", "address2": null, "address3": "", "city": "Astoria", "zip_code": "11105", "country": "US", "state": "NY", "display_address": ["27-10 23rd Ave", "Astoria, NY 11105"]}, "phone": "+17182551176", "display_phone": "(718) 255-1176", "distance": 4950.527524198707}, {"id": "jX8N6SkVk-b95pTDO2vXJQ", "alias": "mr-fried-rice-new-york", "name": "Mr Fried Rice", "image_url": "https://s3-media2.fl.yelpcdn.com/bphoto/3ztA7ucsmoOC3sVgZ9d5ew/o.jpg", "is_closed": false, "url": "https://www.yelp.com/biz/mr-fried-rice-new-york?adjust_creative=9gNmiWYX8uTbFBeTTvJMdA&utm_campaign=yelp_api_v3&utm_medium=api_v3_business_search&utm_source=9gNmiWYX8uTbFBeTTvJMdA", "review_count": 7, "categories": [{"alias": "singaporean", "title": "Singaporean"}, {"alias": "foodstands", "title": "Food Stands"}], "rating": 4.0, "coordinates": {"latitude": 40.76092452553811, "longitude": -73.98190945386887}, "transactions": ["pickup", "delivery"], "location": {"address1": "135 W 50th St", "address2": "", "address3": null, "city": "New York", "zip_code": "10020", "country": "US", "state": "NY", "display_address": ["135 W 50th St", "New York, NY 10020"]}, "phone": "", "display_phone": "", "distance": 1057.0125239944803}, {"id": "PMMNurtRhVWYEx8wgf3QPA", "alias": "two-wheels-queens", "name": "Two Wheels", "image_url": "", "is_closed": false, "url": "https://www.yelp.com/biz/two-wheels-queens?adjust_creative=9gNmiWYX8uTbFBeTTvJMdA&utm_campaign=yelp_api_v3&utm_medium=api_v3_business_search&utm_source=9gNmiWYX8uTbFBeTTvJMdA", "review_count": 1, "categories": [{"alias": "vietnamese", "title": "Vietnamese"}], "rating": 4.0, "coordinates": {"latitude": 40.74741, "longitude": -73.9232}, "transactions": ["pickup"], "location": {"address1": "40-05 Skillman Ave", "address2": "", "address3": null, "city": "Queens", "zip_code": "11104", "country": "US", "state": "NY", "display_address": ["40-05 Skillman Ave", "Queens, NY 11104"]}, "phone": "+16464298661", "display_phone": "(646) 429-8661", "distance": 4116.555312180463}, {"id": "lQ8Fzgji9qmgRXkFcvAsVQ", "alias": "chong-qing-xiao-mian-new-york-2", "name": "Chong Qing Xiao Mian", "image_url": "https://s3-media2.fl.yelpcdn.com/bphoto/9XObpVR2NoztvSqSmrwURg/o.jpg", "is_closed": false, "url": "https://www.yelp.com/biz/chong-qing-xiao-mian-new-york-2?adjust_creative=9gNmiWYX8uTbFBeTTvJMdA&utm_campaign=yelp_api_v3&utm_medium=api_v3_business_search&utm_source=9gNmiWYX8uTbFBeTTvJMdA", "review_count": 341, "categories": [{"alias": "chinese", "title": "Chinese"}, {"alias": "noodles", "title": "Noodles"}], "rating": 4.0, "coordinates": {"latitude": 40.76513, "longitude": -73.98753}, "transactions": ["pickup", "delivery"], "price": "$$", "location": {"address1": "796 9th Ave", "address2": "", "address3": null, "city": "New York", "zip_code": "10019", "country": "US", "state": "NY", "display_address": ["796 9th Ave", "New York, NY 10019"]}, "phone": "+12125828866", "display_phone": "(212) 582-8866", "distance": 1647.001074734502}, {"id": "IYRJ5E7fnK2UC0B5mOgzSQ", "alias": "sweet-basil-brooklyn", "name": "Sweet Basil", "image_url": "https://s3-media3.fl.yelpcdn.com/bphoto/p_uZa0F_hVbzaHiEU7iA5g/o.jpg", "is_closed": false, "url": "https://www.yelp.com/biz/sweet-basil-brooklyn?adjust_creative=9gNmiWYX8uTbFBeTTvJMdA&utm_campaign=yelp_api_v3&utm_medium=api_v3_business_search&utm_source=9gNmiWYX8uTbFBeTTvJMdA", "review_count": 241, "categories": [{"alias": "thai", "title": "Thai"}], "rating": 3.0, "coordinates": {"latitude": 40.674388, "longitude": -73.9566116}, "transactions": ["pickup", "delivery"], "price": "$$", "location": {"address1": "709 Franklin Ave", "address2": "", "address3": "", "city": "Brooklyn", "zip_code": "11238", "country": "US", "state": "NY", "display_address": ["709 Franklin Ave", "Brooklyn, NY 11238"]}, "phone": "+17183993388", "display_phone": "(718) 399-3388", "distance": 9490.9250229829}, {"id": "GlZKE1IrwfezpV_ZCvQWZA", "alias": "sushi-house-21-newark-4", "name": "Jc Sushi House 21", "image_url": "https://s3-media4.fl.yelpcdn.com/bphoto/gskf6j1913wrol7YYUiZOA/o.jpg", "is_closed": false, "url": "https://www.yelp.com/biz/sushi-house-21-newark-4?adjust_creative=9gNmiWYX8uTbFBeTTvJMdA&utm_campaign=yelp_api_v3&utm_medium=api_v3_business_search&utm_source=9gNmiWYX8uTbFBeTTvJMdA", "review_count": 147, "categories": [{"alias": "japanese", "title": "Japanese"}, {"alias": "sushi", "title": "Sushi Bars"}, {"alias": "modern_european", "title": "Modern European"}], "rating": 4.5, "coordinates": {"latitude": 40.72705, "longitude": -74.16002}, "transactions": ["pickup", "delivery"], "price": "$$", "location": {"address1": "243 Elm St", "address2": "", "address3": "", "city": "Nwk", "zip_code": "07105", "country": "US", "state": "NJ", "display_address": ["243 Elm St", "Nwk, NJ 07105"]}, "phone": "+19739910067", "display_phone": "(973) 991-0067", "distance": 16437.151116722704}, {"id": "U-VF6WSAWTN_6iDpWd5kqw", "alias": "v-nam-cafe-new-york", "name": "V-Nam Cafe", "image_url": "https://s3-media2.fl.yelpcdn.com/bphoto/6xAw0ZjjFd7I8xoe-ohrag/o.jpg", "is_closed": false, "url": "https://www.yelp.com/biz/v-nam-cafe-new-york?adjust_creative=9gNmiWYX8uTbFBeTTvJMdA&utm_campaign=yelp_api_v3&utm_medium=api_v3_business_search&utm_source=9gNmiWYX8uTbFBeTTvJMdA", "review_count": 531, "categories": [{"alias": "vietnamese", "title": "Vietnamese"}, {"alias": "sandwiches", "title": "Sandwiches"}, {"alias": "coffee", "title": "Coffee & Tea"}], "rating": 4.0, "coordinates": {"latitude": 40.7235879, "longitude": -73.9879349}, "transactions": ["pickup", "delivery"], "price": "$$", "location": {"address1": "20 1st Ave", "address2": "", "address3": "", "city": "New York", "zip_code": "10009", "country": "US", "state": "NY", "display_address": ["20 1st Ave", "New York, NY 10009"]}, "phone": "+12127806020", "display_phone": "(212) 780-6020", "distance": 4248.6714025473175}, {"id": "3Pj_6JogAypgXNhM1-iSPQ", "alias": "go-vegan-cuisine-new-york-2", "name": "Go Vegan Cuisine", "image_url": "https://s3-media2.fl.yelpcdn.com/bphoto/IcgbOiDF32NmOx4IO3XjKg/o.jpg", "is_closed": false, "url": "https://www.yelp.com/biz/go-vegan-cuisine-new-york-2?adjust_creative=9gNmiWYX8uTbFBeTTvJMdA&utm_campaign=yelp_api_v3&utm_medium=api_v3_business_search&utm_source=9gNmiWYX8uTbFBeTTvJMdA", "review_count": 15, "categories": [{"alias": "vegan", "title": "Vegan"}, {"alias": "thai", "title": "Thai"}, {"alias": "venues", "title": "Venues & Event Spaces"}], "rating": 4.5, "coordinates": {"latitude": 40.72383, "longitude": -73.98478}, "transactions": ["pickup", "delivery"], "location": {"address1": "50 Ave A", "address2": null, "address3": "", "city": "New York", "zip_code": "10009", "country": "US", "state": "NY", "display_address": ["50 Ave A", "New York, NY 10009"]}, "phone": "+12676668058", "display_phone": "(267) 666-8058", "distance": 4135.893049124472}, {"id": "itH4GH2Mw2D5n5kkQAtMog", "alias": "abiko-curry-new-york-2", "name": "Abiko Curry", "image_url": "https://s3-media4.fl.yelpcdn.com/bphoto/1HSozLadvvMIafJ_5jEgnQ/o.jpg", "is_closed": false, "url": "https://www.yelp.com/biz/abiko-curry-new-york-2?adjust_creative=9gNmiWYX8uTbFBeTTvJMdA&utm_campaign=yelp_api_v3&utm_medium=api_v3_business_search&utm_source=9gNmiWYX8uTbFBeTTvJMdA", "review_count": 978, "categories": [{"alias": "japacurry", "title": "Japanese Curry"}, {"alias": "noodles", "title": "Noodles"}, {"alias": "beerbar", "title": "Beer Bar"}], "rating": 4.0, "coordinates": {"latitude": 40.74721, "longitude": -73.986192}, "transactions": ["pickup", "delivery"], "price": "$$", "location": {"address1": "2 W 32nd St", "address2": "", "address3": null, "city": "New York", "zip_code": "10001", "country": "US", "state": "NY", "display_address": ["2 W 32nd St", "New York, NY 10001"]}, "phone": "+12126950888", "display_phone": "(212) 695-0888", "distance": 1927.030404670416}, {"id": "hKKDfUPcDX_c-RCWBMOr1w", "alias": "bombay-sandwich-co-new-york-40", "name": "Bombay Sandwich Co.", "image_url": "https://s3-media3.fl.yelpcdn.com/bphoto/4jSC6d7ZdENa3i88Gx1ngg/o.jpg", "is_closed": false, "url": "https://www.yelp.com/biz/bombay-sandwich-co-new-york-40?adjust_creative=9gNmiWYX8uTbFBeTTvJMdA&utm_campaign=yelp_api_v3&utm_medium=api_v3_business_search&utm_source=9gNmiWYX8uTbFBeTTvJMdA", "review_count": 457, "categories": [{"alias": "indpak", "title": "Indian"}, {"alias": "vegetarian", "title": "Vegetarian"}, {"alias": "sandwiches", "title": "Sandwiches"}], "rating": 4.0, "coordinates": {"latitude": 40.7450715521913, "longitude": -73.990359620218}, "transactions": ["pickup", "delivery"], "price": "$$", "location": {"address1": "48 W 27th St", "address2": "", "address3": "", "city": "New York", "zip_code": "10001", "country": "US", "state": "NY", "display_address": ["48 W 27th St", "New York, NY 10001"]}, "phone": "+16467819756", "display_phone": "(646) 781-9756", "distance": 2350.4873540700246}, {"id": "QJj-f8cpIs81NtlvS_Dc3w", "alias": "cafe-at-klom-klorm-brooklyn", "name": "Cafe at Klom Klorm", "image_url": "https://s3-media1.fl.yelpcdn.com/bphoto/IJq7TbPRFV_IxoQoodXHQw/o.jpg", "is_closed": false, "url": "https://www.yelp.com/biz/cafe-at-klom-klorm-brooklyn?adjust_creative=9gNmiWYX8uTbFBeTTvJMdA&utm_campaign=yelp_api_v3&utm_medium=api_v3_business_search&utm_source=9gNmiWYX8uTbFBeTTvJMdA", "review_count": 51, "categories": [{"alias": "thai", "title": "Thai"}, {"alias": "desserts", "title": "Desserts"}, {"alias": "cafes", "title": "Cafes"}], "rating": 4.5, "coordinates": {"latitude": 40.703238, "longitude": -73.916943}, "transactions": ["pickup", "delivery"], "location": {"address1": "371 Himrod St", "address2": "", "address3": null, "city": "Brooklyn", "zip_code": "11237", "country": "US", "state": "NY", "display_address": ["371 Himrod St", "Brooklyn, NY 11237"]}, "phone": "+17183663670", "display_phone": "(718) 366-3670", "distance": 7638.961955307814}, {"id": "mlm40NxsVJUPnh3LTayaaw", "alias": "kimika-new-york", "name": "Kimika", "image_url": "https://s3-media2.fl.yelpcdn.com/bphoto/C9cNpM69DQ8vN-7yQfzUcw/o.jpg", "is_closed": false, "url": "https://www.yelp.com/biz/kimika-new-york?adjust_creative=9gNmiWYX8uTbFBeTTvJMdA&utm_campaign=yelp_api_v3&utm_medium=api_v3_business_search&utm_source=9gNmiWYX8uTbFBeTTvJMdA", "review_count": 331, "categories": [{"alias": "italian", "title": "Italian"}, {"alias": "cocktailbars", "title": "Cocktail Bars"}, {"alias": "asianfusion", "title": "Asian Fusion"}], "rating": 4.0, "coordinates": {"latitude": 40.720572, "longitude": -73.995206}, "transactions": ["delivery"], "price": "$$$", "location": {"address1": "40 Kenmare St", "address2": "", "address3": null, "city": "New York", "zip_code": "10012", "country": "US", "state": "NY", "display_address": ["40 Kenmare St", "New York, NY 10012"]}, "phone": "+12122569280", "display_phone": "(212) 256-9280", "distance": 4803.18206582796}, {"id": "kHlh5L7Mr4kmrTrxMjB34Q", "alias": "just-salad-brooklyn-7", "name": "Just Salad", "image_url": "https://s3-media4.fl.yelpcdn.com/bphoto/VDgKFkukMUR4O78VJYOZsA/o.jpg", "is_closed": false, "url": "https://www.yelp.com/biz/just-salad-brooklyn-7?adjust_creative=9gNmiWYX8uTbFBeTTvJMdA&utm_campaign=yelp_api_v3&utm_medium=api_v3_business_search&utm_source=9gNmiWYX8uTbFBeTTvJMdA", "review_count": 4, "categories": [{"alias": "salad", "title": "Salad"}, {"alias": "vegetarian", "title": "Vegetarian"}], "rating": 4.0, "coordinates": {"latitude": 40.681903, "longitude": -73.975463}, "transactions": ["pickup", "delivery"], "location": {"address1": "461 Dean St", "address2": null, "address3": "", "city": "Brooklyn", "zip_code": "11217", "country": "US", "state": "NY", "display_address": ["461 Dean St", "Brooklyn, NY 11217"]}, "phone": "+18666733757", "display_phone": "(866) 673-3757", "distance": 8605.279429714094}, {"id": "gWuHmSQ8G5FiKv-rEogwvA", "alias": "pongal-new-york-2", "name": "Pongal", "image_url": "https://s3-media1.fl.yelpcdn.com/bphoto/yyVbbtkCt789TkuCQ7FU_A/o.jpg", "is_closed": false, "url": "https://www.yelp.com/biz/pongal-new-york-2?adjust_creative=9gNmiWYX8uTbFBeTTvJMdA&utm_campaign=yelp_api_v3&utm_medium=api_v3_business_search&utm_source=9gNmiWYX8uTbFBeTTvJMdA", "review_count": 547, "categories": [{"alias": "indpak", "title": "Indian"}, {"alias": "vegetarian", "title": "Vegetarian"}, {"alias": "desserts", "title": "Desserts"}], "rating": 4.0, "coordinates": {"latitude": 40.74246, "longitude": -73.9829}, "transactions": ["pickup", "delivery"], "price": "$$", "location": {"address1": "110 Lexington Ave", "address2": "", "address3": "", "city": "New York", "zip_code": "10016", "country": "US", "state": "NY", "display_address": ["110 Lexington Ave", "New York, NY 10016"]}, "phone": "+12126969458", "display_phone": "(212) 696-9458", "distance": 2171.3465737100946}, {"id": "G_C-murI79nWDtR10h14XA", "alias": "frenasia-howard-beach", "name": "Frenasia", "image_url": "https://s3-media3.fl.yelpcdn.com/bphoto/kGgxM85-O1uIwXpwwjv1FA/o.jpg", "is_closed": false, "url": "https://www.yelp.com/biz/frenasia-howard-beach?adjust_creative=9gNmiWYX8uTbFBeTTvJMdA&utm_campaign=yelp_api_v3&utm_medium=api_v3_business_search&utm_source=9gNmiWYX8uTbFBeTTvJMdA", "review_count": 278, "categories": [{"alias": "asianfusion", "title": "Asian Fusion"}, {"alias": "sushi", "title": "Sushi Bars"}, {"alias": "japanese", "title": "Japanese"}], "rating": 3.5, "coordinates": {"latitude": 40.65144614151171, "longitude": -73.8374656}, "transactions": ["pickup", "delivery"], "price": "$$", "location": {"address1": "16335 Crossbay Blvd", "address2": "", "address3": "", "city": "Howard Beach", "zip_code": "11414", "country": "US", "state": "NY", "display_address": ["16335 Crossbay Blvd", "Howard Beach, NY 11414"]}, "phone": "+17183227690", "display_phone": "(718) 322-7690", "distance": 16355.480338763178}, {"id": "fZuIszXbPoyzYMDSYd3oOA", "alias": "ghang-thai-kitchen-brooklyn", "name": "Ghang Thai Kitchen", "image_url": "https://s3-media2.fl.yelpcdn.com/bphoto/tepE21P2nTgQht3YLF07jA/o.jpg", "is_closed": false, "url": "https://www.yelp.com/biz/ghang-thai-kitchen-brooklyn?adjust_creative=9gNmiWYX8uTbFBeTTvJMdA&utm_campaign=yelp_api_v3&utm_medium=api_v3_business_search&utm_source=9gNmiWYX8uTbFBeTTvJMdA", "review_count": 207, "categories": [{"alias": "thai", "title": "Thai"}], "rating": 3.5, "coordinates": {"latitude": 40.6861227, "longitude": -73.9938877}, "transactions": ["pickup", "delivery"], "price": "$$", "location": {"address1": "229 Court St", "address2": null, "address3": "", "city": "Brooklyn", "zip_code": "11201", "country": "US", "state": "NY", "display_address": ["229 Court St", "Brooklyn, NY 11201"]}, "phone": "+17188751369", "display_phone": "(718) 875-1369", "distance": 8377.436313682458}, {"id": "DtkyPDGAodq5bAesiFa-JQ", "alias": "amaze-58-asian-fusion-new-york", "name": "Amaze 58 Asian Fusion", "image_url": "https://s3-media3.fl.yelpcdn.com/bphoto/Z1hGzHC9SkF_q5qkDvbYtw/o.jpg", "is_closed": false, "url": "https://www.yelp.com/biz/amaze-58-asian-fusion-new-york?adjust_creative=9gNmiWYX8uTbFBeTTvJMdA&utm_campaign=yelp_api_v3&utm_medium=api_v3_business_search&utm_source=9gNmiWYX8uTbFBeTTvJMdA", "review_count": 114, "categories": [{"alias": "asianfusion", "title": "Asian Fusion"}, {"alias": "sushi", "title": "Sushi Bars"}, {"alias": "seafood", "title": "Seafood"}], "rating": 3.5, "coordinates": {"latitude": 40.7590052, "longitude": -73.9620854}, "transactions": ["pickup", "delivery"], "price": "$$", "location": {"address1": "1066 1st Ave", "address2": "", "address3": "", "city": "New York", "zip_code": "10022", "country": "US", "state": "NY", "display_address": ["1066 1st Ave", "New York, NY 10022"]}, "phone": "+12126888808", "display_phone": "(212) 688-8808", "distance": 631.012544233903}, {"id": "ZIxmqUDB_34TcTVSNusa6g", "alias": "street-food-market-hackensack", "name": "Street Food Market", "image_url": "", "is_closed": false, "url": "https://www.yelp.com/biz/street-food-market-hackensack?adjust_creative=9gNmiWYX8uTbFBeTTvJMdA&utm_campaign=yelp_api_v3&utm_medium=api_v3_business_search&utm_source=9gNmiWYX8uTbFBeTTvJMdA", "review_count": 1, "categories": [{"alias": "thai", "title": "Thai"}], "rating": 5.0, "coordinates": {"latitude": 40.9003, "longitude": -74.04125}, "transactions": [], "location": {"address1": "673 Main St", "address2": "", "address3": "", "city": "Hackensack", "zip_code": "07601", "country": "US", "state": "NJ", "display_address": ["673 Main St", "Hackensack, NJ 07601"]}, "phone": "", "display_phone": "", "distance": 16819.33595149884}, {"id": "8t1RC4e6pCyGZXCUm91XQg", "alias": "ooodles-noodle-house-bayside", "name": "Ooodles Noodle House", "image_url": "https://s3-media2.fl.yelpcdn.com/bphoto/CfqvlMTfj1JEQPm58HLdMA/o.jpg", "is_closed": false, "url": "https://www.yelp.com/biz/ooodles-noodle-house-bayside?adjust_creative=9gNmiWYX8uTbFBeTTvJMdA&utm_campaign=yelp_api_v3&utm_medium=api_v3_business_search&utm_source=9gNmiWYX8uTbFBeTTvJMdA", "review_count": 67, "categories": [{"alias": "chinese", "title": "Chinese"}, {"alias": "taiwanese", "title": "Taiwanese"}, {"alias": "noodles", "title": "Noodles"}], "rating": 4.5, "coordinates": {"latitude": 40.76079, "longitude": -73.7673}, "transactions": ["pickup", "delivery"], "price": "$$", "location": {"address1": "215-05 Northern Blvd", "address2": "Ste 2", "address3": "", "city": "Bayside", "zip_code": "11361", "country": "US", "state": "NY", "display_address": ["215-05 Northern Blvd", "Ste 2", "Bayside, NY 11361"]}, "phone": "+13474084358", "display_phone": "(347) 408-4358", "distance": 17029.83568754212}, {"id": "a8Lj13uc3Hhyjm0eYL90sw", "alias": "sushi-on-me-jackson-heights", "name": "Sushi On Me", "image_url": "https://s3-media3.fl.yelpcdn.com/bphoto/XdWRPyP5iDVYlQcGF-LO2w/o.jpg", "is_closed": false, "url": "https://www.yelp.com/biz/sushi-on-me-jackson-heights?adjust_creative=9gNmiWYX8uTbFBeTTvJMdA&utm_campaign=yelp_api_v3&utm_medium=api_v3_business_search&utm_source=9gNmiWYX8uTbFBeTTvJMdA", "review_count": 234, "categories": [{"alias": "japanese", "title": "Japanese"}, {"alias": "sushi", "title": "Sushi Bars"}, {"alias": "speakeasies", "title": "Speakeasies"}], "rating": 5.0, "coordinates": {"latitude": 40.746444, "longitude": -73.893947}, "transactions": ["delivery"], "price": "$$$$", "location": {"address1": "71-26 Roosevelt Ave", "address2": null, "address3": "", "city": "Jackson Heights", "zip_code": "11372", "country": "US", "state": "NY", "display_address": ["71-26 Roosevelt Ave", "Jackson Heights, NY 11372"]}, "phone": "+19292685691", "display_phone": "(929) 268-5691", "distance": 6528.823158643417}, {"id": "7xyLHOYIfoY6H5TOYwCuow", "alias": "pho-metro-flushing", "name": "Pho Metro", "image_url": "https://s3-media1.fl.yelpcdn.com/bphoto/JCgljkSHTykrCsHQceSAQg/o.jpg", "is_closed": false, "url": "https://www.yelp.com/biz/pho-metro-flushing?adjust_creative=9gNmiWYX8uTbFBeTTvJMdA&utm_campaign=yelp_api_v3&utm_medium=api_v3_business_search&utm_source=9gNmiWYX8uTbFBeTTvJMdA", "review_count": 509, "categories": [{"alias": "vietnamese", "title": "Vietnamese"}], "rating": 4.5, "coordinates": {"latitude": 40.7685908, "longitude": -73.8336384}, "transactions": ["delivery"], "price": "$$", "location": {"address1": "31-16 Farrington St", "address2": null, "address3": "", "city": "Flushing", "zip_code": "11354", "country": "US", "state": "NY", "display_address": ["31-16 Farrington St", "Flushing, NY 11354"]}, "phone": "+17188867435", "display_phone": "(718) 886-7435", "distance": 11476.001339802871}, {"id": "qgMHSp9_5ppLB5nFE3KEYQ", "alias": "just-salad-new-york-51", "name": "Just Salad", "image_url": "https://s3-media2.fl.yelpcdn.com/bphoto/YEHQQx5JG8iIDRfjQistoQ/o.jpg", "is_closed": false, "url": "https://www.yelp.com/biz/just-salad-new-york-51?adjust_creative=9gNmiWYX8uTbFBeTTvJMdA&utm_campaign=yelp_api_v3&utm_medium=api_v3_business_search&utm_source=9gNmiWYX8uTbFBeTTvJMdA", "review_count": 8, "categories": [{"alias": "salad", "title": "Salad"}, {"alias": "vegetarian", "title": "Vegetarian"}, {"alias": "vegan", "title": "Vegan"}], "rating": 4.0, "coordinates": {"latitude": 40.7528142, "longitude": -73.995305}, "transactions": ["pickup", "delivery"], "location": {"address1": "334 West 34th St", "address2": null, "address3": "", "city": "New York", "zip_code": "10001", "country": "US", "state": "NY", "display_address": ["334 West 34th St", "New York, NY 10001"]}, "phone": "+18666733757", "display_phone": "(866) 673-3757", "distance": 2271.0493052949696}, {"id": "0CjK3esfpFcxIopebzjFxA", "alias": "joes-shanghai-new-york-2", "name": "Joe's Shanghai", "image_url": "https://s3-media3.fl.yelpcdn.com/bphoto/uvRuBT-uL1JZn0K-wSj4IA/o.jpg", "is_closed": false, "url": "https://www.yelp.com/biz/joes-shanghai-new-york-2?adjust_creative=9gNmiWYX8uTbFBeTTvJMdA&utm_campaign=yelp_api_v3&utm_medium=api_v3_business_search&utm_source=9gNmiWYX8uTbFBeTTvJMdA", "review_count": 7059, "categories": [{"alias": "shanghainese", "title": "Shanghainese"}, {"alias": "seafood", "title": "Seafood"}, {"alias": "noodles", "title": "Noodles"}], "rating": 4.0, "coordinates": {"latitude": 40.7156608, "longitude": -73.9967012}, "transactions": ["pickup", "delivery"], "price": "$$", "location": {"address1": "46 Bowery St", "address2": "", "address3": "", "city": "New York", "zip_code": "10013", "country": "US", "state": "NY", "display_address": ["46 Bowery St", "New York, NY 10013"]}, "phone": "+12122338888", "display_phone": "(212) 233-8888", "distance": 5351.172286292291}, {"id": "A930LBKMD5I6fjwT8QAokQ", "alias": "baifern-noodles-queens", "name": "Baifern Noodles", "image_url": "https://s3-media1.fl.yelpcdn.com/bphoto/X3aYKV-vOqk8px0HKcmoSg/o.jpg", "is_closed": false, "url": "https://www.yelp.com/biz/baifern-noodles-queens?adjust_creative=9gNmiWYX8uTbFBeTTvJMdA&utm_campaign=yelp_api_v3&utm_medium=api_v3_business_search&utm_source=9gNmiWYX8uTbFBeTTvJMdA", "review_count": 1, "categories": [{"alias": "thai", "title": "Thai"}], "rating": 5.0, "coordinates": {"latitude": 40.74679, "longitude": -73.88753}, "transactions": ["pickup", "delivery"], "location": {"address1": "78-14 Roosevelt Ave", "address2": null, "address3": "", "city": "Queens", "zip_code": "11372", "country": "US", "state": "NY", "display_address": ["78-14 Roosevelt Ave", "Queens, NY 11372"]}, "phone": "+19294243315", "display_phone": "(929) 424-3315", "distance": 7046.723899726425}, {"id": "v4cXt2qe9pq_XWJflL5ISg", "alias": "parc-oasis-oyster-bar-brooklyn", "name": "Parc Oasis Oyster Bar", "image_url": "https://s3-media1.fl.yelpcdn.com/bphoto/pm4NyGBDUgjV965Kkk8Rbg/o.jpg", "is_closed": false, "url": "https://www.yelp.com/biz/parc-oasis-oyster-bar-brooklyn?adjust_creative=9gNmiWYX8uTbFBeTTvJMdA&utm_campaign=yelp_api_v3&utm_medium=api_v3_business_search&utm_source=9gNmiWYX8uTbFBeTTvJMdA", "review_count": 163, "categories": [{"alias": "seafood", "title": "Seafood"}, {"alias": "steak", "title": "Steakhouses"}, {"alias": "salad", "title": "Salad"}], "rating": 4.0, "coordinates": {"latitude": 40.6290427824765, "longitude": -74.005197991996}, "transactions": ["pickup", "delivery"], "price": "$$", "location": {"address1": "6403 11th Ave", "address2": "", "address3": null, "city": "Brooklyn", "zip_code": "11219", "country": "US", "state": "NY", "display_address": ["6403 11th Ave", "Brooklyn, NY 11219"]}, "phone": "+19292922010", "display_phone": "(929) 292-2010", "distance": 14778.398599022928}, {"id": "gvOe1TLb8hZgx0naC9LYpw", "alias": "sei-less-new-york-2", "name": "Sei Less", "image_url": "https://s3-media1.fl.yelpcdn.com/bphoto/FEJUnmRslJSR28oxZKw_pA/o.jpg", "is_closed": false, "url": "https://www.yelp.com/biz/sei-less-new-york-2?adjust_creative=9gNmiWYX8uTbFBeTTvJMdA&utm_campaign=yelp_api_v3&utm_medium=api_v3_business_search&utm_source=9gNmiWYX8uTbFBeTTvJMdA", "review_count": 205, "categories": [{"alias": "chinese", "title": "Chinese"}, {"alias": "panasian", "title": "Pan Asian"}, {"alias": "asianfusion", "title": "Asian Fusion"}], "rating": 4.0, "coordinates": {"latitude": 40.75314, "longitude": -73.98814}, "transactions": ["pickup", "delivery"], "location": {"address1": "156 W 38th St", "address2": "", "address3": null, "city": "New York", "zip_code": "10018", "country": "US", "state": "NY", "display_address": ["156 W 38th St", "New York, NY 10018"]}, "phone": "+12125862675", "display_phone": "(212) 586-2675", "distance": 1719.7057194026713}, {"id": "3m9zzglPW2M1bPikC3XpRg", "alias": "henrys-brooklyn", "name": "Henry's", "image_url": "https://s3-media3.fl.yelpcdn.com/bphoto/ysFAH1YkUO55eJ216BVuzg/o.jpg", "is_closed": false, "url": "https://www.yelp.com/biz/henrys-brooklyn?adjust_creative=9gNmiWYX8uTbFBeTTvJMdA&utm_campaign=yelp_api_v3&utm_medium=api_v3_business_search&utm_source=9gNmiWYX8uTbFBeTTvJMdA", "review_count": 199, "categories": [{"alias": "vietnamese", "title": "Vietnamese"}], "rating": 4.0, "coordinates": {"latitude": 40.66343, "longitude": -73.98428}, "transactions": ["pickup", "delivery"], "price": "$", "location": {"address1": "433 7th Ave", "address2": "", "address3": "", "city": "Brooklyn", "zip_code": "11215", "country": "US", "state": "NY", "display_address": ["433 7th Ave", "Brooklyn, NY 11215"]}, "phone": "+17187888882", "display_phone": "(718) 788-8882", "distance": 10718.947177297488}, {"id": "Xw34tTIGTE0WdWVmXc02Vw", "alias": "money-cat-vietnamese-american-brooklyn", "name": "Money Cat Vietnamese American", "image_url": "https://s3-media1.fl.yelpcdn.com/bphoto/bSVphYp_-etYfArwh8v7uw/o.jpg", "is_closed": false, "url": "https://www.yelp.com/biz/money-cat-vietnamese-american-brooklyn?adjust_creative=9gNmiWYX8uTbFBeTTvJMdA&utm_campaign=yelp_api_v3&utm_medium=api_v3_business_search&utm_source=9gNmiWYX8uTbFBeTTvJMdA", "review_count": 109, "categories": [{"alias": "vietnamese", "title": "Vietnamese"}], "rating": 4.5, "coordinates": {"latitude": 40.690851, "longitude": -73.90883}, "transactions": ["pickup", "delivery"], "price": "$$", "location": {"address1": "554 Wilson Ave", "address2": null, "address3": "", "city": "Brooklyn", "zip_code": "11207", "country": "US", "state": "NY", "display_address": ["554 Wilson Ave", "Brooklyn, NY 11207"]}, "phone": "+19293973411", "display_phone": "(929) 397-3411", "distance": 9159.529279835637}, {"id": "AMKfcgLEg4uLuLsuBFNeHA", "alias": "bareburger-broadway-new-york", "name": "Bareburger - Broadway", "image_url": "https://s3-media1.fl.yelpcdn.com/bphoto/fq6NjTP7p6gV__-9X9ailg/o.jpg", "is_closed": false, "url": "https://www.yelp.com/biz/bareburger-broadway-new-york?adjust_creative=9gNmiWYX8uTbFBeTTvJMdA&utm_campaign=yelp_api_v3&utm_medium=api_v3_business_search&utm_source=9gNmiWYX8uTbFBeTTvJMdA", "review_count": 35, "categories": [{"alias": "burgers", "title": "Burgers"}, {"alias": "salad", "title": "Salad"}, {"alias": "tradamerican", "title": "American (Traditional)"}], "rating": 3.5, "coordinates": {"latitude": 40.7843628, "longitude": -73.9799037}, "transactions": ["pickup", "delivery"], "location": {"address1": "2233 Broadway", "address2": "", "address3": null, "city": "New York", "zip_code": "10024", "country": "US", "state": "NY", "display_address": ["2233 Broadway", "New York, NY 10024"]}, "phone": "+19294910112", "display_phone": "(929) 491-0112", "distance": 2942.958796072884}, {"id": "RABCwRzA1YCSpIWuk9LgqA", "alias": "urban-vegan-kitchen-new-york", "name": "Urban Vegan Kitchen", "image_url": "https://s3-media2.fl.yelpcdn.com/bphoto/jPb_XW4mxTTGTs3B0roeJw/o.jpg", "is_closed": false, "url": "https://www.yelp.com/biz/urban-vegan-kitchen-new-york?adjust_creative=9gNmiWYX8uTbFBeTTvJMdA&utm_campaign=yelp_api_v3&utm_medium=api_v3_business_search&utm_source=9gNmiWYX8uTbFBeTTvJMdA", "review_count": 665, "categories": [{"alias": "vegetarian", "title": "Vegetarian"}, {"alias": "southern", "title": "Southern"}, {"alias": "bars", "title": "Bars"}], "rating": 4.0, "coordinates": {"latitude": 40.7302, "longitude": -74.00368}, "transactions": ["pickup", "delivery"], "price": "$$", "location": {"address1": "41 Carmine St", "address2": null, "address3": "", "city": "New York", "zip_code": "10014", "country": "US", "state": "NY", "display_address": ["41 Carmine St", "New York, NY 10014"]}, "phone": "+16464389939", "display_phone": "(646) 438-9939", "distance": 4317.159096734269}, {"id": "aZrTVBKQzlcFo_KwzhIw-A", "alias": "stang-thai-brooklyn", "name": "Stang Thai", "image_url": "https://s3-media2.fl.yelpcdn.com/bphoto/BPmyaqIxsM9yEPLOTIvfdw/o.jpg", "is_closed": false, "url": "https://www.yelp.com/biz/stang-thai-brooklyn?adjust_creative=9gNmiWYX8uTbFBeTTvJMdA&utm_campaign=yelp_api_v3&utm_medium=api_v3_business_search&utm_source=9gNmiWYX8uTbFBeTTvJMdA", "review_count": 54, "categories": [{"alias": "thai", "title": "Thai"}, {"alias": "vietnamese", "title": "Vietnamese"}, {"alias": "sandwiches", "title": "Sandwiches"}], "rating": 4.0, "coordinates": {"latitude": 40.64841, "longitude": -73.97898}, "transactions": ["pickup", "delivery"], "price": "$$", "location": {"address1": "3019 Fort Hamilton Pkwy", "address2": null, "address3": "", "city": "Brooklyn", "zip_code": "11218", "country": "US", "state": "NY", "display_address": ["3019 Fort Hamilton Pkwy", "Brooklyn, NY 11218"]}, "phone": "+17184366932", "display_phone": "(718) 436-6932", "distance": 12334.316493801796}, {"id": "KZNlOjNY0g5ifghxMaaIFw", "alias": "sakara-life-new-york", "name": "Sakara Life", "image_url": "https://s3-media2.fl.yelpcdn.com/bphoto/bXxYEahXQPpcGkIJgK91Hw/o.jpg", "is_closed": false, "url": "https://www.yelp.com/biz/sakara-life-new-york?adjust_creative=9gNmiWYX8uTbFBeTTvJMdA&utm_campaign=yelp_api_v3&utm_medium=api_v3_business_search&utm_source=9gNmiWYX8uTbFBeTTvJMdA", "review_count": 282, "categories": [{"alias": "fooddeliveryservices", "title": "Food Delivery Services"}], "rating": 3.5, "coordinates": {"latitude": 40.7335433959961, "longitude": -74.0103149414062}, "transactions": [], "price": "$$$$", "location": {"address1": "", "address2": "", "address3": "", "city": "New York", "zip_code": "10014", "country": "US", "state": "NY", "display_address": ["New York, NY 10014"]}, "phone": "+19172613593", "display_phone": "(917) 261-3593", "distance": 4192.329995346562}, {"id": "JlFbaMbMzsu7FA307mUIqg", "alias": "joju-elmhurst", "name": "JoJu", "image_url": "https://s3-media1.fl.yelpcdn.com/bphoto/paqM5BvvSF7vqgb4ZKPTdg/o.jpg", "is_closed": false, "url": "https://www.yelp.com/biz/joju-elmhurst?adjust_creative=9gNmiWYX8uTbFBeTTvJMdA&utm_campaign=yelp_api_v3&utm_medium=api_v3_business_search&utm_source=9gNmiWYX8uTbFBeTTvJMdA", "review_count": 1901, "categories": [{"alias": "coffee", "title": "Coffee & Tea"}, {"alias": "vietnamese", "title": "Vietnamese"}, {"alias": "sandwiches", "title": "Sandwiches"}], "rating": 4.5, "coordinates": {"latitude": 40.7407051700423, "longitude": -73.8793501821476}, "transactions": ["pickup", "delivery"], "price": "$$", "location": {"address1": "83-25 Broadway", "address2": "", "address3": "", "city": "Elmhurst", "zip_code": "11373", "country": "US", "state": "NY", "display_address": ["83-25 Broadway", "Elmhurst, NY 11373"]}, "phone": "+13478080887", "display_phone": "(347) 808-0887", "distance": 7872.801679507867}, {"id": "DFFNe30NcyL1ZhDxos_yyA", "alias": "bk-cafe-brooklyn", "name": "BK Cafe", "image_url": "https://s3-media3.fl.yelpcdn.com/bphoto/y1SXyHiQEMe0776lXeQwWA/o.jpg", "is_closed": false, "url": "https://www.yelp.com/biz/bk-cafe-brooklyn?adjust_creative=9gNmiWYX8uTbFBeTTvJMdA&utm_campaign=yelp_api_v3&utm_medium=api_v3_business_search&utm_source=9gNmiWYX8uTbFBeTTvJMdA", "review_count": 2, "categories": [{"alias": "thai", "title": "Thai"}], "rating": 5.0, "coordinates": {"latitude": 40.70177316341405, "longitude": -73.9242596}, "transactions": ["pickup", "delivery"], "location": {"address1": "247 Suydam St", "address2": null, "address3": "", "city": "Brooklyn", "zip_code": "11237", "country": "US", "state": "NY", "display_address": ["247 Suydam St", "Brooklyn, NY 11237"]}, "phone": "+17189758085", "display_phone": "(718) 975-8085", "distance": 7437.661126379406}, {"id": "L_-RylYupDJG1leOCXQwcQ", "alias": "yummy-thai-flushing", "name": "Yummy Thai", "image_url": "https://s3-media3.fl.yelpcdn.com/bphoto/gq-VL_6M0zJ_9eQoCUfoJw/o.jpg", "is_closed": false, "url": "https://www.yelp.com/biz/yummy-thai-flushing?adjust_creative=9gNmiWYX8uTbFBeTTvJMdA&utm_campaign=yelp_api_v3&utm_medium=api_v3_business_search&utm_source=9gNmiWYX8uTbFBeTTvJMdA", "review_count": 1, "categories": [{"alias": "thai", "title": "Thai"}], "rating": 1.0, "coordinates": {"latitude": 40.7576469, "longitude": -73.8224038}, "transactions": [], "location": {"address1": "41-83 Bowne St", "address2": "", "address3": "", "city": "Flushing", "zip_code": "11355", "country": "US", "state": "NY", "display_address": ["41-83 Bowne St", "Flushing, NY 11355"]}, "phone": "+17188864105", "display_phone": "(718) 886-4105", "distance": 12412.429469306366}, {"id": "EE3JxdwoGMk9CYXE0SuvnA", "alias": "adam-s-green-bar-brooklyn", "name": "Adam\u2019s Green Bar", "image_url": "https://s3-media4.fl.yelpcdn.com/bphoto/wAkNXoFUobveVXo3oD-VGw/o.jpg", "is_closed": false, "url": "https://www.yelp.com/biz/adam-s-green-bar-brooklyn?adjust_creative=9gNmiWYX8uTbFBeTTvJMdA&utm_campaign=yelp_api_v3&utm_medium=api_v3_business_search&utm_source=9gNmiWYX8uTbFBeTTvJMdA", "review_count": 3, "categories": [{"alias": "coffeeroasteries", "title": "Coffee Roasteries"}, {"alias": "salad", "title": "Salad"}], "rating": 5.0, "coordinates": {"latitude": 40.671365, "longitude": -73.984822}, "transactions": ["pickup", "delivery"], "location": {"address1": "374 5th Ave", "address2": null, "address3": "", "city": "Brooklyn", "zip_code": "11215", "country": "US", "state": "NY", "display_address": ["374 5th Ave", "Brooklyn, NY 11215"]}, "phone": "", "display_phone": "", "distance": 9846.682566077112}, {"id": "8tnYOCt_G42ZKv69KxBWAA", "alias": "estihana-brooklyn-brooklyn", "name": "Estihana Brooklyn", "image_url": "https://s3-media2.fl.yelpcdn.com/bphoto/rBa6rP34KPmivdUpkhM93g/o.jpg", "is_closed": false, "url": "https://www.yelp.com/biz/estihana-brooklyn-brooklyn?adjust_creative=9gNmiWYX8uTbFBeTTvJMdA&utm_campaign=yelp_api_v3&utm_medium=api_v3_business_search&utm_source=9gNmiWYX8uTbFBeTTvJMdA", "review_count": 39, "categories": [{"alias": "asianfusion", "title": "Asian Fusion"}, {"alias": "sushi", "title": "Sushi Bars"}, {"alias": "kosher", "title": "Kosher"}], "rating": 3.5, "coordinates": {"latitude": 40.6250653, "longitude": -73.9636074}, "transactions": ["pickup", "delivery"], "price": "$$", "location": {"address1": "1217 Ave J", "address2": "", "address3": "", "city": "Brooklyn", "zip_code": "11230", "country": "US", "state": "NY", "display_address": ["1217 Ave J", "Brooklyn, NY 11230"]}, "phone": "+17186771515", "display_phone": "(718) 677-1515", "distance": 14920.751406250274}, {"id": "pSAAr8srYYt4SUQP4r0Bhw", "alias": "luannes-wild-ginger-brooklyn", "name": "Luanne's Wild Ginger", "image_url": "https://s3-media1.fl.yelpcdn.com/bphoto/ynsvCyW23-c_7kQERkYhZQ/o.jpg", "is_closed": false, "url": "https://www.yelp.com/biz/luannes-wild-ginger-brooklyn?adjust_creative=9gNmiWYX8uTbFBeTTvJMdA&utm_campaign=yelp_api_v3&utm_medium=api_v3_business_search&utm_source=9gNmiWYX8uTbFBeTTvJMdA", "review_count": 102, "categories": [{"alias": "vegan", "title": "Vegan"}, {"alias": "kosher", "title": "Kosher"}], "rating": 4.5, "coordinates": {"latitude": 40.6896, "longitude": -73.96982}, "transactions": ["pickup", "delivery"], "price": "$$", "location": {"address1": "235 Dekalb Ave", "address2": null, "address3": null, "city": "Brooklyn", "zip_code": "11205", "country": "US", "state": "NY", "display_address": ["235 Dekalb Ave", "Brooklyn, NY 11205"]}, "phone": "+17186388868", "display_phone": "(718) 638-8868", "distance": 7732.673492569564}, {"id": "wSGZA3DOFSUvALZRKCM_Sw", "alias": "tanoshi-sushi-sake-bar-new-york", "name": "Tanoshi Sushi Sake Bar", "image_url": "https://s3-media3.fl.yelpcdn.com/bphoto/9Lq02-rtpaTJh_gnGfoSJw/o.jpg", "is_closed": false, "url": "https://www.yelp.com/biz/tanoshi-sushi-sake-bar-new-york?adjust_creative=9gNmiWYX8uTbFBeTTvJMdA&utm_campaign=yelp_api_v3&utm_medium=api_v3_business_search&utm_source=9gNmiWYX8uTbFBeTTvJMdA", "review_count": 817, "categories": [{"alias": "sushi", "title": "Sushi Bars"}, {"alias": "japanese", "title": "Japanese"}, {"alias": "seafood", "title": "Seafood"}], "rating": 4.5, "coordinates": {"latitude": 40.767568, "longitude": -73.952815}, "transactions": ["restaurant_reservation"], "price": "$$$$", "location": {"address1": "1372 York Ave", "address2": null, "address3": "", "city": "New York", "zip_code": "10021", "country": "US", "state": "NY", "display_address": ["1372 York Ave", "New York, NY 10021"]}, "phone": "+19172658254", "display_phone": "(917) 265-8254", "distance": 1692.1031664350226}, {"id": "dOxHYQmBR14Fa2C1X8oMMQ", "alias": "sushi-lab-new-york-5", "name": "Sushi Lab", "image_url": "https://s3-media1.fl.yelpcdn.com/bphoto/okZwKmgrYvlMKq0gVoxcRw/o.jpg", "is_closed": false, "url": "https://www.yelp.com/biz/sushi-lab-new-york-5?adjust_creative=9gNmiWYX8uTbFBeTTvJMdA&utm_campaign=yelp_api_v3&utm_medium=api_v3_business_search&utm_source=9gNmiWYX8uTbFBeTTvJMdA", "review_count": 468, "categories": [{"alias": "sushi", "title": "Sushi Bars"}, {"alias": "japanese", "title": "Japanese"}], "rating": 4.5, "coordinates": {"latitude": 40.758413, "longitude": -73.983292}, "transactions": ["pickup", "delivery"], "price": "$$$$", "location": {"address1": "132 W 47th St", "address2": null, "address3": "", "city": "New York", "zip_code": "10036", "country": "US", "state": "NY", "display_address": ["132 W 47th St", "New York, NY 10036"]}, "phone": "+12124320000", "display_phone": "(212) 432-0000", "distance": 1159.7691066269858}, {"id": "wNhO_9gY-ZRZEBSA2anXtA", "alias": "native-noodles-new-york-2", "name": "Native Noodles", "image_url": "https://s3-media4.fl.yelpcdn.com/bphoto/WLdO4ejjR0YeEqIrlmDflA/o.jpg", "is_closed": false, "url": "https://www.yelp.com/biz/native-noodles-new-york-2?adjust_creative=9gNmiWYX8uTbFBeTTvJMdA&utm_campaign=yelp_api_v3&utm_medium=api_v3_business_search&utm_source=9gNmiWYX8uTbFBeTTvJMdA", "review_count": 153, "categories": [{"alias": "singaporean", "title": "Singaporean"}, {"alias": "noodles", "title": "Noodles"}], "rating": 4.5, "coordinates": {"latitude": 40.83824104348622, "longitude": -73.93765379999999}, "transactions": ["pickup", "delivery"], "price": "$$", "location": {"address1": "2129 Amsterdam Ave", "address2": null, "address3": "", "city": "New York", "zip_code": "10032", "country": "US", "state": "NY", "display_address": ["2129 Amsterdam Ave", "New York, NY 10032"]}, "phone": "+16463706290", "display_phone": "(646) 370-6290", "distance": 9193.180376431214}, {"id": "FgRJsieXorHgI-2XzGxh5A", "alias": "nikko-hibachi-fresh-meadows", "name": "Nikko Hibachi", "image_url": "https://s3-media2.fl.yelpcdn.com/bphoto/PibbzFKfSDMXh7sn_QiGCw/o.jpg", "is_closed": false, "url": "https://www.yelp.com/biz/nikko-hibachi-fresh-meadows?adjust_creative=9gNmiWYX8uTbFBeTTvJMdA&utm_campaign=yelp_api_v3&utm_medium=api_v3_business_search&utm_source=9gNmiWYX8uTbFBeTTvJMdA", "review_count": 408, "categories": [{"alias": "japanese", "title": "Japanese"}, {"alias": "asianfusion", "title": "Asian Fusion"}], "rating": 3.5, "coordinates": {"latitude": 40.7262971, "longitude": -73.7906424}, "transactions": ["pickup", "delivery"], "price": "$$", "location": {"address1": "177-21 Union Tpke", "address2": "", "address3": "", "city": "Fresh Meadows", "zip_code": "11366", "country": "US", "state": "NY", "display_address": ["177-21 Union Tpke", "Fresh Meadows, NY 11366"]}, "phone": "+17188208818", "display_phone": "(718) 820-8818", "distance": 15535.185185065127}, {"id": "oUo_8ST8_fTKTEU6LYC65Q", "alias": "ten-zen-asian-cuisine-forest-hills", "name": "Ten Zen Asian Cuisine", "image_url": "https://s3-media3.fl.yelpcdn.com/bphoto/5820t7RCI1G-4mEAVX17yw/o.jpg", "is_closed": false, "url": "https://www.yelp.com/biz/ten-zen-asian-cuisine-forest-hills?adjust_creative=9gNmiWYX8uTbFBeTTvJMdA&utm_campaign=yelp_api_v3&utm_medium=api_v3_business_search&utm_source=9gNmiWYX8uTbFBeTTvJMdA", "review_count": 63, "categories": [{"alias": "japanese", "title": "Japanese"}, {"alias": "chinese", "title": "Chinese"}, {"alias": "thai", "title": "Thai"}], "rating": 3.5, "coordinates": {"latitude": 40.7241575, "longitude": -73.8553204}, "transactions": ["pickup", "delivery"], "location": {"address1": "6703 Austin St", "address2": "", "address3": null, "city": "Forest Hills", "zip_code": "11375", "country": "US", "state": "NY", "display_address": ["6703 Austin St", "Forest Hills, NY 11375"]}, "phone": "+17189971188", "display_phone": "(718) 997-1188", "distance": 10377.752217452644}, {"id": "8_6g0JiTJb_B22drsDq3DQ", "alias": "shaka-kitchen-hoboken-2", "name": "Shaka Kitchen", "image_url": "https://s3-media4.fl.yelpcdn.com/bphoto/3uYp7GWP9l4KqRbiOLvR0w/o.jpg", "is_closed": false, "url": "https://www.yelp.com/biz/shaka-kitchen-hoboken-2?adjust_creative=9gNmiWYX8uTbFBeTTvJMdA&utm_campaign=yelp_api_v3&utm_medium=api_v3_business_search&utm_source=9gNmiWYX8uTbFBeTTvJMdA", "review_count": 109, "categories": [{"alias": "breakfast_brunch", "title": "Breakfast & Brunch"}, {"alias": "vegetarian", "title": "Vegetarian"}, {"alias": "cafes", "title": "Cafes"}], "rating": 4.0, "coordinates": {"latitude": 40.73794, "longitude": -74.03112}, "transactions": ["pickup", "delivery"], "price": "$$", "location": {"address1": "110 Washington St", "address2": null, "address3": "", "city": "Hoboken", "zip_code": "07030", "country": "US", "state": "NJ", "display_address": ["110 Washington St", "Hoboken, NJ 07030"]}, "phone": "+12012530626", "display_phone": "(201) 253-0626", "distance": 5692.52585259461}, {"id": "awHkhxekzNI4nH_fsi4gcQ", "alias": "henry-s-brooklyn", "name": "Henry\u2019s", "image_url": "https://s3-media3.fl.yelpcdn.com/bphoto/MoGMwU4uDlVOY-NSXovfrw/o.jpg", "is_closed": false, "url": "https://www.yelp.com/biz/henry-s-brooklyn?adjust_creative=9gNmiWYX8uTbFBeTTvJMdA&utm_campaign=yelp_api_v3&utm_medium=api_v3_business_search&utm_source=9gNmiWYX8uTbFBeTTvJMdA", "review_count": 1, "categories": [{"alias": "sandwiches", "title": "Sandwiches"}, {"alias": "bubbletea", "title": "Bubble Tea"}, {"alias": "vietnamese", "title": "Vietnamese"}], "rating": 5.0, "coordinates": {"latitude": 40.6605, "longitude": -73.99451}, "transactions": ["pickup", "delivery"], "location": {"address1": "718 5th Ave", "address2": null, "address3": "", "city": "Brooklyn", "zip_code": "11215", "country": "US", "state": "NY", "display_address": ["718 5th Ave", "Brooklyn, NY 11215"]}, "phone": "+19293376220", "display_phone": "(929) 337-6220", "distance": 11168.02618801622}, {"id": "z1R0tUFUZ7RU_kQTlzRsZg", "alias": "asian-tokyo-bronx", "name": "Asian Tokyo", "image_url": "https://s3-media4.fl.yelpcdn.com/bphoto/-MzfG4w-Ha1-lzhP2cNI-Q/o.jpg", "is_closed": false, "url": "https://www.yelp.com/biz/asian-tokyo-bronx?adjust_creative=9gNmiWYX8uTbFBeTTvJMdA&utm_campaign=yelp_api_v3&utm_medium=api_v3_business_search&utm_source=9gNmiWYX8uTbFBeTTvJMdA", "review_count": 73, "categories": [{"alias": "japanese", "title": "Japanese"}, {"alias": "sushi", "title": "Sushi Bars"}], "rating": 3.5, "coordinates": {"latitude": 40.8910472840381, "longitude": -73.8982448328066}, "transactions": ["pickup", "delivery"], "price": "$$", "location": {"address1": "4685 Manhattan College Pkwy", "address2": null, "address3": "", "city": "Bronx", "zip_code": "10471", "country": "US", "state": "NY", "display_address": ["4685 Manhattan College Pkwy", "Bronx, NY 10471"]}, "phone": "+17185435751", "display_phone": "(718) 543-5751", "distance": 15844.26985371782}, {"id": "LZA0bWz_Xn--tSgiaPLlkw", "alias": "sweetgreen-new-york-12", "name": "sweetgreen", "image_url": "https://s3-media3.fl.yelpcdn.com/bphoto/OitdLNO71DaGDkxvFQYFcA/o.jpg", "is_closed": false, "url": "https://www.yelp.com/biz/sweetgreen-new-york-12?adjust_creative=9gNmiWYX8uTbFBeTTvJMdA&utm_campaign=yelp_api_v3&utm_medium=api_v3_business_search&utm_source=9gNmiWYX8uTbFBeTTvJMdA", "review_count": 239, "categories": [{"alias": "salad", "title": "Salad"}], "rating": 3.0, "coordinates": {"latitude": 40.7780118756349, "longitude": -73.954891682209}, "transactions": ["pickup", "delivery"], "price": "$$", "location": {"address1": "1500 3rd Ave", "address2": "", "address3": null, "city": "New York", "zip_code": "10028", "country": "US", "state": "NY", "display_address": ["1500 3rd Ave", "New York, NY 10028"]}, "phone": "+16466660860", "display_phone": "(646) 666-0860", "distance": 2432.3116021994947}, {"id": "g_5V15Xp1OvB1QXuGMstYA", "alias": "chef-yu-new-york", "name": "Chef Yu", "image_url": "https://s3-media3.fl.yelpcdn.com/bphoto/0JSxojz-jWYAW6RpZsZt2A/o.jpg", "is_closed": false, "url": "https://www.yelp.com/biz/chef-yu-new-york?adjust_creative=9gNmiWYX8uTbFBeTTvJMdA&utm_campaign=yelp_api_v3&utm_medium=api_v3_business_search&utm_source=9gNmiWYX8uTbFBeTTvJMdA", "review_count": 635, "categories": [{"alias": "szechuan", "title": "Szechuan"}, {"alias": "cantonese", "title": "Cantonese"}, {"alias": "noodles", "title": "Noodles"}], "rating": 3.0, "coordinates": {"latitude": 40.75352133489135, "longitude": -73.99226032843487}, "transactions": ["pickup", "delivery"], "price": "$$", "location": {"address1": "520 8th Ave", "address2": "GFL", "address3": "", "city": "New York", "zip_code": "10018", "country": "US", "state": "NY", "display_address": ["520 8th Ave", "GFL", "New York, NY 10018"]}, "phone": "+12127366150", "display_phone": "(212) 736-6150", "distance": 2011.6000950959208}], "total": 1700, "region": {"center": {"longitude": -73.96957397460938, "latitude": 40.75917470627005}}}