{"businesses": [{"id": "LevaZe9HJHteg4nSp-pt2g", "alias": "blue-fin-new-york", "name": "Blue Fin", "image_url": "https://s3-media3.fl.yelpcdn.com/bphoto/u-dpiWDP_fMIJMI3dlqNOg/o.jpg", "is_closed": false, "url": "https://www.yelp.com/biz/blue-fin-new-york?adjust_creative=9gNmiWYX8uTbFBeTTvJMdA&utm_campaign=yelp_api_v3&utm_medium=api_v3_business_search&utm_source=9gNmiWYX8uTbFBeTTvJMdA", "review_count": 1047, "categories": [{"alias": "sushi", "title": "Sushi Bars"}, {"alias": "seafood", "title": "Seafood"}], "rating": 3.5, "coordinates": {"latitude": 40.7593759, "longitude": -73.9853252}, "transactions": ["pickup", "delivery"], "price": "$$$", "location": {"address1": "1567 Broadway", "address2": "", "address3": "", "city": "New York", "zip_code": "10036", "country": "US", "state": "NY", "display_address": ["1567 Broadway", "New York, NY 10036"]}, "phone": "+12129181400", "display_phone": "(212) 918-1400", "distance": 1326.8440499991375}, {"id": "aZrTVBKQzlcFo_KwzhIw-A", "alias": "stang-thai-brooklyn", "name": "Stang Thai", "image_url": "https://s3-media2.fl.yelpcdn.com/bphoto/BPmyaqIxsM9yEPLOTIvfdw/o.jpg", "is_closed": false, "url": "https://www.yelp.com/biz/stang-thai-brooklyn?adjust_creative=9gNmiWYX8uTbFBeTTvJMdA&utm_campaign=yelp_api_v3&utm_medium=api_v3_business_search&utm_source=9gNmiWYX8uTbFBeTTvJMdA", "review_count": 54, "categories": [{"alias": "thai", "title": "Thai"}, {"alias": "vietnamese", "title": "Vietnamese"}, {"alias": "sandwiches", "title": "Sandwiches"}], "rating": 4.0, "coordinates": {"latitude": 40.64841, "longitude": -73.97898}, "transactions": ["pickup", "delivery"], "price": "$$", "location": {"address1": "3019 Fort Hamilton Pkwy", "address2": null, "address3": "", "city": "Brooklyn", "zip_code": "11218", "country": "US", "state": "NY", "display_address": ["3019 Fort Hamilton Pkwy", "Brooklyn, NY 11218"]}, "phone": "+17184366932", "display_phone": "(718) 436-6932", "distance": 12334.316493801796}, {"id": "CdHOwIO6OFNXZxPYEUts2g", "alias": "ageha-sushi-new-york", "name": "Ageha Sushi", "image_url": "https://s3-media3.fl.yelpcdn.com/bphoto/YfbHcdS5J36X_ius2x5kqw/o.jpg", "is_closed": false, "url": "https://www.yelp.com/biz/ageha-sushi-new-york?adjust_creative=9gNmiWYX8uTbFBeTTvJMdA&utm_campaign=yelp_api_v3&utm_medium=api_v3_business_search&utm_source=9gNmiWYX8uTbFBeTTvJMdA", "review_count": 728, "categories": [{"alias": "sushi", "title": "Sushi Bars"}], "rating": 4.0, "coordinates": {"latitude": 40.76452, "longitude": -73.98859}, "transactions": ["pickup", "delivery"], "price": "$$", "location": {"address1": "767 9th Ave", "address2": "", "address3": "", "city": "New York", "zip_code": "10019", "country": "US", "state": "NY", "display_address": ["767 9th Ave", "New York, NY 10019"]}, "phone": "+12125818188", "display_phone": "(212) 581-8188", "distance": 1704.4145231150392}, {"id": "n7fz_Jd7cvOSFu1bbyeUGQ", "alias": "green-poke-brooklyn", "name": "Green Poke", "image_url": "https://s3-media1.fl.yelpcdn.com/bphoto/wcjm6hZLyxfRUvAJuMiW7w/o.jpg", "is_closed": false, "url": "https://www.yelp.com/biz/green-poke-brooklyn?adjust_creative=9gNmiWYX8uTbFBeTTvJMdA&utm_campaign=yelp_api_v3&utm_medium=api_v3_business_search&utm_source=9gNmiWYX8uTbFBeTTvJMdA", "review_count": 5, "categories": [{"alias": "salad", "title": "Salad"}, {"alias": "fooddeliveryservices", "title": "Food Delivery Services"}, {"alias": "poke", "title": "Poke"}], "rating": 5.0, "coordinates": {"latitude": 40.631982, "longitude": -74.027184}, "transactions": ["pickup", "delivery"], "location": {"address1": "310 74th St", "address2": null, "address3": "", "city": "Brooklyn", "zip_code": "11209", "country": "US", "state": "NY", "display_address": ["310 74th St", "Brooklyn, NY 11209"]}, "phone": "+13477674333", "display_phone": "(347) 767-4333", "distance": 14951.500342209669}, {"id": "V7lXZKBDzScDeGB8JmnzSA", "alias": "katzs-delicatessen-new-york", "name": "Katz's Delicatessen", "image_url": "https://s3-media1.fl.yelpcdn.com/bphoto/1_2gtvgqMyuSgVJoCP6BQw/o.jpg", "is_closed": false, "url": "https://www.yelp.com/biz/katzs-delicatessen-new-york?adjust_creative=9gNmiWYX8uTbFBeTTvJMdA&utm_campaign=yelp_api_v3&utm_medium=api_v3_business_search&utm_source=9gNmiWYX8uTbFBeTTvJMdA", "review_count": 14742, "categories": [{"alias": "delis", "title": "Delis"}, {"alias": "sandwiches", "title": "Sandwiches"}, {"alias": "soup", "title": "Soup"}], "rating": 4.0, "coordinates": {"latitude": 40.722237, "longitude": -73.9875259}, "transactions": ["pickup", "delivery"], "price": "$$", "location": {"address1": "205 E Houston St", "address2": "", "address3": "", "city": "New York", "zip_code": "10002", "country": "US", "state": "NY", "display_address": ["205 E Houston St", "New York, NY 10002"]}, "phone": "+12122542246", "display_phone": "(212) 254-2246", "distance": 4376.8950223778265}, {"id": "JlFbaMbMzsu7FA307mUIqg", "alias": "joju-elmhurst", "name": "JoJu", "image_url": "https://s3-media1.fl.yelpcdn.com/bphoto/paqM5BvvSF7vqgb4ZKPTdg/o.jpg", "is_closed": false, "url": "https://www.yelp.com/biz/joju-elmhurst?adjust_creative=9gNmiWYX8uTbFBeTTvJMdA&utm_campaign=yelp_api_v3&utm_medium=api_v3_business_search&utm_source=9gNmiWYX8uTbFBeTTvJMdA", "review_count": 1901, "categories": [{"alias": "coffee", "title": "Coffee & Tea"}, {"alias": "vietnamese", "title": "Vietnamese"}, {"alias": "sandwiches", "title": "Sandwiches"}], "rating": 4.5, "coordinates": {"latitude": 40.7407051700423, "longitude": -73.8793501821476}, "transactions": ["pickup", "delivery"], "price": "$$", "location": {"address1": "83-25 Broadway", "address2": "", "address3": "", "city": "Elmhurst", "zip_code": "11373", "country": "US", "state": "NY", "display_address": ["83-25 Broadway", "Elmhurst, NY 11373"]}, "phone": "+13478080887", "display_phone": "(347) 808-0887", "distance": 7872.801679507867}, {"id": "fTpla27BQIfN5UWK6vjlQQ", "alias": "high-thai-restaurant-brooklyn", "name": "High Thai Restaurant", "image_url": "https://s3-media4.fl.yelpcdn.com/bphoto/g16fjHbMXiIRnTNFHhFDgA/o.jpg", "is_closed": false, "url": "https://www.yelp.com/biz/high-thai-restaurant-brooklyn?adjust_creative=9gNmiWYX8uTbFBeTTvJMdA&utm_campaign=yelp_api_v3&utm_medium=api_v3_business_search&utm_source=9gNmiWYX8uTbFBeTTvJMdA", "review_count": 14, "categories": [{"alias": "thai", "title": "Thai"}], "rating": 2.5, "coordinates": {"latitude": 40.60876, "longitude": -73.92446}, "transactions": ["pickup", "delivery"], "location": {"address1": "4017 Ave U", "address2": null, "address3": "", "city": "Brooklyn", "zip_code": "11234", "country": "US", "state": "NY", "display_address": ["4017 Ave U", "Brooklyn, NY 11234"]}, "phone": "+17183389700", "display_phone": "(718) 338-9700", "distance": 17147.795451843198}, {"id": "QbuUm8uvO9cU7HTVQ3_FPg", "alias": "happy-veggie-restaurant-new-york", "name": "Happy Veggie Restaurant", "image_url": "https://s3-media3.fl.yelpcdn.com/bphoto/mV3kXEAG1OSKNsx0-c4FlQ/o.jpg", "is_closed": false, "url": "https://www.yelp.com/biz/happy-veggie-restaurant-new-york?adjust_creative=9gNmiWYX8uTbFBeTTvJMdA&utm_campaign=yelp_api_v3&utm_medium=api_v3_business_search&utm_source=9gNmiWYX8uTbFBeTTvJMdA", "review_count": 83, "categories": [{"alias": "vegan", "title": "Vegan"}, {"alias": "vegetarian", "title": "Vegetarian"}, {"alias": "panasian", "title": "Pan Asian"}], "rating": 4.5, "coordinates": {"latitude": 40.7164228851283, "longitude": -73.997823}, "transactions": ["pickup", "delivery"], "price": "$$", "location": {"address1": "76 Mott St", "address2": "Lower Level", "address3": null, "city": "New York", "zip_code": "10013", "country": "US", "state": "NY", "display_address": ["76 Mott St", "Lower Level", "New York, NY 10013"]}, "phone": "+16468385118", "display_phone": "(646) 838-5118", "distance": 5316.305326191849}, {"id": "G4qZvheX74VwYvek7I8iQg", "alias": "buntopia-brooklyn", "name": "Buntopia", "image_url": "https://s3-media3.fl.yelpcdn.com/bphoto/9_gTgDNw1KzSun6XmfWg1Q/o.jpg", "is_closed": false, "url": "https://www.yelp.com/biz/buntopia-brooklyn?adjust_creative=9gNmiWYX8uTbFBeTTvJMdA&utm_campaign=yelp_api_v3&utm_medium=api_v3_business_search&utm_source=9gNmiWYX8uTbFBeTTvJMdA", "review_count": 365, "categories": [{"alias": "asianfusion", "title": "Asian Fusion"}, {"alias": "ramen", "title": "Ramen"}, {"alias": "sushi", "title": "Sushi Bars"}], "rating": 4.5, "coordinates": {"latitude": 40.69598, "longitude": -73.93398}, "transactions": ["pickup", "delivery"], "price": "$$", "location": {"address1": "994 Broadway", "address2": null, "address3": "", "city": "Brooklyn", "zip_code": "11221", "country": "US", "state": "NY", "display_address": ["994 Broadway", "Brooklyn, NY 11221"]}, "phone": "+13474353660", "display_phone": "(347) 435-3660", "distance": 7639.532697257298}, {"id": "bYolHbAgMb-zOHpa41Lp0Q", "alias": "nam-son-vietnamese-restaurant-new-york", "name": "Nam Son Vietnamese Restaurant", "image_url": "https://s3-media1.fl.yelpcdn.com/bphoto/w44EIvskHw9fzc4vac1LdQ/o.jpg", "is_closed": false, "url": "https://www.yelp.com/biz/nam-son-vietnamese-restaurant-new-york?adjust_creative=9gNmiWYX8uTbFBeTTvJMdA&utm_campaign=yelp_api_v3&utm_medium=api_v3_business_search&utm_source=9gNmiWYX8uTbFBeTTvJMdA", "review_count": 598, "categories": [{"alias": "vietnamese", "title": "Vietnamese"}], "rating": 3.5, "coordinates": {"latitude": 40.71818, "longitude": -73.994333}, "transactions": ["delivery"], "price": "$$", "location": {"address1": "245 Grand St", "address2": "", "address3": "", "city": "New York", "zip_code": "10002", "country": "US", "state": "NY", "display_address": ["245 Grand St", "New York, NY 10002"]}, "phone": "+12129666507", "display_phone": "(212) 966-6507", "distance": 5013.017211838473}, {"id": "Lb1aZim8mmM4b3TY2oxt-A", "alias": "yamada-japanese-bronx", "name": "Yamada Japanese", "image_url": "https://s3-media3.fl.yelpcdn.com/bphoto/yMLW-U4WMFrcU_rZMLCVWg/o.jpg", "is_closed": false, "url": "https://www.yelp.com/biz/yamada-japanese-bronx?adjust_creative=9gNmiWYX8uTbFBeTTvJMdA&utm_campaign=yelp_api_v3&utm_medium=api_v3_business_search&utm_source=9gNmiWYX8uTbFBeTTvJMdA", "review_count": 69, "categories": [{"alias": "japanese", "title": "Japanese"}, {"alias": "sushi", "title": "Sushi Bars"}], "rating": 3.5, "coordinates": {"latitude": 40.8248, "longitude": -73.82022}, "transactions": ["pickup", "delivery"], "price": "$$", "location": {"address1": "3811 E Tremont Ave", "address2": "", "address3": "", "city": "Bronx", "zip_code": "10465", "country": "US", "state": "NY", "display_address": ["3811 E Tremont Ave", "Bronx, NY 10465"]}, "phone": "+17184093528", "display_phone": "(718) 409-3528", "distance": 14542.472310355153}, {"id": "g_5V15Xp1OvB1QXuGMstYA", "alias": "chef-yu-new-york", "name": "Chef Yu", "image_url": "https://s3-media3.fl.yelpcdn.com/bphoto/0JSxojz-jWYAW6RpZsZt2A/o.jpg", "is_closed": false, "url": "https://www.yelp.com/biz/chef-yu-new-york?adjust_creative=9gNmiWYX8uTbFBeTTvJMdA&utm_campaign=yelp_api_v3&utm_medium=api_v3_business_search&utm_source=9gNmiWYX8uTbFBeTTvJMdA", "review_count": 635, "categories": [{"alias": "szechuan", "title": "Szechuan"}, {"alias": "cantonese", "title": "Cantonese"}, {"alias": "noodles", "title": "Noodles"}], "rating": 3.0, "coordinates": {"latitude": 40.75352133489135, "longitude": -73.99226032843487}, "transactions": ["pickup", "delivery"], "price": "$$", "location": {"address1": "520 8th Ave", "address2": "GFL", "address3": "", "city": "New York", "zip_code": "10018", "country": "US", "state": "NY", "display_address": ["520 8th Ave", "GFL", "New York, NY 10018"]}, "phone": "+12127366150", "display_phone": "(212) 736-6150", "distance": 2011.6000950959208}, {"id": "BPZfuPvSxCfoppU4lPFm0Q", "alias": "domodomo-new-york-new-york-4", "name": "DOMODOMO - New York", "image_url": "https://s3-media1.fl.yelpcdn.com/bphoto/YX89PDM_-aBCL2USyNyhuw/o.jpg", "is_closed": false, "url": "https://www.yelp.com/biz/domodomo-new-york-new-york-4?adjust_creative=9gNmiWYX8uTbFBeTTvJMdA&utm_campaign=yelp_api_v3&utm_medium=api_v3_business_search&utm_source=9gNmiWYX8uTbFBeTTvJMdA", "review_count": 1527, "categories": [{"alias": "japanese", "title": "Japanese"}, {"alias": "sushi", "title": "Sushi Bars"}], "rating": 4.0, "coordinates": {"latitude": 40.7280299, "longitude": -74.00167}, "transactions": ["delivery"], "price": "$$$", "location": {"address1": "140 W Houston St", "address2": null, "address3": "", "city": "New York", "zip_code": "10012", "country": "US", "state": "NY", "display_address": ["140 W Houston St", "New York, NY 10012"]}, "phone": "+16467070301", "display_phone": "(646) 707-0301", "distance": 4392.473999484649}, {"id": "aSFBv64GBpMOFPqIleeQFQ", "alias": "lure-fishbar-new-york-2", "name": "Lure Fishbar", "image_url": "https://s3-media3.fl.yelpcdn.com/bphoto/zh47yiTYJdmzLGJ70oT92w/o.jpg", "is_closed": false, "url": "https://www.yelp.com/biz/lure-fishbar-new-york-2?adjust_creative=9gNmiWYX8uTbFBeTTvJMdA&utm_campaign=yelp_api_v3&utm_medium=api_v3_business_search&utm_source=9gNmiWYX8uTbFBeTTvJMdA", "review_count": 1885, "categories": [{"alias": "seafood", "title": "Seafood"}, {"alias": "sushi", "title": "Sushi Bars"}, {"alias": "bars", "title": "Bars"}], "rating": 4.0, "coordinates": {"latitude": 40.724612166991, "longitude": -73.998574708004}, "transactions": ["pickup", "delivery"], "price": "$$$", "location": {"address1": "142 Mercer St", "address2": "", "address3": "", "city": "New York", "zip_code": "10012", "country": "US", "state": "NY", "display_address": ["142 Mercer St", "New York, NY 10012"]}, "phone": "+12124317676", "display_phone": "(212) 431-7676", "distance": 4554.055119436277}, {"id": "WVkR6Fm98a1V5OcbDLEcnA", "alias": "locanut-new-york", "name": "Locanut", "image_url": "https://s3-media4.fl.yelpcdn.com/bphoto/KDLup7cEp6PZ-PnRudT4Pg/o.jpg", "is_closed": false, "url": "https://www.yelp.com/biz/locanut-new-york?adjust_creative=9gNmiWYX8uTbFBeTTvJMdA&utm_campaign=yelp_api_v3&utm_medium=api_v3_business_search&utm_source=9gNmiWYX8uTbFBeTTvJMdA", "review_count": 75, "categories": [{"alias": "catering", "title": "Caterers"}, {"alias": "fooddeliveryservices", "title": "Food Delivery Services"}], "rating": 4.0, "coordinates": {"latitude": 40.76571, "longitude": -73.98755}, "transactions": ["pickup", "delivery"], "price": "$$", "location": {"address1": "807 9th Ave", "address2": null, "address3": null, "city": "New York", "zip_code": "10019", "country": "US", "state": "NY", "display_address": ["807 9th Ave", "New York, NY 10019"]}, "phone": "+13475175723", "display_phone": "(347) 517-5723", "distance": 1682.4304493576385}, {"id": "SOrQnn_dsHIFpmW5HTCFCw", "alias": "ocha-thai-cuisine-kew-gardens", "name": "Ocha Thai Cuisine", "image_url": "https://s3-media2.fl.yelpcdn.com/bphoto/biA2_1-jFyWBVT2ZkrmTnw/o.jpg", "is_closed": false, "url": "https://www.yelp.com/biz/ocha-thai-cuisine-kew-gardens?adjust_creative=9gNmiWYX8uTbFBeTTvJMdA&utm_campaign=yelp_api_v3&utm_medium=api_v3_business_search&utm_source=9gNmiWYX8uTbFBeTTvJMdA", "review_count": 65, "categories": [{"alias": "thai", "title": "Thai"}], "rating": 3.5, "coordinates": {"latitude": 40.7123969, "longitude": -73.8269638}, "transactions": ["pickup", "delivery"], "price": "$", "location": {"address1": "124-32 Queens Blvd", "address2": "", "address3": null, "city": "Kew Gardens", "zip_code": "11415", "country": "US", "state": "NY", "display_address": ["124-32 Queens Blvd", "Kew Gardens, NY 11415"]}, "phone": "+17182610008", "display_phone": "(718) 261-0008", "distance": 13080.944889673174}, {"id": "4FD0TAxe70nb3ngk3sXF9Q", "alias": "uluh-new-york", "name": "Uluh", "image_url": "https://s3-media1.fl.yelpcdn.com/bphoto/Po1l-APjlH6GWLbDPYytdA/o.jpg", "is_closed": false, "url": "https://www.yelp.com/biz/uluh-new-york?adjust_creative=9gNmiWYX8uTbFBeTTvJMdA&utm_campaign=yelp_api_v3&utm_medium=api_v3_business_search&utm_source=9gNmiWYX8uTbFBeTTvJMdA", "review_count": 796, "categories": [{"alias": "tea", "title": "Tea Rooms"}, {"alias": "asianfusion", "title": "Asian Fusion"}, {"alias": "szechuan", "title": "Szechuan"}], "rating": 4.5, "coordinates": {"latitude": 40.7293403, "longitude": -73.9866071}, "transactions": ["pickup", "delivery"], "price": "$$$", "location": {"address1": "152 2nd Ave", "address2": "Ste A", "address3": "", "city": "New York", "zip_code": "10003", "country": "US", "state": "NY", "display_address": ["152 2nd Ave", "Ste A", "New York, NY 10003"]}, "phone": "+19172615963", "display_phone": "(917) 261-5963", "distance": 3614.474270795037}, {"id": "bLDHO08mO_OMNMBW9gdetw", "alias": "momo-sushi-new-york-2", "name": "MoMo Sushi", "image_url": "https://s3-media4.fl.yelpcdn.com/bphoto/i0MSu-PoG06xs9plJgtHpw/o.jpg", "is_closed": false, "url": "https://www.yelp.com/biz/momo-sushi-new-york-2?adjust_creative=9gNmiWYX8uTbFBeTTvJMdA&utm_campaign=yelp_api_v3&utm_medium=api_v3_business_search&utm_source=9gNmiWYX8uTbFBeTTvJMdA", "review_count": 220, "categories": [{"alias": "sushi", "title": "Sushi Bars"}, {"alias": "ramen", "title": "Ramen"}], "rating": 4.0, "coordinates": {"latitude": 40.737917460763086, "longitude": -73.98782763958498}, "transactions": ["pickup", "delivery"], "price": "$$", "location": {"address1": "239 Park Ave S", "address2": "", "address3": "", "city": "New York", "zip_code": "10003", "country": "US", "state": "NY", "display_address": ["239 Park Ave S", "New York, NY 10003"]}, "phone": "+12126777001", "display_phone": "(212) 677-7001", "distance": 2819.839170101753}, {"id": "JnjBLhhFpbWrKuN81KUPtg", "alias": "sweetgreen-new-york-21", "name": "sweetgreen", "image_url": "https://s3-media2.fl.yelpcdn.com/bphoto/_Mt78phaCHLnD34T-f7Hzg/o.jpg", "is_closed": false, "url": "https://www.yelp.com/biz/sweetgreen-new-york-21?adjust_creative=9gNmiWYX8uTbFBeTTvJMdA&utm_campaign=yelp_api_v3&utm_medium=api_v3_business_search&utm_source=9gNmiWYX8uTbFBeTTvJMdA", "review_count": 128, "categories": [{"alias": "salad", "title": "Salad"}], "rating": 3.5, "coordinates": {"latitude": 40.76032763758034, "longitude": -73.97268994713386}, "transactions": ["pickup", "delivery"], "price": "$$", "location": {"address1": "60 E 55th St", "address2": null, "address3": null, "city": "New York", "zip_code": "10022", "country": "US", "state": "NY", "display_address": ["60 E 55th St", "New York, NY 10022"]}, "phone": "+16468590100", "display_phone": "(646) 859-0100", "distance": 292.08105431938327}, {"id": "hq73x-YmjAh4KFsQdbQx7A", "alias": "wickedly-hot-thai-cuisine-new-york-2", "name": "Wickedly Hot Thai Cuisine", "image_url": "", "is_closed": false, "url": "https://www.yelp.com/biz/wickedly-hot-thai-cuisine-new-york-2?adjust_creative=9gNmiWYX8uTbFBeTTvJMdA&utm_campaign=yelp_api_v3&utm_medium=api_v3_business_search&utm_source=9gNmiWYX8uTbFBeTTvJMdA", "review_count": 5, "categories": [{"alias": "thai", "title": "Thai"}], "rating": 1.5, "coordinates": {"latitude": 40.7303352, "longitude": -73.9859467}, "transactions": ["pickup", "delivery"], "location": {"address1": "299 E 11th St", "address2": "", "address3": "", "city": "New York", "zip_code": "10003", "country": "US", "state": "NY", "display_address": ["299 E 11th St", "New York, NY 10003"]}, "phone": "+12125052228", "display_phone": "(212) 505-2228", "distance": 3491.950974581073}, {"id": "xJlMHqnScLobt-Rr44Sotw", "alias": "langkawi-brooklyn", "name": "Langkawi", "image_url": "https://s3-media2.fl.yelpcdn.com/bphoto/aporg-eHXeEoaWCopLofZw/o.jpg", "is_closed": false, "url": "https://www.yelp.com/biz/langkawi-brooklyn?adjust_creative=9gNmiWYX8uTbFBeTTvJMdA&utm_campaign=yelp_api_v3&utm_medium=api_v3_business_search&utm_source=9gNmiWYX8uTbFBeTTvJMdA", "review_count": 84, "categories": [{"alias": "malaysian", "title": "Malaysian"}, {"alias": "thai", "title": "Thai"}], "rating": 3.5, "coordinates": {"latitude": 40.63889, "longitude": -74.00582}, "transactions": ["delivery"], "price": "$$", "location": {"address1": "5323 8th Ave", "address2": "", "address3": null, "city": "Brooklyn", "zip_code": "11220", "country": "US", "state": "NY", "display_address": ["5323 8th Ave", "Brooklyn, NY 11220"]}, "phone": "+17186330808", "display_phone": "(718) 633-0808", "distance": 13722.718428075}, {"id": "jYia13i0CBwNXadzAAxLJg", "alias": "arirang-hibachi-steakhouse-brooklyn", "name": "Arirang Hibachi Steakhouse", "image_url": "https://s3-media3.fl.yelpcdn.com/bphoto/-kmSbTKnJ7mDbHpAfxzoTg/o.jpg", "is_closed": false, "url": "https://www.yelp.com/biz/arirang-hibachi-steakhouse-brooklyn?adjust_creative=9gNmiWYX8uTbFBeTTvJMdA&utm_campaign=yelp_api_v3&utm_medium=api_v3_business_search&utm_source=9gNmiWYX8uTbFBeTTvJMdA", "review_count": 467, "categories": [{"alias": "japanese", "title": "Japanese"}, {"alias": "sushi", "title": "Sushi Bars"}, {"alias": "steak", "title": "Steakhouses"}], "rating": 3.5, "coordinates": {"latitude": 40.62106, "longitude": -74.02927}, "transactions": ["pickup", "delivery"], "price": "$$", "location": {"address1": "8814 4th Ave", "address2": "", "address3": "", "city": "Brooklyn", "zip_code": "11209", "country": "US", "state": "NY", "display_address": ["8814 4th Ave", "Brooklyn, NY 11209"]}, "phone": "+17182389880", "display_phone": "(718) 238-9880", "distance": 16161.259521021184}, {"id": "vyRuXNXrKQBP834kGzcm3Q", "alias": "chopt-creative-salad-co-new-york-34", "name": "Chopt Creative Salad Co.", "image_url": "https://s3-media2.fl.yelpcdn.com/bphoto/HDmj4q5XW1e43V2xMP3yVA/o.jpg", "is_closed": false, "url": "https://www.yelp.com/biz/chopt-creative-salad-co-new-york-34?adjust_creative=9gNmiWYX8uTbFBeTTvJMdA&utm_campaign=yelp_api_v3&utm_medium=api_v3_business_search&utm_source=9gNmiWYX8uTbFBeTTvJMdA", "review_count": 136, "categories": [{"alias": "salad", "title": "Salad"}, {"alias": "vegetarian", "title": "Vegetarian"}], "rating": 3.5, "coordinates": {"latitude": 40.7639947309263, "longitude": -73.9786452054977}, "transactions": ["pickup", "delivery"], "price": "$$", "location": {"address1": "120 West 56th St", "address2": "", "address3": "", "city": "New York", "zip_code": "10019", "country": "US", "state": "NY", "display_address": ["120 West 56th St", "New York, NY 10019"]}, "phone": "+16467831600", "display_phone": "(646) 783-1600", "distance": 933.2497796697448}, {"id": "Hr6JlGE0LOTu5EWqX8CGcw", "alias": "o-ramen-and-dim-sum-m-yuki-sushi-new-york", "name": "O Ramen & Dim Sum M \u00a0Yuki Sushi", "image_url": "https://s3-media2.fl.yelpcdn.com/bphoto/PoMZ7aJvH_Yl_3aqtEBqmA/o.jpg", "is_closed": false, "url": "https://www.yelp.com/biz/o-ramen-and-dim-sum-m-yuki-sushi-new-york?adjust_creative=9gNmiWYX8uTbFBeTTvJMdA&utm_campaign=yelp_api_v3&utm_medium=api_v3_business_search&utm_source=9gNmiWYX8uTbFBeTTvJMdA", "review_count": 4, "categories": [{"alias": "sushi", "title": "Sushi Bars"}, {"alias": "ramen", "title": "Ramen"}], "rating": 4.0, "coordinates": {"latitude": 40.71607, "longitude": -73.99227}, "transactions": ["pickup", "delivery"], "location": {"address1": "37 Allen St,", "address2": null, "address3": "", "city": "New York", "zip_code": "10002", "country": "US", "state": "NY", "display_address": ["37 Allen St,", "New York, NY 10002"]}, "phone": "+19174090429", "display_phone": "(917) 409-0429", "distance": 5160.463083900363}, {"id": "sl3aaBmXIxt9PzRkTdqxUQ", "alias": "ooka-sushi-hibachi-lounge-clifton", "name": "Ooka Sushi Hibachi Lounge", "image_url": "https://s3-media3.fl.yelpcdn.com/bphoto/8_Ww2tOa4CHs0R_g4s2gag/o.jpg", "is_closed": false, "url": "https://www.yelp.com/biz/ooka-sushi-hibachi-lounge-clifton?adjust_creative=9gNmiWYX8uTbFBeTTvJMdA&utm_campaign=yelp_api_v3&utm_medium=api_v3_business_search&utm_source=9gNmiWYX8uTbFBeTTvJMdA", "review_count": 414, "categories": [{"alias": "teppanyaki", "title": "Teppanyaki"}, {"alias": "sushi", "title": "Sushi Bars"}], "rating": 3.5, "coordinates": {"latitude": 40.8323238, "longitude": -74.1401008}, "transactions": ["pickup", "delivery"], "price": "$$", "location": {"address1": "166 Main Ave", "address2": "", "address3": "", "city": "Clifton", "zip_code": "07014", "country": "US", "state": "NJ", "display_address": ["166 Main Ave", "Clifton, NJ 07014"]}, "phone": "+18628997006", "display_phone": "(862) 899-7006", "distance": 16482.52499344179}, {"id": "i8ejDDR4COtukAAA1Ls5fw", "alias": "soba-ya-new-york", "name": "Soba-ya", "image_url": "https://s3-media4.fl.yelpcdn.com/bphoto/xGWd2_qlV4fejCuJkJIAVg/o.jpg", "is_closed": false, "url": "https://www.yelp.com/biz/soba-ya-new-york?adjust_creative=9gNmiWYX8uTbFBeTTvJMdA&utm_campaign=yelp_api_v3&utm_medium=api_v3_business_search&utm_source=9gNmiWYX8uTbFBeTTvJMdA", "review_count": 1543, "categories": [{"alias": "japanese", "title": "Japanese"}, {"alias": "noodles", "title": "Noodles"}], "rating": 4.0, "coordinates": {"latitude": 40.72965, "longitude": -73.9878899}, "transactions": ["pickup", "delivery"], "price": "$$", "location": {"address1": "229 E 9th St", "address2": "", "address3": "", "city": "New York", "zip_code": "10003", "country": "US", "state": "NY", "display_address": ["229 E 9th St", "New York, NY 10003"]}, "phone": "+12125336966", "display_phone": "(212) 533-6966", "distance": 3628.274646581441}, {"id": "kawTi2VXBNhbvNxQxc0YeQ", "alias": "street-boi-brooklyn", "name": "Street Boi", "image_url": "https://s3-media3.fl.yelpcdn.com/bphoto/KYuO_MSdJe9FdeVavQel1w/o.jpg", "is_closed": false, "url": "https://www.yelp.com/biz/street-boi-brooklyn?adjust_creative=9gNmiWYX8uTbFBeTTvJMdA&utm_campaign=yelp_api_v3&utm_medium=api_v3_business_search&utm_source=9gNmiWYX8uTbFBeTTvJMdA", "review_count": 36, "categories": [{"alias": "noodles", "title": "Noodles"}, {"alias": "tapasmallplates", "title": "Tapas/Small Plates"}, {"alias": "sandwiches", "title": "Sandwiches"}], "rating": 4.5, "coordinates": {"latitude": 40.64698905080299, "longitude": -73.9696766}, "transactions": ["pickup", "delivery"], "location": {"address1": "1021 Church Ave", "address2": null, "address3": "", "city": "Brooklyn", "zip_code": "11218", "country": "US", "state": "NY", "display_address": ["1021 Church Ave", "Brooklyn, NY 11218"]}, "phone": "+17188871801", "display_phone": "(718) 887-1801", "distance": 12474.46489448991}, {"id": "5v3q73ejbIGkJAiGKKSwqA", "alias": "kiku-brooklyn-18", "name": "Kiku", "image_url": "https://s3-media4.fl.yelpcdn.com/bphoto/LtHdHqEjKecS25RcEMsY8w/o.jpg", "is_closed": false, "url": "https://www.yelp.com/biz/kiku-brooklyn-18?adjust_creative=9gNmiWYX8uTbFBeTTvJMdA&utm_campaign=yelp_api_v3&utm_medium=api_v3_business_search&utm_source=9gNmiWYX8uTbFBeTTvJMdA", "review_count": 9, "categories": [{"alias": "japanese", "title": "Japanese"}, {"alias": "panasian", "title": "Pan Asian"}], "rating": 5.0, "coordinates": {"latitude": 40.67238098695852, "longitude": -73.9504424482584}, "transactions": ["pickup", "delivery"], "location": {"address1": "766 Nostrand Ave", "address2": "", "address3": null, "city": "Brooklyn", "zip_code": "11216", "country": "US", "state": "NY", "display_address": ["766 Nostrand Ave", "Brooklyn, NY 11216"]}, "phone": "+17187788828", "display_phone": "(718) 778-8828", "distance": 9784.778573518484}, {"id": "nX_k1CgS4DHcsNg9aeCFQQ", "alias": "kissfish-forest-hills", "name": "Kissfish", "image_url": "https://s3-media3.fl.yelpcdn.com/bphoto/CrSzkQpfADKVaLJpuKTm9A/o.jpg", "is_closed": false, "url": "https://www.yelp.com/biz/kissfish-forest-hills?adjust_creative=9gNmiWYX8uTbFBeTTvJMdA&utm_campaign=yelp_api_v3&utm_medium=api_v3_business_search&utm_source=9gNmiWYX8uTbFBeTTvJMdA", "review_count": 241, "categories": [{"alias": "poke", "title": "Poke"}, {"alias": "sushi", "title": "Sushi Bars"}], "rating": 4.0, "coordinates": {"latitude": 40.72087, "longitude": -73.84619}, "transactions": ["pickup", "delivery"], "price": "$$", "location": {"address1": "70-21 Austin St", "address2": "", "address3": null, "city": "Forest Hills", "zip_code": "11375", "country": "US", "state": "NY", "display_address": ["70-21 Austin St", "Forest Hills, NY 11375"]}, "phone": "+17182632861", "display_phone": "(718) 263-2861", "distance": 11229.230960378152}, {"id": "ymb0SvFrlcWm6k_Gx5SYcQ", "alias": "yuzu-new-york", "name": "Yuzu", "image_url": "https://s3-media3.fl.yelpcdn.com/bphoto/roP_XNwoeAFK24j_g2HIYA/o.jpg", "is_closed": false, "url": "https://www.yelp.com/biz/yuzu-new-york?adjust_creative=9gNmiWYX8uTbFBeTTvJMdA&utm_campaign=yelp_api_v3&utm_medium=api_v3_business_search&utm_source=9gNmiWYX8uTbFBeTTvJMdA", "review_count": 218, "categories": [{"alias": "sushi", "title": "Sushi Bars"}, {"alias": "japanese", "title": "Japanese"}], "rating": 4.0, "coordinates": {"latitude": 40.80937, "longitude": -73.94399}, "transactions": ["pickup", "delivery"], "price": "$$", "location": {"address1": "350 Lenox Ave", "address2": "", "address3": "", "city": "New York", "zip_code": "10027", "country": "US", "state": "NY", "display_address": ["350 Lenox Ave", "New York, NY 10027"]}, "phone": "+16468613883", "display_phone": "(646) 861-3883", "distance": 5982.0737803547345}, {"id": "R8V6kbUtyfPAwNNu46vMvg", "alias": "tonii-s-fresh-rice-noodle-new-york", "name": "Tonii\u2019s Fresh Rice Noodle", "image_url": "https://s3-media2.fl.yelpcdn.com/bphoto/tJ_lF7OogY4CRVWBInz6vA/o.jpg", "is_closed": false, "url": "https://www.yelp.com/biz/tonii-s-fresh-rice-noodle-new-york?adjust_creative=9gNmiWYX8uTbFBeTTvJMdA&utm_campaign=yelp_api_v3&utm_medium=api_v3_business_search&utm_source=9gNmiWYX8uTbFBeTTvJMdA", "review_count": 285, "categories": [{"alias": "chinese", "title": "Chinese"}, {"alias": "noodles", "title": "Noodles"}], "rating": 4.5, "coordinates": {"latitude": 40.715608, "longitude": -73.998949}, "transactions": ["pickup", "delivery"], "price": "$", "location": {"address1": "83 Bayard St", "address2": "", "address3": null, "city": "New York", "zip_code": "10013", "country": "US", "state": "NY", "display_address": ["83 Bayard St", "New York, NY 10013"]}, "phone": "+16462500696", "display_phone": "(646) 250-0696", "distance": 5439.861950622221}, {"id": "Xn_UheApVz6K9heX4vY8PA", "alias": "terms-of-endearment-brooklyn-2", "name": "Terms of Endearment", "image_url": "https://s3-media4.fl.yelpcdn.com/bphoto/25LJZK3wPtRHq-J0nbR7eA/o.jpg", "is_closed": false, "url": "https://www.yelp.com/biz/terms-of-endearment-brooklyn-2?adjust_creative=9gNmiWYX8uTbFBeTTvJMdA&utm_campaign=yelp_api_v3&utm_medium=api_v3_business_search&utm_source=9gNmiWYX8uTbFBeTTvJMdA", "review_count": 96, "categories": [{"alias": "vegan", "title": "Vegan"}, {"alias": "bakeries", "title": "Bakeries"}, {"alias": "coffee", "title": "Coffee & Tea"}], "rating": 4.5, "coordinates": {"latitude": 40.716367, "longitude": -73.962207}, "transactions": ["pickup", "delivery"], "price": "$$", "location": {"address1": "135 Metropolitan Ave", "address2": null, "address3": "", "city": "Brooklyn", "zip_code": "11249", "country": "US", "state": "NY", "display_address": ["135 Metropolitan Ave", "Brooklyn, NY 11249"]}, "phone": "+13477631420", "display_phone": "(347) 763-1420", "distance": 4803.7984886214335}, {"id": "R9fhVXmtgRwZNgOr-kNWHA", "alias": "bread-and-butter-new-york-15", "name": "Bread & Butter", "image_url": "https://s3-media1.fl.yelpcdn.com/bphoto/6UYN5vX2Uo2UfTRJtNAyWA/o.jpg", "is_closed": false, "url": "https://www.yelp.com/biz/bread-and-butter-new-york-15?adjust_creative=9gNmiWYX8uTbFBeTTvJMdA&utm_campaign=yelp_api_v3&utm_medium=api_v3_business_search&utm_source=9gNmiWYX8uTbFBeTTvJMdA", "review_count": 85, "categories": [{"alias": "breakfast_brunch", "title": "Breakfast & Brunch"}, {"alias": "cafes", "title": "Cafes"}, {"alias": "asianfusion", "title": "Asian Fusion"}], "rating": 2.5, "coordinates": {"latitude": 40.76301, "longitude": -73.9759}, "transactions": ["pickup", "delivery"], "price": "$$", "location": {"address1": "25 W 56th St", "address2": "", "address3": null, "city": "New York", "zip_code": "10019", "country": "US", "state": "NY", "display_address": ["25 W 56th St", "New York, NY 10019"]}, "phone": "+12127670444", "display_phone": "(212) 767-0444", "distance": 689.5846282469838}, {"id": "AberoDRQsWJ-aNwZdZ5-5A", "alias": "sojuice-brooklyn", "name": "SoJuice", "image_url": "https://s3-media1.fl.yelpcdn.com/bphoto/PKMMWE6n13fPQZl5KSeyPg/o.jpg", "is_closed": false, "url": "https://www.yelp.com/biz/sojuice-brooklyn?adjust_creative=9gNmiWYX8uTbFBeTTvJMdA&utm_campaign=yelp_api_v3&utm_medium=api_v3_business_search&utm_source=9gNmiWYX8uTbFBeTTvJMdA", "review_count": 4, "categories": [{"alias": "juicebars", "title": "Juice Bars & Smoothies"}, {"alias": "fooddeliveryservices", "title": "Food Delivery Services"}], "rating": 4.5, "coordinates": {"latitude": 40.71096, "longitude": -73.94873}, "transactions": ["pickup", "delivery"], "location": {"address1": "472 Lorimer St", "address2": "", "address3": null, "city": "Brooklyn", "zip_code": "11206", "country": "US", "state": "NY", "display_address": ["472 Lorimer St", "Brooklyn, NY 11206"]}, "phone": "", "display_phone": "", "distance": 5653.772259330473}, {"id": "UuiW2A-O11Q0baqSEUMvZA", "alias": "miyabi-asian-fusion-staten-island", "name": "Miyabi Asian Fusion", "image_url": "https://s3-media2.fl.yelpcdn.com/bphoto/RB_x_FKi9ID3M2_wiHLMTg/o.jpg", "is_closed": false, "url": "https://www.yelp.com/biz/miyabi-asian-fusion-staten-island?adjust_creative=9gNmiWYX8uTbFBeTTvJMdA&utm_campaign=yelp_api_v3&utm_medium=api_v3_business_search&utm_source=9gNmiWYX8uTbFBeTTvJMdA", "review_count": 402, "categories": [{"alias": "sushi", "title": "Sushi Bars"}, {"alias": "japanese", "title": "Japanese"}, {"alias": "thai", "title": "Thai"}], "rating": 4.5, "coordinates": {"latitude": 40.6258092020868, "longitude": -74.1345641477488}, "transactions": ["pickup", "delivery"], "price": "$$", "location": {"address1": "1348 Forest Ave", "address2": null, "address3": "", "city": "Staten Island", "zip_code": "10302", "country": "US", "state": "NY", "display_address": ["1348 Forest Ave", "Staten Island, NY 10302"]}, "phone": "+17188768088", "display_phone": "(718) 876-8088", "distance": 20326.276715532822}, {"id": "WOonEFdSaK224ew1c0Oa7w", "alias": "tenzan-89-new-york", "name": "Tenzan 89", "image_url": "https://s3-media1.fl.yelpcdn.com/bphoto/cfkNrZzWZfzHIuT1ESiC7Q/o.jpg", "is_closed": false, "url": "https://www.yelp.com/biz/tenzan-89-new-york?adjust_creative=9gNmiWYX8uTbFBeTTvJMdA&utm_campaign=yelp_api_v3&utm_medium=api_v3_business_search&utm_source=9gNmiWYX8uTbFBeTTvJMdA", "review_count": 198, "categories": [{"alias": "japanese", "title": "Japanese"}, {"alias": "sushi", "title": "Sushi Bars"}], "rating": 3.5, "coordinates": {"latitude": 40.779579, "longitude": -73.950103}, "transactions": ["pickup", "delivery"], "price": "$$", "location": {"address1": "1714 2nd Ave", "address2": "", "address3": "", "city": "New York", "zip_code": "10128", "country": "US", "state": "NY", "display_address": ["1714 2nd Ave", "New York, NY 10128"]}, "phone": "+12123693600", "display_phone": "(212) 369-3600", "distance": 2798.6514679238}, {"id": "_KxtKB7CIN0z5sd4lZU9Zw", "alias": "bixi-new-york", "name": "Bixi", "image_url": "https://s3-media2.fl.yelpcdn.com/bphoto/tVtgCj4SkDYPDPN5usS_Mg/o.jpg", "is_closed": false, "url": "https://www.yelp.com/biz/bixi-new-york?adjust_creative=9gNmiWYX8uTbFBeTTvJMdA&utm_campaign=yelp_api_v3&utm_medium=api_v3_business_search&utm_source=9gNmiWYX8uTbFBeTTvJMdA", "review_count": 58, "categories": [{"alias": "cocktailbars", "title": "Cocktail Bars"}, {"alias": "asianfusion", "title": "Asian Fusion"}], "rating": 4.0, "coordinates": {"latitude": 40.80478, "longitude": -73.95488}, "transactions": [], "location": {"address1": "2164 Frederick Douglass Blvd", "address2": "", "address3": null, "city": "New York", "zip_code": "10026", "country": "US", "state": "NY", "display_address": ["2164 Frederick Douglass Blvd", "New York, NY 10026"]}, "phone": "+19174090570", "display_phone": "(917) 409-0570", "distance": 5226.422970639416}, {"id": "YtU1rb_oDHTbYzl-NFglPQ", "alias": "burmese-bites-elmhurst-2", "name": "Burmese Bites", "image_url": "https://s3-media2.fl.yelpcdn.com/bphoto/gaH_irDmJ9fNuV2ioK_83g/o.jpg", "is_closed": false, "url": "https://www.yelp.com/biz/burmese-bites-elmhurst-2?adjust_creative=9gNmiWYX8uTbFBeTTvJMdA&utm_campaign=yelp_api_v3&utm_medium=api_v3_business_search&utm_source=9gNmiWYX8uTbFBeTTvJMdA", "review_count": 111, "categories": [{"alias": "burmese", "title": "Burmese"}], "rating": 4.5, "coordinates": {"latitude": 40.73456587384498, "longitude": -73.86885806649397}, "transactions": ["pickup", "delivery"], "price": "$", "location": {"address1": "90-15 Queens Blvd", "address2": null, "address3": "", "city": "Elmhurst", "zip_code": "11373", "country": "US", "state": "NY", "display_address": ["90-15 Queens Blvd", "Elmhurst, NY 11373"]}, "phone": "+19175602480", "display_phone": "(917) 560-2480", "distance": 8914.78322490713}, {"id": "VSfYR6MriVSQDAmO0gPFPQ", "alias": "just-salad-new-york-47", "name": "Just Salad", "image_url": "https://s3-media2.fl.yelpcdn.com/bphoto/cxxzRwvdIMsvAsj2lKsApw/o.jpg", "is_closed": false, "url": "https://www.yelp.com/biz/just-salad-new-york-47?adjust_creative=9gNmiWYX8uTbFBeTTvJMdA&utm_campaign=yelp_api_v3&utm_medium=api_v3_business_search&utm_source=9gNmiWYX8uTbFBeTTvJMdA", "review_count": 27, "categories": [{"alias": "salad", "title": "Salad"}, {"alias": "vegetarian", "title": "Vegetarian"}, {"alias": "vegan", "title": "Vegan"}], "rating": 4.0, "coordinates": {"latitude": 40.76092, "longitude": -73.97948}, "transactions": ["pickup", "delivery"], "location": {"address1": "1290 Sixth Ave", "address2": "", "address3": "", "city": "New York", "zip_code": "10104", "country": "US", "state": "NY", "display_address": ["1290 Sixth Ave", "New York, NY 10104"]}, "phone": "+18666733757", "display_phone": "(866) 673-3757", "distance": 866.0841621488025}, {"id": "PiOv4vMRLaJJoqt_Eyebvw", "alias": "udom-thai-brooklyn-2", "name": "Udom Thai", "image_url": "https://s3-media2.fl.yelpcdn.com/bphoto/XnFe_DzjShZVQdFh3RcHgA/o.jpg", "is_closed": false, "url": "https://www.yelp.com/biz/udom-thai-brooklyn-2?adjust_creative=9gNmiWYX8uTbFBeTTvJMdA&utm_campaign=yelp_api_v3&utm_medium=api_v3_business_search&utm_source=9gNmiWYX8uTbFBeTTvJMdA", "review_count": 380, "categories": [{"alias": "thai", "title": "Thai"}, {"alias": "cocktailbars", "title": "Cocktail Bars"}, {"alias": "beerbar", "title": "Beer Bar"}], "rating": 3.0, "coordinates": {"latitude": 40.67736647507944, "longitude": -73.96346237531584}, "transactions": ["pickup", "delivery"], "price": "$$", "location": {"address1": "661 Washington Ave", "address2": "", "address3": "", "city": "Brooklyn", "zip_code": "11238", "country": "US", "state": "NY", "display_address": ["661 Washington Ave", "Brooklyn, NY 11238"]}, "phone": "+17186228424", "display_phone": "(718) 622-8424", "distance": 9111.220639723408}, {"id": "7erFgHiQmw7ZJfVPmOjeeA", "alias": "m-shanghai-bistro-and-garden-brooklyn", "name": "M Shanghai Bistro & Garden", "image_url": "https://s3-media4.fl.yelpcdn.com/bphoto/4xCd2v_wWI3AmmYjLe5paw/o.jpg", "is_closed": false, "url": "https://www.yelp.com/biz/m-shanghai-bistro-and-garden-brooklyn?adjust_creative=9gNmiWYX8uTbFBeTTvJMdA&utm_campaign=yelp_api_v3&utm_medium=api_v3_business_search&utm_source=9gNmiWYX8uTbFBeTTvJMdA", "review_count": 450, "categories": [{"alias": "shanghainese", "title": "Shanghainese"}, {"alias": "dimsum", "title": "Dim Sum"}, {"alias": "noodles", "title": "Noodles"}], "rating": 3.5, "coordinates": {"latitude": 40.71285, "longitude": -73.95762}, "transactions": ["pickup", "delivery"], "price": "$$", "location": {"address1": "292 Grand St", "address2": null, "address3": "", "city": "Brooklyn", "zip_code": "11211", "country": "US", "state": "NY", "display_address": ["292 Grand St", "Brooklyn, NY 11211"]}, "phone": "+17183849300", "display_phone": "(718) 384-9300", "distance": 5246.372106252915}, {"id": "7vl4N31vGFEJwK-qq26uGQ", "alias": "just-salad-new-york-58", "name": "Just Salad", "image_url": "https://s3-media2.fl.yelpcdn.com/bphoto/TNyMJ0Ww5gucoPdqjWQc-A/o.jpg", "is_closed": false, "url": "https://www.yelp.com/biz/just-salad-new-york-58?adjust_creative=9gNmiWYX8uTbFBeTTvJMdA&utm_campaign=yelp_api_v3&utm_medium=api_v3_business_search&utm_source=9gNmiWYX8uTbFBeTTvJMdA", "review_count": 49, "categories": [{"alias": "salad", "title": "Salad"}, {"alias": "vegetarian", "title": "Vegetarian"}, {"alias": "vegan", "title": "Vegan"}], "rating": 4.0, "coordinates": {"latitude": 40.75362767830822, "longitude": -73.9865612}, "transactions": ["pickup", "delivery"], "price": "$$", "location": {"address1": "1412 Broadway", "address2": "Ste 106", "address3": "", "city": "New York", "zip_code": "10018", "country": "US", "state": "NY", "display_address": ["1412 Broadway", "Ste 106", "New York, NY 10018"]}, "phone": "+18666733757", "display_phone": "(866) 673-3757", "distance": 1558.104334712152}, {"id": "hfW8tn3RlNWadxHvTwawqQ", "alias": "beyond-sushi-new-york-11", "name": "Beyond Sushi", "image_url": "https://s3-media2.fl.yelpcdn.com/bphoto/lSuu71ScRGpjnr1Umn22JQ/o.jpg", "is_closed": false, "url": "https://www.yelp.com/biz/beyond-sushi-new-york-11?adjust_creative=9gNmiWYX8uTbFBeTTvJMdA&utm_campaign=yelp_api_v3&utm_medium=api_v3_business_search&utm_source=9gNmiWYX8uTbFBeTTvJMdA", "review_count": 111, "categories": [{"alias": "vegan", "title": "Vegan"}, {"alias": "sushi", "title": "Sushi Bars"}], "rating": 4.5, "coordinates": {"latitude": 40.775323, "longitude": -73.956206}, "transactions": ["pickup", "delivery"], "price": "$$", "location": {"address1": "1429 3rd Ave", "address2": "", "address3": null, "city": "New York", "zip_code": "10028", "country": "US", "state": "NY", "display_address": ["1429 3rd Ave", "New York, NY 10028"]}, "phone": "+16465591235", "display_phone": "(646) 559-1235", "distance": 2123.083634092669}, {"id": "4MDltWx_2dxzTEv6mTRfSQ", "alias": "rangoon-brooklyn-brooklyn", "name": "Rangoon - Brooklyn", "image_url": "https://s3-media1.fl.yelpcdn.com/bphoto/pQLmO54ad1-TWD5zblN7Cg/o.jpg", "is_closed": false, "url": "https://www.yelp.com/biz/rangoon-brooklyn-brooklyn?adjust_creative=9gNmiWYX8uTbFBeTTvJMdA&utm_campaign=yelp_api_v3&utm_medium=api_v3_business_search&utm_source=9gNmiWYX8uTbFBeTTvJMdA", "review_count": 149, "categories": [{"alias": "burmese", "title": "Burmese"}, {"alias": "noodles", "title": "Noodles"}, {"alias": "gluten_free", "title": "Gluten-Free"}], "rating": 3.5, "coordinates": {"latitude": 40.6757, "longitude": -73.96002}, "transactions": ["pickup", "delivery"], "location": {"address1": "500 Prospect Pl", "address2": "", "address3": null, "city": "Brooklyn", "zip_code": "11238", "country": "US", "state": "NY", "display_address": ["500 Prospect Pl", "Brooklyn, NY 11238"]}, "phone": "+19174420100", "display_phone": "(917) 442-0100", "distance": 9319.995331484612}, {"id": "X9uu1kPZYlKJfI1baiJBPQ", "alias": "99-noodle-village-brooklyn", "name": "99 Noodle Village", "image_url": "https://s3-media3.fl.yelpcdn.com/bphoto/pFRT-tT8plHvl21Men_Lag/o.jpg", "is_closed": false, "url": "https://www.yelp.com/biz/99-noodle-village-brooklyn?adjust_creative=9gNmiWYX8uTbFBeTTvJMdA&utm_campaign=yelp_api_v3&utm_medium=api_v3_business_search&utm_source=9gNmiWYX8uTbFBeTTvJMdA", "review_count": 12, "categories": [{"alias": "chinese", "title": "Chinese"}, {"alias": "noodles", "title": "Noodles"}], "rating": 3.5, "coordinates": {"latitude": 40.639485, "longitude": -74.006001}, "transactions": ["pickup", "delivery"], "price": "$$", "location": {"address1": "774 53rd St", "address2": "", "address3": null, "city": "Brooklyn", "zip_code": "11220", "country": "US", "state": "NY", "display_address": ["774 53rd St", "Brooklyn, NY 11220"]}, "phone": "+17185001999", "display_phone": "(718) 500-1999", "distance": 13657.61998641963}, {"id": "wm9vD7JetCskxM7RV2CTbA", "alias": "poke-n-roll-new-york-3", "name": "Poke N Roll", "image_url": "https://s3-media2.fl.yelpcdn.com/bphoto/OvgnqfcAcjar9gWWvwG1eg/o.jpg", "is_closed": false, "url": "https://www.yelp.com/biz/poke-n-roll-new-york-3?adjust_creative=9gNmiWYX8uTbFBeTTvJMdA&utm_campaign=yelp_api_v3&utm_medium=api_v3_business_search&utm_source=9gNmiWYX8uTbFBeTTvJMdA", "review_count": 72, "categories": [{"alias": "asianfusion", "title": "Asian Fusion"}, {"alias": "sushi", "title": "Sushi Bars"}, {"alias": "japanese", "title": "Japanese"}], "rating": 4.0, "coordinates": {"latitude": 40.72752, "longitude": -73.98304}, "transactions": ["pickup", "delivery"], "price": "$$", "location": {"address1": "441 E 9th St", "address2": null, "address3": "", "city": "New York", "zip_code": "10009", "country": "US", "state": "NY", "display_address": ["441 E 9th St", "New York, NY 10009"]}, "phone": "+12124207653", "display_phone": "(212) 420-7653", "distance": 3696.870195466706}, {"id": "ux6qiwZk--PBFFt2rdOChQ", "alias": "mamu-thai-noodle-truck-brooklyn", "name": "Mamu Thai Noodle Truck", "image_url": "https://s3-media3.fl.yelpcdn.com/bphoto/uqjoEY6Cd1Ry6-NIatINAg/o.jpg", "is_closed": false, "url": "https://www.yelp.com/biz/mamu-thai-noodle-truck-brooklyn?adjust_creative=9gNmiWYX8uTbFBeTTvJMdA&utm_campaign=yelp_api_v3&utm_medium=api_v3_business_search&utm_source=9gNmiWYX8uTbFBeTTvJMdA", "review_count": 32, "categories": [{"alias": "thai", "title": "Thai"}, {"alias": "foodtrucks", "title": "Food Trucks"}, {"alias": "noodles", "title": "Noodles"}], "rating": 4.0, "coordinates": {"latitude": 40.68075, "longitude": -73.96612}, "transactions": [], "price": "$", "location": {"address1": "875 Pacific St", "address2": "Ste 3", "address3": "", "city": "Brooklyn", "zip_code": "11232", "country": "US", "state": "NY", "display_address": ["875 Pacific St", "Ste 3", "Brooklyn, NY 11232"]}, "phone": "", "display_phone": "", "distance": 8719.011512596222}, {"id": "FWjl6BrMie6H78OSWJG5Pg", "alias": "bareburger-columbus-circle-new-york", "name": "Bareburger - Columbus Circle", "image_url": "https://s3-media2.fl.yelpcdn.com/bphoto/HYcXHCg6BlUrrRotPqF0Gg/o.jpg", "is_closed": false, "url": "https://www.yelp.com/biz/bareburger-columbus-circle-new-york?adjust_creative=9gNmiWYX8uTbFBeTTvJMdA&utm_campaign=yelp_api_v3&utm_medium=api_v3_business_search&utm_source=9gNmiWYX8uTbFBeTTvJMdA", "review_count": 457, "categories": [{"alias": "burgers", "title": "Burgers"}, {"alias": "salad", "title": "Salad"}, {"alias": "tradamerican", "title": "American (Traditional)"}], "rating": 4.0, "coordinates": {"latitude": 40.76726, "longitude": -73.98346}, "transactions": ["pickup", "delivery"], "price": "$$", "location": {"address1": "313 W 57th St", "address2": "", "address3": "", "city": "New York", "zip_code": "10019", "country": "US", "state": "NY", "display_address": ["313 W 57th St", "New York, NY 10019"]}, "phone": "+12126852273", "display_phone": "(212) 685-2273", "distance": 1476.164025250687}, {"id": "gMsYn7zCsgV36P-ZL3gDaw", "alias": "flatbush-thai-corp-brooklyn", "name": "Flatbush Thai Corp", "image_url": "https://s3-media1.fl.yelpcdn.com/bphoto/-ruzVsRsUcwRqYHRfcgF2A/o.jpg", "is_closed": false, "url": "https://www.yelp.com/biz/flatbush-thai-corp-brooklyn?adjust_creative=9gNmiWYX8uTbFBeTTvJMdA&utm_campaign=yelp_api_v3&utm_medium=api_v3_business_search&utm_source=9gNmiWYX8uTbFBeTTvJMdA", "review_count": 10, "categories": [{"alias": "thai", "title": "Thai"}], "rating": 4.5, "coordinates": {"latitude": 40.66002, "longitude": -73.96042}, "transactions": ["pickup", "delivery"], "location": {"address1": "561 Flatbush Ave", "address2": "", "address3": null, "city": "Brooklyn", "zip_code": "11225", "country": "US", "state": "NY", "display_address": ["561 Flatbush Ave", "Brooklyn, NY 11225"]}, "phone": "+13472407462", "display_phone": "(347) 240-7462", "distance": 11048.070235665466}, {"id": "njmOPpVZxIseG262NPfspA", "alias": "miyabi-sushi-and-asian-cusine-new-york", "name": "Miyabi Sushi & Asian Cusine", "image_url": "https://s3-media4.fl.yelpcdn.com/bphoto/tudaYWBPuyH2O5DBUlWFrw/o.jpg", "is_closed": false, "url": "https://www.yelp.com/biz/miyabi-sushi-and-asian-cusine-new-york?adjust_creative=9gNmiWYX8uTbFBeTTvJMdA&utm_campaign=yelp_api_v3&utm_medium=api_v3_business_search&utm_source=9gNmiWYX8uTbFBeTTvJMdA", "review_count": 393, "categories": [{"alias": "sushi", "title": "Sushi Bars"}, {"alias": "japanese", "title": "Japanese"}], "rating": 4.0, "coordinates": {"latitude": 40.73046, "longitude": -74.00037}, "transactions": ["pickup", "delivery"], "price": "$$", "location": {"address1": "118 W 3rd St", "address2": "", "address3": "", "city": "New York", "zip_code": "10012", "country": "US", "state": "NY", "display_address": ["118 W 3rd St", "New York, NY 10012"]}, "phone": "+12122281688", "display_phone": "(212) 228-1688", "distance": 4115.953918986789}], "total": 1700, "region": {"center": {"longitude": -73.96957397460938, "latitude": 40.75917470627005}}}