{"businesses": [{"id": "njmOPpVZxIseG262NPfspA", "alias": "miyabi-sushi-and-asian-cusine-new-york", "name": "Miyabi Sushi & Asian Cusine", "image_url": "https://s3-media4.fl.yelpcdn.com/bphoto/tudaYWBPuyH2O5DBUlWFrw/o.jpg", "is_closed": false, "url": "https://www.yelp.com/biz/miyabi-sushi-and-asian-cusine-new-york?adjust_creative=9gNmiWYX8uTbFBeTTvJMdA&utm_campaign=yelp_api_v3&utm_medium=api_v3_business_search&utm_source=9gNmiWYX8uTbFBeTTvJMdA", "review_count": 393, "categories": [{"alias": "sushi", "title": "Sushi Bars"}, {"alias": "japanese", "title": "Japanese"}], "rating": 4.0, "coordinates": {"latitude": 40.73046, "longitude": -74.00037}, "transactions": ["delivery", "pickup"], "price": "$$", "location": {"address1": "118 W 3rd St", "address2": "", "address3": "", "city": "New York", "zip_code": "10012", "country": "US", "state": "NY", "display_address": ["118 W 3rd St", "New York, NY 10012"]}, "phone": "+12122281688", "display_phone": "(212) 228-1688", "distance": 4115.953918986789}, {"id": "dJdIEYv56jTBkU6hAnSypw", "alias": "awang-kitchen-elmhurst", "name": "Awang Kitchen", "image_url": "https://s3-media3.fl.yelpcdn.com/bphoto/AR3YbQqMaSzdYjKOgz2syA/o.jpg", "is_closed": false, "url": "https://www.yelp.com/biz/awang-kitchen-elmhurst?adjust_creative=9gNmiWYX8uTbFBeTTvJMdA&utm_campaign=yelp_api_v3&utm_medium=api_v3_business_search&utm_source=9gNmiWYX8uTbFBeTTvJMdA", "review_count": 197, "categories": [{"alias": "indonesian", "title": "Indonesian"}], "rating": 4.0, "coordinates": {"latitude": 40.737416, "longitude": -73.879078}, "transactions": ["delivery", "pickup"], "price": "$$", "location": {"address1": "8405 Queens Blvd", "address2": "Ste 1 C", "address3": null, "city": "Elmhurst", "zip_code": "11373", "country": "US", "state": "NY", "display_address": ["8405 Queens Blvd", "Ste 1 C", "Elmhurst, NY 11373"]}, "phone": "+13474929264", "display_phone": "(347) 492-9264", "distance": 8004.0697984026665}, {"id": "1ht9x2hqzpjfk6JaR8r7oA", "alias": "lins-asian-cuisine-east-bronx", "name": "Lin's Asian Cuisine", "image_url": "https://s3-media3.fl.yelpcdn.com/bphoto/5ZN4NBb8LmH2McNSzfSiqQ/o.jpg", "is_closed": false, "url": "https://www.yelp.com/biz/lins-asian-cuisine-east-bronx?adjust_creative=9gNmiWYX8uTbFBeTTvJMdA&utm_campaign=yelp_api_v3&utm_medium=api_v3_business_search&utm_source=9gNmiWYX8uTbFBeTTvJMdA", "review_count": 108, "categories": [{"alias": "chinese", "title": "Chinese"}, {"alias": "sushi", "title": "Sushi Bars"}, {"alias": "asianfusion", "title": "Asian Fusion"}], "rating": 3.5, "coordinates": {"latitude": 40.8426181840383, "longitude": -73.8538535671128}, "transactions": ["delivery", "pickup"], "price": "$$", "location": {"address1": "1506 Bronxdale Ave", "address2": "", "address3": "", "city": "East Bronx", "zip_code": "10462", "country": "US", "state": "NY", "display_address": ["1506 Bronxdale Ave", "East Bronx, NY 10462"]}, "phone": "+17188226888", "display_phone": "(718) 822-6888", "distance": 13452.421578918025}, {"id": "IdZ5DnGnAEXcmz2jZXGFiQ", "alias": "hiroshi-japanese-fusion-new-york", "name": "Hiroshi Japanese Fusion", "image_url": "https://s3-media2.fl.yelpcdn.com/bphoto/Xw_4Md0rmkMzVG7vpTxJOg/o.jpg", "is_closed": false, "url": "https://www.yelp.com/biz/hiroshi-japanese-fusion-new-york?adjust_creative=9gNmiWYX8uTbFBeTTvJMdA&utm_campaign=yelp_api_v3&utm_medium=api_v3_business_search&utm_source=9gNmiWYX8uTbFBeTTvJMdA", "review_count": 210, "categories": [{"alias": "japanese", "title": "Japanese"}, {"alias": "thai", "title": "Thai"}, {"alias": "sushi", "title": "Sushi Bars"}], "rating": 3.5, "coordinates": {"latitude": 40.74836, "longitude": -73.97585}, "transactions": ["delivery", "pickup"], "price": "$$", "location": {"address1": "585 3rd Ave", "address2": "", "address3": "", "city": "New York", "zip_code": "10016", "country": "US", "state": "NY", "display_address": ["585 3rd Ave", "New York, NY 10016"]}, "phone": "+12126619288", "display_phone": "(212) 661-9288", "distance": 1313.6465955967951}, {"id": "sxwPYI-9XU3xgZcpqerDLQ", "alias": "avocado-sushi-staten-island-6", "name": "Avocado sushi", "image_url": "https://s3-media1.fl.yelpcdn.com/bphoto/1vYCIOt79hJu5wnJOqoEeg/o.jpg", "is_closed": false, "url": "https://www.yelp.com/biz/avocado-sushi-staten-island-6?adjust_creative=9gNmiWYX8uTbFBeTTvJMdA&utm_campaign=yelp_api_v3&utm_medium=api_v3_business_search&utm_source=9gNmiWYX8uTbFBeTTvJMdA", "review_count": 43, "categories": [{"alias": "sushi", "title": "Sushi Bars"}, {"alias": "japanese", "title": "Japanese"}, {"alias": "thai", "title": "Thai"}], "rating": 3.5, "coordinates": {"latitude": 40.626092, "longitude": -74.133678}, "transactions": ["delivery", "pickup"], "price": "$$", "location": {"address1": "1310 Forest Ave", "address2": null, "address3": "", "city": "Staten Island", "zip_code": "10302", "country": "US", "state": "NY", "display_address": ["1310 Forest Ave", "Staten Island, NY 10302"]}, "phone": "+17185560060", "display_phone": "(718) 556-0060", "distance": 20256.611023369656}, {"id": "1SmbVkW-9h2mSs9PN4MaXg", "alias": "oishi-bento-and-ramen-flushing-2", "name": "Oishi Bento & Ramen", "image_url": "", "is_closed": false, "url": "https://www.yelp.com/biz/oishi-bento-and-ramen-flushing-2?adjust_creative=9gNmiWYX8uTbFBeTTvJMdA&utm_campaign=yelp_api_v3&utm_medium=api_v3_business_search&utm_source=9gNmiWYX8uTbFBeTTvJMdA", "review_count": 1, "categories": [{"alias": "japanese", "title": "Japanese"}, {"alias": "fooddeliveryservices", "title": "Food Delivery Services"}], "rating": 5.0, "coordinates": {"latitude": 40.76559829711914, "longitude": -73.82565307617188}, "transactions": ["delivery"], "location": {"address1": null, "address2": null, "address3": null, "city": "Flushing", "zip_code": "11354", "country": "US", "state": "NY", "display_address": ["Flushing, NY 11354"]}, "phone": "+19172852332", "display_phone": "(917) 285-2332", "distance": 12049.510996534464}, {"id": "3DVKbi5cSLMlmph43RF_kA", "alias": "luannes-wild-ginger-all-asian-vegan-brooklyn", "name": "LuAnne's Wild Ginger All-Asian Vegan", "image_url": "https://s3-media1.fl.yelpcdn.com/bphoto/kbgnPaAF9XIsPXGSOdZBvQ/o.jpg", "is_closed": false, "url": "https://www.yelp.com/biz/luannes-wild-ginger-all-asian-vegan-brooklyn?adjust_creative=9gNmiWYX8uTbFBeTTvJMdA&utm_campaign=yelp_api_v3&utm_medium=api_v3_business_search&utm_source=9gNmiWYX8uTbFBeTTvJMdA", "review_count": 384, "categories": [{"alias": "asianfusion", "title": "Asian Fusion"}, {"alias": "vegan", "title": "Vegan"}], "rating": 4.0, "coordinates": {"latitude": 40.687936, "longitude": -73.989925}, "transactions": ["delivery", "pickup"], "price": "$$", "location": {"address1": "112 Smith St", "address2": "", "address3": "", "city": "Brooklyn", "zip_code": "11201", "country": "US", "state": "NY", "display_address": ["112 Smith St", "Brooklyn, NY 11201"]}, "phone": "+17188583880", "display_phone": "(718) 858-3880", "distance": 8103.210262809242}, {"id": "scTDvJ2M2jDbb1ntVeIyxA", "alias": "hao-noodle-west-village-new-york-3", "name": "Hao Noodle - West Village", "image_url": "https://s3-media4.fl.yelpcdn.com/bphoto/X-hE8s5vsTYtJ-w2k7p86w/o.jpg", "is_closed": false, "url": "https://www.yelp.com/biz/hao-noodle-west-village-new-york-3?adjust_creative=9gNmiWYX8uTbFBeTTvJMdA&utm_campaign=yelp_api_v3&utm_medium=api_v3_business_search&utm_source=9gNmiWYX8uTbFBeTTvJMdA", "review_count": 833, "categories": [{"alias": "chinese", "title": "Chinese"}, {"alias": "noodles", "title": "Noodles"}], "rating": 4.0, "coordinates": {"latitude": 40.7334863190479, "longitude": -73.9998929006093}, "transactions": ["pickup", "delivery"], "price": "$$", "location": {"address1": "401 6th Ave", "address2": "", "address3": "", "city": "New York", "zip_code": "10014", "country": "US", "state": "NY", "display_address": ["401 6th Ave", "New York, NY 10014"]}, "phone": "+12126338900", "display_phone": "(212) 633-8900", "distance": 3831.796197463909}, {"id": "wJhm-RhgPhvlqF80s5D49Q", "alias": "barney-brown-new-york", "name": "Barney Brown", "image_url": "https://s3-media1.fl.yelpcdn.com/bphoto/MI8-DVIu3tQbUIohFVQa_Q/o.jpg", "is_closed": false, "url": "https://www.yelp.com/biz/barney-brown-new-york?adjust_creative=9gNmiWYX8uTbFBeTTvJMdA&utm_campaign=yelp_api_v3&utm_medium=api_v3_business_search&utm_source=9gNmiWYX8uTbFBeTTvJMdA", "review_count": 46, "categories": [{"alias": "fooddeliveryservices", "title": "Food Delivery Services"}, {"alias": "sandwiches", "title": "Sandwiches"}], "rating": 4.5, "coordinates": {"latitude": 40.7461897, "longitude": -73.990062}, "transactions": ["delivery", "pickup"], "price": "$$", "location": {"address1": "822 6th Ave", "address2": null, "address3": "", "city": "New York", "zip_code": "10001", "country": "US", "state": "NY", "display_address": ["822 6th Ave", "New York, NY 10001"]}, "phone": "+12126349114", "display_phone": "(212) 634-9114", "distance": 2250.1298633829483}, {"id": "b3XJAx3ru9FxB5gIxPZogg", "alias": "3-guys-sushi-staten-island", "name": "3 Guys Sushi", "image_url": "https://s3-media2.fl.yelpcdn.com/bphoto/4ys_PU2rwZpJJVF0bFy-mQ/o.jpg", "is_closed": false, "url": "https://www.yelp.com/biz/3-guys-sushi-staten-island?adjust_creative=9gNmiWYX8uTbFBeTTvJMdA&utm_campaign=yelp_api_v3&utm_medium=api_v3_business_search&utm_source=9gNmiWYX8uTbFBeTTvJMdA", "review_count": 77, "categories": [{"alias": "japanese", "title": "Japanese"}, {"alias": "thai", "title": "Thai"}, {"alias": "sushi", "title": "Sushi Bars"}], "rating": 4.0, "coordinates": {"latitude": 40.6301613, "longitude": -74.107872}, "transactions": ["delivery", "pickup"], "price": "$$", "location": {"address1": "530 Forest Ave", "address2": null, "address3": "", "city": "Staten Island", "zip_code": "10310", "country": "US", "state": "NY", "display_address": ["530 Forest Ave", "Staten Island, NY 10310"]}, "phone": "+17184470088", "display_phone": "(718) 447-0088", "distance": 18486.498828749285}, {"id": "IuMvrvXTTZm4NQYO1O1dbg", "alias": "kuma-nyc-brooklyn-2", "name": "Kuma NYC", "image_url": "https://s3-media1.fl.yelpcdn.com/bphoto/s5SvRV7ZeCjeV4o_f2255Q/o.jpg", "is_closed": false, "url": "https://www.yelp.com/biz/kuma-nyc-brooklyn-2?adjust_creative=9gNmiWYX8uTbFBeTTvJMdA&utm_campaign=yelp_api_v3&utm_medium=api_v3_business_search&utm_source=9gNmiWYX8uTbFBeTTvJMdA", "review_count": 60, "categories": [{"alias": "poke", "title": "Poke"}, {"alias": "asianfusion", "title": "Asian Fusion"}, {"alias": "ramen", "title": "Ramen"}], "rating": 4.0, "coordinates": {"latitude": 40.699183, "longitude": -73.91304}, "transactions": ["delivery", "pickup"], "price": "$$", "location": {"address1": "1520 Myrtle Ave", "address2": "", "address3": null, "city": "Brooklyn", "zip_code": "11237", "country": "US", "state": "NY", "display_address": ["1520 Myrtle Ave", "Brooklyn, NY 11237"]}, "phone": "+17183663790", "display_phone": "(718) 366-3790", "distance": 8197.0509188579}, {"id": "rBzVxoZlFiN2k7tsByRjAA", "alias": "viatnamese-pho-star-new-york", "name": "Viatnamese Pho Star", "image_url": "", "is_closed": false, "url": "https://www.yelp.com/biz/viatnamese-pho-star-new-york?adjust_creative=9gNmiWYX8uTbFBeTTvJMdA&utm_campaign=yelp_api_v3&utm_medium=api_v3_business_search&utm_source=9gNmiWYX8uTbFBeTTvJMdA", "review_count": 2, "categories": [{"alias": "fooddeliveryservices", "title": "Food Delivery Services"}, {"alias": "vietnamese", "title": "Vietnamese"}], "rating": 1.0, "coordinates": {"latitude": 40.75192, "longitude": -73.97361}, "transactions": ["delivery"], "location": {"address1": null, "address2": null, "address3": null, "city": "New York", "zip_code": "10017", "country": "US", "state": "NY", "display_address": ["New York, NY 10017"]}, "phone": "+12128678222", "display_phone": "(212) 867-8222", "distance": 799.6898510522924}, {"id": "gEfsayvqWqI2KfCF43TJ_A", "alias": "port-of-call-hackensack-3", "name": "Port of Call", "image_url": "https://s3-media1.fl.yelpcdn.com/bphoto/lnxlvdmKZ75nZA3fV-N8DA/o.jpg", "is_closed": false, "url": "https://www.yelp.com/biz/port-of-call-hackensack-3?adjust_creative=9gNmiWYX8uTbFBeTTvJMdA&utm_campaign=yelp_api_v3&utm_medium=api_v3_business_search&utm_source=9gNmiWYX8uTbFBeTTvJMdA", "review_count": 998, "categories": [{"alias": "sushi", "title": "Sushi Bars"}, {"alias": "buffets", "title": "Buffets"}, {"alias": "seafood", "title": "Seafood"}], "rating": 4.0, "coordinates": {"latitude": 40.9096827672378, "longitude": -74.0316456805744}, "transactions": ["delivery"], "price": "$$$", "location": {"address1": "450 Hackensack Ave", "address2": "", "address3": "", "city": "Hackensack", "zip_code": "07601", "country": "US", "state": "NJ", "display_address": ["450 Hackensack Ave", "Hackensack, NJ 07601"]}, "phone": "+12014880888", "display_phone": "(201) 488-0888", "distance": 17531.528378084888}, {"id": "dspLTxhT3Po_lgpUOnYLHg", "alias": "matsu-sushi-new-york-4", "name": "Matsu Sushi", "image_url": "https://s3-media2.fl.yelpcdn.com/bphoto/JtM-xmgwzVhY7u8RE9-tjg/o.jpg", "is_closed": false, "url": "https://www.yelp.com/biz/matsu-sushi-new-york-4?adjust_creative=9gNmiWYX8uTbFBeTTvJMdA&utm_campaign=yelp_api_v3&utm_medium=api_v3_business_search&utm_source=9gNmiWYX8uTbFBeTTvJMdA", "review_count": 298, "categories": [{"alias": "sushi", "title": "Sushi Bars"}, {"alias": "japanese", "title": "Japanese"}], "rating": 3.5, "coordinates": {"latitude": 40.766304, "longitude": -73.955909}, "transactions": ["delivery", "pickup"], "price": "$$", "location": {"address1": "411 E 70th St", "address2": null, "address3": "", "city": "New York", "zip_code": "10021", "country": "US", "state": "NY", "display_address": ["411 E 70th St", "New York, NY 10021"]}, "phone": "+12127445454", "display_phone": "(212) 744-5454", "distance": 1391.9487202001126}, {"id": "E0y_RtLh43VqcUrVXOuYWQ", "alias": "just-pho-you-new-york-2", "name": "Just Pho You", "image_url": "https://s3-media2.fl.yelpcdn.com/bphoto/S-ufW9QtPXU6AK1NxtRU4A/o.jpg", "is_closed": false, "url": "https://www.yelp.com/biz/just-pho-you-new-york-2?adjust_creative=9gNmiWYX8uTbFBeTTvJMdA&utm_campaign=yelp_api_v3&utm_medium=api_v3_business_search&utm_source=9gNmiWYX8uTbFBeTTvJMdA", "review_count": 47, "categories": [{"alias": "vietnamese", "title": "Vietnamese"}, {"alias": "coffee", "title": "Coffee & Tea"}, {"alias": "bars", "title": "Bars"}], "rating": 4.0, "coordinates": {"latitude": 40.79759, "longitude": -73.96931}, "transactions": ["delivery", "pickup"], "location": {"address1": "2656 Broadway", "address2": "", "address3": null, "city": "New York", "zip_code": "10025", "country": "US", "state": "NY", "display_address": ["2656 Broadway", "New York, NY 10025"]}, "phone": "+16468225178", "display_phone": "(646) 822-5178", "distance": 4272.451941297639}, {"id": "wC_TUZaKEQue8mhrCTnDgQ", "alias": "lucky-louie-s-new-york-2", "name": "Lucky Louie", "image_url": "https://s3-media3.fl.yelpcdn.com/bphoto/LQWxwhQPO1M5xsOI4QTUmg/o.jpg", "is_closed": false, "url": "https://www.yelp.com/biz/lucky-louie-s-new-york-2?adjust_creative=9gNmiWYX8uTbFBeTTvJMdA&utm_campaign=yelp_api_v3&utm_medium=api_v3_business_search&utm_source=9gNmiWYX8uTbFBeTTvJMdA", "review_count": 37, "categories": [{"alias": "chickenshop", "title": "Chicken Shop"}, {"alias": "desserts", "title": "Desserts"}, {"alias": "salad", "title": "Salad"}], "rating": 4.5, "coordinates": {"latitude": 40.734627670191685, "longitude": -74.00635439999999}, "transactions": ["delivery", "pickup"], "location": {"address1": "535 Hudson Flr Grd", "address2": "", "address3": "", "city": "Manhattan", "zip_code": "10014", "country": "US", "state": "NY", "display_address": ["535 Hudson Flr Grd", "Manhattan, NY 10014"]}, "phone": "+16465602255", "display_phone": "(646) 560-2255", "distance": 4129.217787005078}, {"id": "c5hwACfqea1DPV0VB_O4CQ", "alias": "kitchen-co-ut-new-york", "name": "Kitchen Co Ut", "image_url": "https://s3-media2.fl.yelpcdn.com/bphoto/pXYyVeD_yt0gLrIatVcJXQ/o.jpg", "is_closed": false, "url": "https://www.yelp.com/biz/kitchen-co-ut-new-york?adjust_creative=9gNmiWYX8uTbFBeTTvJMdA&utm_campaign=yelp_api_v3&utm_medium=api_v3_business_search&utm_source=9gNmiWYX8uTbFBeTTvJMdA", "review_count": 72, "categories": [{"alias": "vietnamese", "title": "Vietnamese"}], "rating": 4.0, "coordinates": {"latitude": 40.71751204167882, "longitude": -73.99437233805656}, "transactions": ["delivery", "pickup"], "price": "$$", "location": {"address1": "85 Chrystie St", "address2": "", "address3": null, "city": "New York", "zip_code": "10002", "country": "US", "state": "NY", "display_address": ["85 Chrystie St", "New York, NY 10002"]}, "phone": "+16466783188", "display_phone": "(646) 678-3188", "distance": 5082.014995512103}, {"id": "NRJq2BNcbjqAyxUB_bw7gw", "alias": "momoya-new-york", "name": "Momoya", "image_url": "https://s3-media1.fl.yelpcdn.com/bphoto/ff4nvXd0UTpc1GwNIqY_KQ/o.jpg", "is_closed": false, "url": "https://www.yelp.com/biz/momoya-new-york?adjust_creative=9gNmiWYX8uTbFBeTTvJMdA&utm_campaign=yelp_api_v3&utm_medium=api_v3_business_search&utm_source=9gNmiWYX8uTbFBeTTvJMdA", "review_count": 796, "categories": [{"alias": "sushi", "title": "Sushi Bars"}, {"alias": "japanese", "title": "Japanese"}, {"alias": "salad", "title": "Salad"}], "rating": 4.0, "coordinates": {"latitude": 40.7426255196333, "longitude": -73.9966481924057}, "transactions": ["delivery", "pickup"], "price": "$$", "location": {"address1": "185 7th Ave", "address2": null, "address3": "", "city": "New York", "zip_code": "10011", "country": "US", "state": "NY", "display_address": ["185 7th Ave", "New York, NY 10011"]}, "phone": "+12129894466", "display_phone": "(212) 989-4466", "distance": 2921.629645790033}, {"id": "uHbd3DXA1TyJ-hIACdBxZA", "alias": "saigon-bistro-jersey-city", "name": "Saigon Bistro", "image_url": "https://s3-media2.fl.yelpcdn.com/bphoto/sqGVNuxE6SqAbT0U3WzwdQ/o.jpg", "is_closed": false, "url": "https://www.yelp.com/biz/saigon-bistro-jersey-city?adjust_creative=9gNmiWYX8uTbFBeTTvJMdA&utm_campaign=yelp_api_v3&utm_medium=api_v3_business_search&utm_source=9gNmiWYX8uTbFBeTTvJMdA", "review_count": 140, "categories": [{"alias": "vietnamese", "title": "Vietnamese"}, {"alias": "noodles", "title": "Noodles"}, {"alias": "asianfusion", "title": "Asian Fusion"}], "rating": 4.5, "coordinates": {"latitude": 40.75204, "longitude": -74.04493}, "transactions": ["delivery", "pickup"], "price": "$$", "location": {"address1": "514 Central Ave", "address2": "", "address3": null, "city": "Jersey City", "zip_code": "07307", "country": "US", "state": "NJ", "display_address": ["514 Central Ave", "Jersey City, NJ 07307"]}, "phone": "+12013839992", "display_phone": "(201) 383-9992", "distance": 6394.740630219324}, {"id": "DdoubmNfPNRi9xNmcQ64ug", "alias": "tsurutontan-udon-noodle-brasserie-midtown-new-york", "name": "Tsurutontan Udon Noodle Brasserie - Midtown", "image_url": "https://s3-media4.fl.yelpcdn.com/bphoto/nB18W8qowyjMR8mEFGrIug/o.jpg", "is_closed": false, "url": "https://www.yelp.com/biz/tsurutontan-udon-noodle-brasserie-midtown-new-york?adjust_creative=9gNmiWYX8uTbFBeTTvJMdA&utm_campaign=yelp_api_v3&utm_medium=api_v3_business_search&utm_source=9gNmiWYX8uTbFBeTTvJMdA", "review_count": 681, "categories": [{"alias": "japanese", "title": "Japanese"}, {"alias": "noodles", "title": "Noodles"}, {"alias": "soup", "title": "Soup"}], "rating": 3.5, "coordinates": {"latitude": 40.75830659999292, "longitude": -73.98080074109362}, "transactions": ["delivery", "pickup"], "price": "$$", "location": {"address1": "64 W 48th St", "address2": "", "address3": null, "city": "New York", "zip_code": "10036", "country": "US", "state": "NY", "display_address": ["64 W 48th St", "New York, NY 10036"]}, "phone": "+12125752282", "display_phone": "(212) 575-2282", "distance": 950.5022869681122}, {"id": "s8W7-_v13OFJ-671FpL23w", "alias": "inaka-japanese-fusion-brooklyn-3", "name": "Inaka Japanese Fusion", "image_url": "https://s3-media1.fl.yelpcdn.com/bphoto/nYO4h6BP4GukMgQ_YRfOZg/o.jpg", "is_closed": false, "url": "https://www.yelp.com/biz/inaka-japanese-fusion-brooklyn-3?adjust_creative=9gNmiWYX8uTbFBeTTvJMdA&utm_campaign=yelp_api_v3&utm_medium=api_v3_business_search&utm_source=9gNmiWYX8uTbFBeTTvJMdA", "review_count": 236, "categories": [{"alias": "japanese", "title": "Japanese"}, {"alias": "thai", "title": "Thai"}, {"alias": "sushi", "title": "Sushi Bars"}], "rating": 4.0, "coordinates": {"latitude": 40.6252403259277, "longitude": -74.030647277832}, "transactions": ["delivery", "pickup"], "price": "$$", "location": {"address1": "8318 3rd Ave", "address2": null, "address3": "", "city": "Brooklyn", "zip_code": "11209", "country": "US", "state": "NY", "display_address": ["8318 3rd Ave", "Brooklyn, NY 11209"]}, "phone": "+17188360888", "display_phone": "(718) 836-0888", "distance": 15756.561793320401}, {"id": "azHDhKQ4ta-RBzBD_yHKww", "alias": "dim-sum-alley-new-york", "name": "Dim Sum Alley", "image_url": "", "is_closed": false, "url": "https://www.yelp.com/biz/dim-sum-alley-new-york?adjust_creative=9gNmiWYX8uTbFBeTTvJMdA&utm_campaign=yelp_api_v3&utm_medium=api_v3_business_search&utm_source=9gNmiWYX8uTbFBeTTvJMdA", "review_count": 1, "categories": [{"alias": "dimsum", "title": "Dim Sum"}, {"alias": "fooddeliveryservices", "title": "Food Delivery Services"}], "rating": 4.0, "coordinates": {"latitude": 40.80004, "longitude": -73.96578}, "transactions": ["delivery"], "location": {"address1": "929 Amsterdam Ave", "address2": "", "address3": null, "city": "New York", "zip_code": "10025", "country": "US", "state": "NY", "display_address": ["929 Amsterdam Ave", "New York, NY 10025"]}, "phone": "+15513023343", "display_phone": "(551) 302-3343", "distance": 4558.348154432101}, {"id": "VTNMeipIiyRRenXcRBedpg", "alias": "hk-food-court-\u9999\u6e2f\u7f8e\u98df\u57ce-elmhurst", "name": "HK Food Court \u9999\u6e2f\u7f8e\u98df\u57ce", "image_url": "https://s3-media2.fl.yelpcdn.com/bphoto/pKnftmhQxqEkHX5y3Og1JQ/o.jpg", "is_closed": false, "url": "https://www.yelp.com/biz/hk-food-court-%E9%A6%99%E6%B8%AF%E7%BE%8E%E9%A3%9F%E5%9F%8E-elmhurst?adjust_creative=9gNmiWYX8uTbFBeTTvJMdA&utm_campaign=yelp_api_v3&utm_medium=api_v3_business_search&utm_source=9gNmiWYX8uTbFBeTTvJMdA", "review_count": 110, "categories": [{"alias": "food_court", "title": "Food Court"}, {"alias": "chinese", "title": "Chinese"}, {"alias": "thai", "title": "Thai"}], "rating": 4.0, "coordinates": {"latitude": 40.7414872, "longitude": -73.8827301}, "transactions": [], "location": {"address1": "8202 45th Ave", "address2": "", "address3": null, "city": "Elmhurst", "zip_code": "11373", "country": "US", "state": "NY", "display_address": ["8202 45th Ave", "Elmhurst, NY 11373"]}, "phone": "", "display_phone": "", "distance": 7594.009711932809}, {"id": "GXNIS_0MaWoVHmABQfQvKw", "alias": "zutto-ramen-sushi-bar-new-york", "name": "Zutto Ramen Sushi Bar", "image_url": "https://s3-media3.fl.yelpcdn.com/bphoto/uoE53hsCh_9Z9ylNcML38w/o.jpg", "is_closed": false, "url": "https://www.yelp.com/biz/zutto-ramen-sushi-bar-new-york?adjust_creative=9gNmiWYX8uTbFBeTTvJMdA&utm_campaign=yelp_api_v3&utm_medium=api_v3_business_search&utm_source=9gNmiWYX8uTbFBeTTvJMdA", "review_count": 64, "categories": [{"alias": "sushi", "title": "Sushi Bars"}, {"alias": "ramen", "title": "Ramen"}, {"alias": "cocktailbars", "title": "Cocktail Bars"}], "rating": 4.5, "coordinates": {"latitude": 40.72216387113858, "longitude": -74.00060262235758}, "transactions": ["delivery", "pickup"], "location": {"address1": "384 Broome St", "address2": null, "address3": "", "city": "New York", "zip_code": "10013", "country": "US", "state": "NY", "display_address": ["384 Broome St", "New York, NY 10013"]}, "phone": "+12122070099", "display_phone": "(212) 207-0099", "distance": 4875.482136777909}, {"id": "2v7HpoqI2pSS9GpHu-gI2g", "alias": "soku-1546-brooklyn", "name": "Soku 1546", "image_url": "https://s3-media1.fl.yelpcdn.com/bphoto/HM1D167Jf_JtTdz_ut60eA/o.jpg", "is_closed": false, "url": "https://www.yelp.com/biz/soku-1546-brooklyn?adjust_creative=9gNmiWYX8uTbFBeTTvJMdA&utm_campaign=yelp_api_v3&utm_medium=api_v3_business_search&utm_source=9gNmiWYX8uTbFBeTTvJMdA", "review_count": 28, "categories": [{"alias": "asianfusion", "title": "Asian Fusion"}, {"alias": "bars", "title": "Bars"}], "rating": 4.0, "coordinates": {"latitude": 40.69938, "longitude": -73.91177}, "transactions": ["delivery", "pickup"], "location": {"address1": "1546 Myrtle Ave", "address2": null, "address3": "", "city": "Brooklyn", "zip_code": "11237", "country": "US", "state": "NY", "display_address": ["1546 Myrtle Ave", "Brooklyn, NY 11237"]}, "phone": "+17183660114", "display_phone": "(718) 366-0114", "distance": 8242.850773970325}, {"id": "87x1XzjA1CZvII84NfUW2A", "alias": "buddha-bar-restaurant-new-york-new-york", "name": "Buddha - Bar Restaurant New York", "image_url": "https://s3-media3.fl.yelpcdn.com/bphoto/g4iNzSpNUXT3UnRVhEmRkw/o.jpg", "is_closed": false, "url": "https://www.yelp.com/biz/buddha-bar-restaurant-new-york-new-york?adjust_creative=9gNmiWYX8uTbFBeTTvJMdA&utm_campaign=yelp_api_v3&utm_medium=api_v3_business_search&utm_source=9gNmiWYX8uTbFBeTTvJMdA", "review_count": 147, "categories": [{"alias": "asianfusion", "title": "Asian Fusion"}, {"alias": "japanese", "title": "Japanese"}, {"alias": "sushi", "title": "Sushi Bars"}], "rating": 3.5, "coordinates": {"latitude": 40.71669, "longitude": -74.00734}, "transactions": ["delivery", "pickup"], "location": {"address1": "62 Thomas St", "address2": null, "address3": "", "city": "New York", "zip_code": "10013", "country": "US", "state": "NY", "display_address": ["62 Thomas St", "New York, NY 10013"]}, "phone": "+12122560360", "display_phone": "(212) 256-0360", "distance": 5695.585979313412}, {"id": "rO4-ytxRRN98GMk2gSXxjQ", "alias": "honeygrow-hoboken", "name": "honeygrow", "image_url": "https://s3-media2.fl.yelpcdn.com/bphoto/6aLKnRKwtXZxsPUbAHUr-w/o.jpg", "is_closed": false, "url": "https://www.yelp.com/biz/honeygrow-hoboken?adjust_creative=9gNmiWYX8uTbFBeTTvJMdA&utm_campaign=yelp_api_v3&utm_medium=api_v3_business_search&utm_source=9gNmiWYX8uTbFBeTTvJMdA", "review_count": 366, "categories": [{"alias": "salad", "title": "Salad"}, {"alias": "vegetarian", "title": "Vegetarian"}, {"alias": "noodles", "title": "Noodles"}], "rating": 3.5, "coordinates": {"latitude": 40.73827000147528, "longitude": -74.03094254869448}, "transactions": ["delivery", "pickup"], "price": "$$", "location": {"address1": "120 Washington St", "address2": null, "address3": "", "city": "Hoboken", "zip_code": "07030", "country": "US", "state": "NJ", "display_address": ["120 Washington St", "Hoboken, NJ 07030"]}, "phone": "+12015338089", "display_phone": "(201) 533-8089", "distance": 5668.17968713396}, {"id": "0vg2Z-HPwkyVVX613j2ysg", "alias": "pengs-noodle-folk-new-york-2", "name": "Peng's Noodle Folk", "image_url": "https://s3-media3.fl.yelpcdn.com/bphoto/zvRVsO-Hp201-AEplRGfVg/o.jpg", "is_closed": false, "url": "https://www.yelp.com/biz/pengs-noodle-folk-new-york-2?adjust_creative=9gNmiWYX8uTbFBeTTvJMdA&utm_campaign=yelp_api_v3&utm_medium=api_v3_business_search&utm_source=9gNmiWYX8uTbFBeTTvJMdA", "review_count": 537, "categories": [{"alias": "chinese", "title": "Chinese"}, {"alias": "noodles", "title": "Noodles"}, {"alias": "ramen", "title": "Ramen"}], "rating": 4.5, "coordinates": {"latitude": 40.77726, "longitude": -73.94932}, "transactions": ["delivery", "pickup"], "price": "$$", "location": {"address1": "1659 1st Ave", "address2": "", "address3": null, "city": "New York", "zip_code": "10028", "country": "US", "state": "NY", "display_address": ["1659 1st Ave", "New York, NY 10028"]}, "phone": "+19293913950", "display_phone": "(929) 391-3950", "distance": 2638.8285415545115}, {"id": "9ieA0TyApI94wEqqW_r93w", "alias": "aarons-chinese-and-thai-new-york", "name": "Aaron's Chinese and Thai", "image_url": "https://s3-media2.fl.yelpcdn.com/bphoto/MQkUltccSjODZ23qgmz7lQ/o.jpg", "is_closed": false, "url": "https://www.yelp.com/biz/aarons-chinese-and-thai-new-york?adjust_creative=9gNmiWYX8uTbFBeTTvJMdA&utm_campaign=yelp_api_v3&utm_medium=api_v3_business_search&utm_source=9gNmiWYX8uTbFBeTTvJMdA", "review_count": 63, "categories": [{"alias": "chinese", "title": "Chinese"}, {"alias": "thai", "title": "Thai"}], "rating": 2.0, "coordinates": {"latitude": 40.750379, "longitude": -73.998141}, "transactions": ["delivery", "pickup"], "price": "$$", "location": {"address1": "338 9th Ave", "address2": "", "address3": "", "city": "New York", "zip_code": "10001", "country": "US", "state": "NY", "display_address": ["338 9th Ave", "New York, NY 10001"]}, "phone": "+12125609898", "display_phone": "(212) 560-9898", "distance": 2597.4077828034933}, {"id": "QqLhsoYGUht398dHtzVyBw", "alias": "go-by-citizens-marketplace-new-york-2", "name": "GO by Citizens Marketplace", "image_url": "https://s3-media2.fl.yelpcdn.com/bphoto/veGT0ob0i4R10s8tsbWpMQ/o.jpg", "is_closed": false, "url": "https://www.yelp.com/biz/go-by-citizens-marketplace-new-york-2?adjust_creative=9gNmiWYX8uTbFBeTTvJMdA&utm_campaign=yelp_api_v3&utm_medium=api_v3_business_search&utm_source=9gNmiWYX8uTbFBeTTvJMdA", "review_count": 14, "categories": [{"alias": "food_court", "title": "Food Court"}, {"alias": "venues", "title": "Venues & Event Spaces"}, {"alias": "fooddeliveryservices", "title": "Food Delivery Services"}], "rating": 3.0, "coordinates": {"latitude": 40.7531977, "longitude": -73.99968777055541}, "transactions": ["delivery", "pickup"], "price": "$$", "location": {"address1": "398 10th Ave", "address2": "", "address3": null, "city": "New York", "zip_code": "10001", "country": "US", "state": "NY", "display_address": ["398 10th Ave", "New York, NY 10001"]}, "phone": "+12127342715", "display_phone": "(212) 734-2715", "distance": 2622.094907271841}, {"id": "KUW8hx5kinOT_XJj3ttCDQ", "alias": "go-noodle-nine-moon-new-york", "name": "Go Noodle Nine Moon", "image_url": "https://s3-media2.fl.yelpcdn.com/bphoto/-MLTieBHNAmi9CVNyHeeSg/o.jpg", "is_closed": false, "url": "https://www.yelp.com/biz/go-noodle-nine-moon-new-york?adjust_creative=9gNmiWYX8uTbFBeTTvJMdA&utm_campaign=yelp_api_v3&utm_medium=api_v3_business_search&utm_source=9gNmiWYX8uTbFBeTTvJMdA", "review_count": 71, "categories": [{"alias": "chinese", "title": "Chinese"}, {"alias": "noodles", "title": "Noodles"}, {"alias": "soup", "title": "Soup"}], "rating": 3.5, "coordinates": {"latitude": 40.75932, "longitude": -73.96254}, "transactions": ["delivery", "pickup"], "price": "$", "location": {"address1": "1069 1st Ave", "address2": "", "address3": "", "city": "New York", "zip_code": "10022", "country": "US", "state": "NY", "display_address": ["1069 1st Ave", "New York, NY 10022"]}, "phone": "+12128886366", "display_phone": "(212) 888-6366", "distance": 595.8515776215432}, {"id": "QWskQ2QpR8bmza2FRFziOQ", "alias": "asian-fortune-restaurant-forest-hills", "name": "Asian Fortune Restaurant", "image_url": "https://s3-media4.fl.yelpcdn.com/bphoto/Av0ZXxYsKSXnZ8z182gh0g/o.jpg", "is_closed": false, "url": "https://www.yelp.com/biz/asian-fortune-restaurant-forest-hills?adjust_creative=9gNmiWYX8uTbFBeTTvJMdA&utm_campaign=yelp_api_v3&utm_medium=api_v3_business_search&utm_source=9gNmiWYX8uTbFBeTTvJMdA", "review_count": 124, "categories": [{"alias": "asianfusion", "title": "Asian Fusion"}, {"alias": "chinese", "title": "Chinese"}, {"alias": "thai", "title": "Thai"}], "rating": 4.0, "coordinates": {"latitude": 40.7244621, "longitude": -73.8493213}, "transactions": ["delivery", "pickup"], "price": "$$", "location": {"address1": "103-35 Queens Blvd", "address2": "", "address3": "", "city": "Forest Hills", "zip_code": "11375", "country": "US", "state": "NY", "display_address": ["103-35 Queens Blvd", "Forest Hills, NY 11375"]}, "phone": "+17188306313", "display_phone": "(718) 830-6313", "distance": 10859.853595400216}, {"id": "AanNkr0fdlLXtUzjqwbcvw", "alias": "mitoushi-japanese-restaurant-brooklyn-2", "name": "Mitoushi Japanese Restaurant", "image_url": "https://s3-media3.fl.yelpcdn.com/bphoto/BSw0TdIpid1LMtxbGW5eVA/o.jpg", "is_closed": false, "url": "https://www.yelp.com/biz/mitoushi-japanese-restaurant-brooklyn-2?adjust_creative=9gNmiWYX8uTbFBeTTvJMdA&utm_campaign=yelp_api_v3&utm_medium=api_v3_business_search&utm_source=9gNmiWYX8uTbFBeTTvJMdA", "review_count": 192, "categories": [{"alias": "japanese", "title": "Japanese"}, {"alias": "sushi", "title": "Sushi Bars"}], "rating": 3.5, "coordinates": {"latitude": 40.608332, "longitude": -73.960424}, "transactions": ["delivery", "pickup"], "price": "$$", "location": {"address1": "1221 Quentin Rd", "address2": "", "address3": "", "city": "Brooklyn", "zip_code": "11229", "country": "US", "state": "NY", "display_address": ["1221 Quentin Rd", "Brooklyn, NY 11229"]}, "phone": "+17189989882", "display_phone": "(718) 998-9882", "distance": 16790.660567301522}, {"id": "B6fXfY9Z-66OfISBD5-wuA", "alias": "yahar-jamaica", "name": "Yahar", "image_url": "https://s3-media3.fl.yelpcdn.com/bphoto/hZ3-wdvQTMHgUQtq1eQNBw/o.jpg", "is_closed": false, "url": "https://www.yelp.com/biz/yahar-jamaica?adjust_creative=9gNmiWYX8uTbFBeTTvJMdA&utm_campaign=yelp_api_v3&utm_medium=api_v3_business_search&utm_source=9gNmiWYX8uTbFBeTTvJMdA", "review_count": 3, "categories": [{"alias": "thai", "title": "Thai"}], "rating": 2.5, "coordinates": {"latitude": 40.6848136028778, "longitude": -73.8606077202362}, "transactions": [], "location": {"address1": "7919 Atlantic Ave", "address2": "", "address3": "", "city": "Jamaica", "zip_code": "11421", "country": "US", "state": "NY", "display_address": ["7919 Atlantic Ave", "Jamaica, NY 11421"]}, "phone": "", "display_phone": "", "distance": 12356.964896125959}, {"id": "EXEDl7BOLZksz3Uy_RVFhw", "alias": "yamato-brooklyn", "name": "Yamato", "image_url": "https://s3-media4.fl.yelpcdn.com/bphoto/VL3BeJDt7Q9rSzakt55gTg/o.jpg", "is_closed": false, "url": "https://www.yelp.com/biz/yamato-brooklyn?adjust_creative=9gNmiWYX8uTbFBeTTvJMdA&utm_campaign=yelp_api_v3&utm_medium=api_v3_business_search&utm_source=9gNmiWYX8uTbFBeTTvJMdA", "review_count": 285, "categories": [{"alias": "japanese", "title": "Japanese"}, {"alias": "sushi", "title": "Sushi Bars"}], "rating": 4.0, "coordinates": {"latitude": 40.67192, "longitude": -73.97758}, "transactions": ["delivery", "pickup"], "price": "$$", "location": {"address1": "168 7th Ave", "address2": "", "address3": "", "city": "Brooklyn", "zip_code": "11215", "country": "US", "state": "NY", "display_address": ["168 7th Ave", "Brooklyn, NY 11215"]}, "phone": "+17188400099", "display_phone": "(718) 840-0099", "distance": 9719.979354385177}, {"id": "6ajnxlCkejQ5jFoVQr1iCw", "alias": "hello-vietpho-new-york", "name": "Hello Vietpho", "image_url": "https://s3-media2.fl.yelpcdn.com/bphoto/2TvU03tulo78IW4A0DamVg/o.jpg", "is_closed": false, "url": "https://www.yelp.com/biz/hello-vietpho-new-york?adjust_creative=9gNmiWYX8uTbFBeTTvJMdA&utm_campaign=yelp_api_v3&utm_medium=api_v3_business_search&utm_source=9gNmiWYX8uTbFBeTTvJMdA", "review_count": 24, "categories": [{"alias": "vietnamese", "title": "Vietnamese"}], "rating": 4.5, "coordinates": {"latitude": 40.71489, "longitude": -74.0066}, "transactions": ["delivery", "pickup"], "price": "$$", "location": {"address1": "63A Reade St", "address2": null, "address3": "", "city": "New York", "zip_code": "10007", "country": "US", "state": "NY", "display_address": ["63A Reade St", "New York, NY 10007"]}, "phone": "+19173883038", "display_phone": "(917) 388-3038", "distance": 5841.788314911324}, {"id": "dIipa0PYSjJmKm6OIcqr5Q", "alias": "luannes-wild-ginger-franklin-brooklyn", "name": "Luanne's Wild Ginger Franklin", "image_url": "https://s3-media2.fl.yelpcdn.com/bphoto/tm150OrjGcqJbSxll9eIbQ/o.jpg", "is_closed": false, "url": "https://www.yelp.com/biz/luannes-wild-ginger-franklin-brooklyn?adjust_creative=9gNmiWYX8uTbFBeTTvJMdA&utm_campaign=yelp_api_v3&utm_medium=api_v3_business_search&utm_source=9gNmiWYX8uTbFBeTTvJMdA", "review_count": 102, "categories": [{"alias": "panasian", "title": "Pan Asian"}, {"alias": "vegan", "title": "Vegan"}, {"alias": "vegetarian", "title": "Vegetarian"}], "rating": 4.0, "coordinates": {"latitude": 40.67538992914, "longitude": -73.9564200863242}, "transactions": ["delivery", "pickup"], "price": "$$", "location": {"address1": "676 Franklin Ave", "address2": "", "address3": null, "city": "Brooklyn", "zip_code": "11238", "country": "US", "state": "NY", "display_address": ["676 Franklin Ave", "Brooklyn, NY 11238"]}, "phone": "+17189287668", "display_phone": "(718) 928-7668", "distance": 9382.157495786081}, {"id": "t2hJ7oZded4igSWIgohHAA", "alias": "just-salad-new-york-65", "name": "Just Salad", "image_url": "https://s3-media2.fl.yelpcdn.com/bphoto/wSnaaLhPrimE8EVJsNkqsQ/o.jpg", "is_closed": false, "url": "https://www.yelp.com/biz/just-salad-new-york-65?adjust_creative=9gNmiWYX8uTbFBeTTvJMdA&utm_campaign=yelp_api_v3&utm_medium=api_v3_business_search&utm_source=9gNmiWYX8uTbFBeTTvJMdA", "review_count": 3, "categories": [{"alias": "salad", "title": "Salad"}, {"alias": "vegetarian", "title": "Vegetarian"}, {"alias": "vegan", "title": "Vegan"}], "rating": 5.0, "coordinates": {"latitude": 40.706836953977934, "longitude": -74.0130305}, "transactions": ["delivery", "pickup"], "location": {"address1": "55 Broadway", "address2": null, "address3": "", "city": "New York", "zip_code": "10006", "country": "US", "state": "NY", "display_address": ["55 Broadway", "New York, NY 10006"]}, "phone": "+18666733757", "display_phone": "(866) 673-3757", "distance": 6875.756166682138}, {"id": "wdGMVLUzocmnl2tST0lheg", "alias": "yunshang-rice-noodle-house-new-york-5", "name": "YunShang Rice Noodle House", "image_url": "https://s3-media2.fl.yelpcdn.com/bphoto/R-AQFKvYkcYAD2XV6w9aUg/o.jpg", "is_closed": false, "url": "https://www.yelp.com/biz/yunshang-rice-noodle-house-new-york-5?adjust_creative=9gNmiWYX8uTbFBeTTvJMdA&utm_campaign=yelp_api_v3&utm_medium=api_v3_business_search&utm_source=9gNmiWYX8uTbFBeTTvJMdA", "review_count": 307, "categories": [{"alias": "chinese", "title": "Chinese"}, {"alias": "noodles", "title": "Noodles"}, {"alias": "asianfusion", "title": "Asian Fusion"}], "rating": 4.0, "coordinates": {"latitude": 40.71525, "longitude": -73.99765}, "transactions": ["delivery"], "price": "$$", "location": {"address1": "53 Bayard St", "address2": null, "address3": "", "city": "New York", "zip_code": "10013", "country": "US", "state": "NY", "display_address": ["53 Bayard St", "New York, NY 10013"]}, "phone": "+16469985223", "display_phone": "(646) 998-5223", "distance": 5434.609006035162}, {"id": "uVHa8BktK6jjYTaSxra-sg", "alias": "nizi-sushi-east-rutherford", "name": "Nizi Sushi", "image_url": "https://s3-media1.fl.yelpcdn.com/bphoto/09c-d3EDn55PwAYL0c9ULg/o.jpg", "is_closed": false, "url": "https://www.yelp.com/biz/nizi-sushi-east-rutherford?adjust_creative=9gNmiWYX8uTbFBeTTvJMdA&utm_campaign=yelp_api_v3&utm_medium=api_v3_business_search&utm_source=9gNmiWYX8uTbFBeTTvJMdA", "review_count": 683, "categories": [{"alias": "japanese", "title": "Japanese"}, {"alias": "sushi", "title": "Sushi Bars"}, {"alias": "salad", "title": "Salad"}], "rating": 4.5, "coordinates": {"latitude": 40.83685047231717, "longitude": -74.09954948609212}, "transactions": ["delivery"], "price": "$$", "location": {"address1": "340 Paterson Ave", "address2": "", "address3": null, "city": "East Rutherford", "zip_code": "07073", "country": "US", "state": "NJ", "display_address": ["340 Paterson Ave", "East Rutherford, NJ 07073"]}, "phone": "+12018047666", "display_phone": "(201) 804-7666", "distance": 13939.257041917414}, {"id": "ai3pqIIsa0FdwCAzxb8dpg", "alias": "spice-classic-new-york", "name": "Spice Classic", "image_url": "", "is_closed": false, "url": "https://www.yelp.com/biz/spice-classic-new-york?adjust_creative=9gNmiWYX8uTbFBeTTvJMdA&utm_campaign=yelp_api_v3&utm_medium=api_v3_business_search&utm_source=9gNmiWYX8uTbFBeTTvJMdA", "review_count": 1, "categories": [{"alias": "thai", "title": "Thai"}], "rating": 3.0, "coordinates": {"latitude": 40.769966, "longitude": -73.957916}, "transactions": [], "location": {"address1": "1411 2nd Ave", "address2": "", "address3": "", "city": "New York", "zip_code": "10021", "country": "US", "state": "NY", "display_address": ["1411 2nd Ave", "New York, NY 10021"]}, "phone": "+12129885348", "display_phone": "(212) 988-5348", "distance": 1550.1791494956763}, {"id": "sb1_MyLHzmjV1Jk21pyOIA", "alias": "sao-mai-new-york", "name": "Sao Mai", "image_url": "https://s3-media3.fl.yelpcdn.com/bphoto/qiIccrFY95xYU87YHtVjSg/o.jpg", "is_closed": false, "url": "https://www.yelp.com/biz/sao-mai-new-york?adjust_creative=9gNmiWYX8uTbFBeTTvJMdA&utm_campaign=yelp_api_v3&utm_medium=api_v3_business_search&utm_source=9gNmiWYX8uTbFBeTTvJMdA", "review_count": 641, "categories": [{"alias": "vietnamese", "title": "Vietnamese"}, {"alias": "noodles", "title": "Noodles"}, {"alias": "soup", "title": "Soup"}], "rating": 4.0, "coordinates": {"latitude": 40.730362, "longitude": -73.98362}, "transactions": ["delivery", "pickup"], "price": "$$", "location": {"address1": "203 1st Ave", "address2": "", "address3": "", "city": "New York", "zip_code": "10003", "country": "US", "state": "NY", "display_address": ["203 1st Ave", "New York, NY 10003"]}, "phone": "+12123588880", "display_phone": "(212) 358-8880", "distance": 3413.3703371354854}, {"id": "6salH2D1m9Fe_SMH1tTscQ", "alias": "just-salad-new-york-45", "name": "Just Salad", "image_url": "https://s3-media1.fl.yelpcdn.com/bphoto/VWkkYUDaonuIQv-uI_lXwQ/o.jpg", "is_closed": false, "url": "https://www.yelp.com/biz/just-salad-new-york-45?adjust_creative=9gNmiWYX8uTbFBeTTvJMdA&utm_campaign=yelp_api_v3&utm_medium=api_v3_business_search&utm_source=9gNmiWYX8uTbFBeTTvJMdA", "review_count": 53, "categories": [{"alias": "salad", "title": "Salad"}, {"alias": "vegetarian", "title": "Vegetarian"}, {"alias": "vegan", "title": "Vegan"}], "rating": 4.0, "coordinates": {"latitude": 40.7537, "longitude": -73.97254}, "transactions": ["delivery", "pickup"], "location": {"address1": "750 3rd Avenue", "address2": null, "address3": "", "city": "New York", "zip_code": "10017", "country": "US", "state": "NY", "display_address": ["750 3rd Avenue", "New York, NY 10017"]}, "phone": "+12122441111", "display_phone": "(212) 244-1111", "distance": 655.3674886503862}, {"id": "9c8M-3W7vuP4idvgi2LXSw", "alias": "fulton-thai-brooklyn-3", "name": "Fulton Thai", "image_url": "https://s3-media2.fl.yelpcdn.com/bphoto/5Jod2rHWc9VGDrnYlzLWrg/o.jpg", "is_closed": false, "url": "https://www.yelp.com/biz/fulton-thai-brooklyn-3?adjust_creative=9gNmiWYX8uTbFBeTTvJMdA&utm_campaign=yelp_api_v3&utm_medium=api_v3_business_search&utm_source=9gNmiWYX8uTbFBeTTvJMdA", "review_count": 115, "categories": [{"alias": "thai", "title": "Thai"}, {"alias": "bubbletea", "title": "Bubble Tea"}, {"alias": "comfortfood", "title": "Comfort Food"}], "rating": 3.0, "coordinates": {"latitude": 40.683459, "longitude": -73.967407}, "transactions": ["delivery", "pickup"], "price": "$$", "location": {"address1": "848 Fulton St", "address2": "", "address3": "", "city": "Brooklyn", "zip_code": "11238", "country": "US", "state": "NY", "display_address": ["848 Fulton St", "Brooklyn, NY 11238"]}, "phone": "+17187895931", "display_phone": "(718) 789-5931", "distance": 8421.173404037501}, {"id": "VEjkxniAlG35cR3pjHvF-A", "alias": "sagar-chinese-jackson-heights-jackson-heights", "name": "Sagar Chinese - Jackson Heights", "image_url": "https://s3-media2.fl.yelpcdn.com/bphoto/79ASlhqkAhT4_OTy1HG3Ew/o.jpg", "is_closed": false, "url": "https://www.yelp.com/biz/sagar-chinese-jackson-heights-jackson-heights?adjust_creative=9gNmiWYX8uTbFBeTTvJMdA&utm_campaign=yelp_api_v3&utm_medium=api_v3_business_search&utm_source=9gNmiWYX8uTbFBeTTvJMdA", "review_count": 160, "categories": [{"alias": "chinese", "title": "Chinese"}, {"alias": "halal", "title": "Halal"}, {"alias": "asianfusion", "title": "Asian Fusion"}], "rating": 3.0, "coordinates": {"latitude": 40.7491052, "longitude": -73.8914956}, "transactions": ["delivery", "pickup"], "price": "$$", "location": {"address1": "74-19 37th Ave", "address2": null, "address3": "", "city": "Jackson Heights", "zip_code": "11372", "country": "US", "state": "NY", "display_address": ["74-19 37th Ave", "Jackson Heights, NY 11372"]}, "phone": "+17185051002", "display_phone": "(718) 505-1002", "distance": 6684.537581859414}, {"id": "5XX0FUAsdkrlBM_PQ8svZA", "alias": "chili-wok-corona-2", "name": "Chili Wok", "image_url": "", "is_closed": false, "url": "https://www.yelp.com/biz/chili-wok-corona-2?adjust_creative=9gNmiWYX8uTbFBeTTvJMdA&utm_campaign=yelp_api_v3&utm_medium=api_v3_business_search&utm_source=9gNmiWYX8uTbFBeTTvJMdA", "review_count": 1, "categories": [{"alias": "asianfusion", "title": "Asian Fusion"}], "rating": 5.0, "coordinates": {"latitude": 40.7527706, "longitude": -73.8712745}, "transactions": ["delivery", "pickup"], "location": {"address1": "35-21 Junction Blvd", "address2": null, "address3": null, "city": "Corona", "zip_code": "11368", "country": "US", "state": "NY", "display_address": ["35-21 Junction Blvd", "Corona, NY 11368"]}, "phone": "+17185040999", "display_phone": "(718) 504-0999", "distance": 8317.688004154814}, {"id": "HNV0DBpqzZJ1NOWr3UNUpw", "alias": "asuka-asian-cuisine-new-york", "name": "Asuka Asian Cuisine", "image_url": "https://s3-media2.fl.yelpcdn.com/bphoto/ms3aYVcENwj6iSoqN9G9WQ/o.jpg", "is_closed": false, "url": "https://www.yelp.com/biz/asuka-asian-cuisine-new-york?adjust_creative=9gNmiWYX8uTbFBeTTvJMdA&utm_campaign=yelp_api_v3&utm_medium=api_v3_business_search&utm_source=9gNmiWYX8uTbFBeTTvJMdA", "review_count": 2, "categories": [{"alias": "asianfusion", "title": "Asian Fusion"}], "rating": 3.0, "coordinates": {"latitude": 40.744143, "longitude": -73.981556}, "transactions": ["delivery"], "location": {"address1": "164 Lexington Ave", "address2": null, "address3": null, "city": "New York", "zip_code": "10016", "country": "US", "state": "NY", "display_address": ["164 Lexington Ave", "New York, NY 10016"]}, "phone": "", "display_phone": "", "distance": 1953.8385303213138}, {"id": "bMhqh_k_QZJMnVstIJzxRw", "alias": "th\u00e1i-son-elmhurst", "name": "Th\u00e1i Son", "image_url": "https://s3-media3.fl.yelpcdn.com/bphoto/8cr7ObOoGetx141kMdBffg/o.jpg", "is_closed": false, "url": "https://www.yelp.com/biz/th%C3%A1i-son-elmhurst?adjust_creative=9gNmiWYX8uTbFBeTTvJMdA&utm_campaign=yelp_api_v3&utm_medium=api_v3_business_search&utm_source=9gNmiWYX8uTbFBeTTvJMdA", "review_count": 536, "categories": [{"alias": "vietnamese", "title": "Vietnamese"}], "rating": 3.5, "coordinates": {"latitude": 40.74637, "longitude": -73.89161}, "transactions": ["delivery"], "price": "$$", "location": {"address1": "40-10 74th St", "address2": "", "address3": "", "city": "Elmhurst", "zip_code": "11373", "country": "US", "state": "NY", "display_address": ["40-10 74th St", "Elmhurst, NY 11373"]}, "phone": "+17184766805", "display_phone": "(718) 476-6805", "distance": 6712.827226009683}, {"id": "rxiY-8y415P7HM68qOlJcw", "alias": "ha-noi-vietnamese-kitchen-brooklyn", "name": "Ha Noi Vietnamese Kitchen", "image_url": "https://s3-media2.fl.yelpcdn.com/bphoto/CDXH6PxDkc8zYQeUUd-AxA/o.jpg", "is_closed": false, "url": "https://www.yelp.com/biz/ha-noi-vietnamese-kitchen-brooklyn?adjust_creative=9gNmiWYX8uTbFBeTTvJMdA&utm_campaign=yelp_api_v3&utm_medium=api_v3_business_search&utm_source=9gNmiWYX8uTbFBeTTvJMdA", "review_count": 302, "categories": [{"alias": "vietnamese", "title": "Vietnamese"}], "rating": 3.5, "coordinates": {"latitude": 40.66666, "longitude": -73.9814899}, "transactions": ["delivery"], "price": "$$", "location": {"address1": "448 9th St", "address2": "", "address3": "", "city": "Brooklyn", "zip_code": "11215", "country": "US", "state": "NY", "display_address": ["448 9th St", "Brooklyn, NY 11215"]}, "phone": "+17187887755", "display_phone": "(718) 788-7755", "distance": 10340.400011758531}, {"id": "I8X2NYRYHdWrGrxIHZFJ5A", "alias": "tangra-asian-fusion-cuisine-sunnyside", "name": "Tangra Asian Fusion Cuisine", "image_url": "https://s3-media1.fl.yelpcdn.com/bphoto/lJOjJJcM8Ad7bDYg0aZG5w/o.jpg", "is_closed": false, "url": "https://www.yelp.com/biz/tangra-asian-fusion-cuisine-sunnyside?adjust_creative=9gNmiWYX8uTbFBeTTvJMdA&utm_campaign=yelp_api_v3&utm_medium=api_v3_business_search&utm_source=9gNmiWYX8uTbFBeTTvJMdA", "review_count": 293, "categories": [{"alias": "halal", "title": "Halal"}, {"alias": "indpak", "title": "Indian"}, {"alias": "asianfusion", "title": "Asian Fusion"}], "rating": 3.0, "coordinates": {"latitude": 40.74427, "longitude": -73.92489}, "transactions": ["delivery", "pickup"], "price": "$$", "location": {"address1": "3923 Queens Blvd", "address2": "", "address3": "", "city": "Sunnyside", "zip_code": "11104", "country": "US", "state": "NY", "display_address": ["3923 Queens Blvd", "Sunnyside, NY 11104"]}, "phone": "+17187868008", "display_phone": "(718) 786-8008", "distance": 4112.3317642649745}], "total": 1700, "region": {"center": {"longitude": -73.96957397460938, "latitude": 40.75917470627005}}}