{"businesses": [{"id": "ihBRikaKYVdJ7M0gVEGjZg", "alias": "mao-mao-brooklyn", "name": "Mao Mao", "image_url": "https://s3-media4.fl.yelpcdn.com/bphoto/Y9U30z_aX2CdSCSTn879fg/o.jpg", "is_closed": false, "url": "https://www.yelp.com/biz/mao-mao-brooklyn?adjust_creative=9gNmiWYX8uTbFBeTTvJMdA&utm_campaign=yelp_api_v3&utm_medium=api_v3_business_search&utm_source=9gNmiWYX8uTbFBeTTvJMdA", "review_count": 76, "categories": [{"alias": "thai", "title": "Thai"}], "rating": 4.0, "coordinates": {"latitude": 40.69583, "longitude": -73.933508}, "transactions": ["delivery"], "price": "$$", "location": {"address1": "1000 Bdwy", "address2": null, "address3": "", "city": "Brooklyn", "zip_code": "11221", "country": "US", "state": "NY", "display_address": ["1000 Bdwy", "Brooklyn, NY 11221"]}, "phone": "+19178330895", "display_phone": "(917) 833-0895", "distance": 7671.285730482746}, {"id": "6ZZUTGtH25tLN1SiM029ig", "alias": "yum-yum-too-new-york", "name": "Yum Yum Too", "image_url": "https://s3-media2.fl.yelpcdn.com/bphoto/3-8FP_DqetuuEx3d0W8_5Q/o.jpg", "is_closed": false, "url": "https://www.yelp.com/biz/yum-yum-too-new-york?adjust_creative=9gNmiWYX8uTbFBeTTvJMdA&utm_campaign=yelp_api_v3&utm_medium=api_v3_business_search&utm_source=9gNmiWYX8uTbFBeTTvJMdA", "review_count": 520, "categories": [{"alias": "thai", "title": "Thai"}], "rating": 3.5, "coordinates": {"latitude": 40.76098, "longitude": -73.99047}, "transactions": ["pickup", "delivery"], "price": "$$", "location": {"address1": "662 9th Ave", "address2": "", "address3": "", "city": "New York", "zip_code": "10036", "country": "US", "state": "NY", "display_address": ["662 9th Ave", "New York, NY 10036"]}, "phone": "+12122472228", "display_phone": "(212) 247-2228", "distance": 1775.8856465779843}, {"id": "a5H9p1B6m6WPVjakPylvdA", "alias": "spicy-shallot-elmhurst", "name": "Spicy Shallot", "image_url": "https://s3-media2.fl.yelpcdn.com/bphoto/WIhxLKWZLM1Sh_OvudfQbA/o.jpg", "is_closed": false, "url": "https://www.yelp.com/biz/spicy-shallot-elmhurst?adjust_creative=9gNmiWYX8uTbFBeTTvJMdA&utm_campaign=yelp_api_v3&utm_medium=api_v3_business_search&utm_source=9gNmiWYX8uTbFBeTTvJMdA", "review_count": 728, "categories": [{"alias": "thai", "title": "Thai"}, {"alias": "japanese", "title": "Japanese"}, {"alias": "bars", "title": "Bars"}], "rating": 4.0, "coordinates": {"latitude": 40.7437053273707, "longitude": -73.8878916857991}, "transactions": ["pickup", "delivery"], "price": "$$", "location": {"address1": "7701 Woodside Ave", "address2": "", "address3": "", "city": "Elmhurst", "zip_code": "11373", "country": "US", "state": "NY", "display_address": ["7701 Woodside Ave", "Elmhurst, NY 11373"]}, "phone": "+17186725266", "display_phone": "(718) 672-5266", "distance": 7092.2984547782235}, {"id": "Wq9cARVEwOmoqfg41mNRNg", "alias": "noree-new-york-2", "name": "Noree ", "image_url": "https://s3-media3.fl.yelpcdn.com/bphoto/Lz3gP6NlNHAjO5ecuGwZxg/o.jpg", "is_closed": false, "url": "https://www.yelp.com/biz/noree-new-york-2?adjust_creative=9gNmiWYX8uTbFBeTTvJMdA&utm_campaign=yelp_api_v3&utm_medium=api_v3_business_search&utm_source=9gNmiWYX8uTbFBeTTvJMdA", "review_count": 203, "categories": [{"alias": "lounges", "title": "Lounges"}, {"alias": "cocktailbars", "title": "Cocktail Bars"}, {"alias": "asianfusion", "title": "Asian Fusion"}], "rating": 4.0, "coordinates": {"latitude": 40.718082705767486, "longitude": -73.9928564}, "transactions": ["pickup", "delivery", "restaurant_reservation"], "price": "$$", "location": {"address1": "274 Grand St", "address2": "", "address3": null, "city": "New York", "zip_code": "10002", "country": "US", "state": "NY", "display_address": ["274 Grand St", "New York, NY 10002"]}, "phone": "+16468640338", "display_phone": "(646) 864-0338", "distance": 4972.479612826212}, {"id": "jKDXlyPG-2rmcp9Ej6jPLA", "alias": "living-thai-new-york-2", "name": "Living Thai", "image_url": "https://s3-media3.fl.yelpcdn.com/bphoto/QG5IB-PnYp0HYlYyk6LcNw/o.jpg", "is_closed": false, "url": "https://www.yelp.com/biz/living-thai-new-york-2?adjust_creative=9gNmiWYX8uTbFBeTTvJMdA&utm_campaign=yelp_api_v3&utm_medium=api_v3_business_search&utm_source=9gNmiWYX8uTbFBeTTvJMdA", "review_count": 146, "categories": [{"alias": "thai", "title": "Thai"}, {"alias": "desserts", "title": "Desserts"}, {"alias": "soup", "title": "Soup"}], "rating": 4.0, "coordinates": {"latitude": 40.8001, "longitude": -73.96574}, "transactions": ["pickup", "delivery"], "price": "$$", "location": {"address1": "931 Amsterdam Ave", "address2": null, "address3": null, "city": "New York", "zip_code": "10025", "country": "US", "state": "NY", "display_address": ["931 Amsterdam Ave", "New York, NY 10025"]}, "phone": "+12122222600", "display_phone": "(212) 222-2600", "distance": 4568.377497792994}, {"id": "AybQUv47u16bwg83kqNf5w", "alias": "wan-wan-new-york-2", "name": "Wan Wan", "image_url": "https://s3-media2.fl.yelpcdn.com/bphoto/HwK4pWjlHTxecXju5PDYpg/o.jpg", "is_closed": false, "url": "https://www.yelp.com/biz/wan-wan-new-york-2?adjust_creative=9gNmiWYX8uTbFBeTTvJMdA&utm_campaign=yelp_api_v3&utm_medium=api_v3_business_search&utm_source=9gNmiWYX8uTbFBeTTvJMdA", "review_count": 69, "categories": [{"alias": "thai", "title": "Thai"}], "rating": 4.5, "coordinates": {"latitude": 40.7218, "longitude": -73.99643}, "transactions": [], "location": {"address1": "209 Mulberry St", "address2": "", "address3": null, "city": "New York", "zip_code": "10012", "country": "US", "state": "NY", "display_address": ["209 Mulberry St", "New York, NY 10012"]}, "phone": "+12128886278", "display_phone": "(212) 888-6278", "distance": 4735.022927245882}, {"id": "R7mKCkD9ZZfeec92GW7esQ", "alias": "bangkok-2-thai-new-york", "name": "Bangkok 2 Thai", "image_url": "https://s3-media2.fl.yelpcdn.com/bphoto/gW6f39kPdz5tMOpOLVZBKA/o.jpg", "is_closed": false, "url": "https://www.yelp.com/biz/bangkok-2-thai-new-york?adjust_creative=9gNmiWYX8uTbFBeTTvJMdA&utm_campaign=yelp_api_v3&utm_medium=api_v3_business_search&utm_source=9gNmiWYX8uTbFBeTTvJMdA", "review_count": 217, "categories": [{"alias": "thai", "title": "Thai"}], "rating": 4.0, "coordinates": {"latitude": 40.7352413982153, "longitude": -73.9798079431057}, "transactions": ["pickup", "delivery"], "price": "$$", "location": {"address1": "349 1st Ave", "address2": "", "address3": "", "city": "New York", "zip_code": "10010", "country": "US", "state": "NY", "display_address": ["349 1st Ave", "New York, NY 10010"]}, "phone": "+12124734480", "display_phone": "(212) 473-4480", "distance": 2797.4183409681477}, {"id": "Xst2vGND8hy44VOmbLG3kQ", "alias": "pa-de-thai-restaurant-edgewater", "name": "Pa De Thai Restaurant", "image_url": "https://s3-media2.fl.yelpcdn.com/bphoto/b6LeWDlEx5iR5FuLG_19pA/o.jpg", "is_closed": false, "url": "https://www.yelp.com/biz/pa-de-thai-restaurant-edgewater?adjust_creative=9gNmiWYX8uTbFBeTTvJMdA&utm_campaign=yelp_api_v3&utm_medium=api_v3_business_search&utm_source=9gNmiWYX8uTbFBeTTvJMdA", "review_count": 315, "categories": [{"alias": "thai", "title": "Thai"}], "rating": 3.5, "coordinates": {"latitude": 40.80957, "longitude": -73.990735}, "transactions": ["pickup", "delivery"], "price": "$$", "location": {"address1": "264 Old River Rd", "address2": "", "address3": "", "city": "Edgewater", "zip_code": "07020", "country": "US", "state": "NJ", "display_address": ["264 Old River Rd", "Edgewater, NJ 07020"]}, "phone": "+12019459999", "display_phone": "(201) 945-9999", "distance": 5880.100720646638}, {"id": "Nvhx093-K2xwHIZVnFstJw", "alias": "copper-throat-thai-cuisine-new-york", "name": "Copper Throat Thai Cuisine", "image_url": "https://s3-media2.fl.yelpcdn.com/bphoto/Y9Z5QdncJLK8sHL38uYytw/o.jpg", "is_closed": false, "url": "https://www.yelp.com/biz/copper-throat-thai-cuisine-new-york?adjust_creative=9gNmiWYX8uTbFBeTTvJMdA&utm_campaign=yelp_api_v3&utm_medium=api_v3_business_search&utm_source=9gNmiWYX8uTbFBeTTvJMdA", "review_count": 140, "categories": [{"alias": "thai", "title": "Thai"}], "rating": 4.0, "coordinates": {"latitude": 40.71978, "longitude": -73.98877}, "transactions": ["pickup", "delivery"], "price": "$$", "location": {"address1": "123 Ludlow St", "address2": "", "address3": null, "city": "New York", "zip_code": "10002", "country": "US", "state": "NY", "display_address": ["123 Ludlow St", "New York, NY 10002"]}, "phone": "+19172617891", "display_phone": "(917) 261-7891", "distance": 4665.561607694454}, {"id": "LDScBEu3splSQlhGBEH2hg", "alias": "bao-by-kaya-new-york-4", "name": "Bao by Kaya", "image_url": "https://s3-media3.fl.yelpcdn.com/bphoto/nS60sFysLMyJAyMdKvLG-A/o.jpg", "is_closed": false, "url": "https://www.yelp.com/biz/bao-by-kaya-new-york-4?adjust_creative=9gNmiWYX8uTbFBeTTvJMdA&utm_campaign=yelp_api_v3&utm_medium=api_v3_business_search&utm_source=9gNmiWYX8uTbFBeTTvJMdA", "review_count": 213, "categories": [{"alias": "taiwanese", "title": "Taiwanese"}, {"alias": "coffee", "title": "Coffee & Tea"}, {"alias": "asianfusion", "title": "Asian Fusion"}], "rating": 4.0, "coordinates": {"latitude": 40.7569200941962, "longitude": -73.9723208919168}, "transactions": [], "price": "$$", "location": {"address1": "570 Lexington Ave", "address2": "", "address3": null, "city": "New York", "zip_code": "10022", "country": "US", "state": "NY", "display_address": ["570 Lexington Ave", "New York, NY 10022"]}, "phone": "+19294219987", "display_phone": "(929) 421-9987", "distance": 341.1462503330185}, {"id": "qtDKasElRD_CPw7HnIOXHA", "alias": "island-thai-street-food-new-york", "name": "Island Thai Street Food", "image_url": "https://s3-media2.fl.yelpcdn.com/bphoto/cmAgPNWjxUNfsIbGT3dvCw/o.jpg", "is_closed": false, "url": "https://www.yelp.com/biz/island-thai-street-food-new-york?adjust_creative=9gNmiWYX8uTbFBeTTvJMdA&utm_campaign=yelp_api_v3&utm_medium=api_v3_business_search&utm_source=9gNmiWYX8uTbFBeTTvJMdA", "review_count": 1, "categories": [{"alias": "thai", "title": "Thai"}, {"alias": "foodstands", "title": "Food Stands"}], "rating": 4.0, "coordinates": {"latitude": 40.758373260498, "longitude": -73.9680099487305}, "transactions": [], "location": {"address1": "", "address2": "", "address3": "", "city": "New York", "zip_code": "10022", "country": "US", "state": "NY", "display_address": ["New York, NY 10022"]}, "phone": "", "display_phone": "", "distance": 29.91304878595567}, {"id": "jiQMBtFQ0nY1hv3vRPM66w", "alias": "the-nuaa-table-brooklyn", "name": "The Nuaa Table", "image_url": "https://s3-media4.fl.yelpcdn.com/bphoto/vLMUNKUueybtbfXFf3Anww/o.jpg", "is_closed": false, "url": "https://www.yelp.com/biz/the-nuaa-table-brooklyn?adjust_creative=9gNmiWYX8uTbFBeTTvJMdA&utm_campaign=yelp_api_v3&utm_medium=api_v3_business_search&utm_source=9gNmiWYX8uTbFBeTTvJMdA", "review_count": 71, "categories": [{"alias": "thai", "title": "Thai"}], "rating": 4.5, "coordinates": {"latitude": 40.679366, "longitude": -73.968485}, "transactions": ["pickup", "delivery"], "location": {"address1": "638 Bergen St", "address2": "", "address3": null, "city": "Brooklyn", "zip_code": "11238", "country": "US", "state": "NY", "display_address": ["638 Bergen St", "Brooklyn, NY 11238"]}, "phone": "+17186236395", "display_phone": "(718) 623-6395", "distance": 8880.573454643618}, {"id": "StQmfKqdlPPsErC6Qulzfw", "alias": "me-chicken-rice-new-york-2", "name": "ME Chicken Rice", "image_url": "https://s3-media3.fl.yelpcdn.com/bphoto/8-9mxYdb-ij9wLOoYvGCaw/o.jpg", "is_closed": false, "url": "https://www.yelp.com/biz/me-chicken-rice-new-york-2?adjust_creative=9gNmiWYX8uTbFBeTTvJMdA&utm_campaign=yelp_api_v3&utm_medium=api_v3_business_search&utm_source=9gNmiWYX8uTbFBeTTvJMdA", "review_count": 97, "categories": [{"alias": "thai", "title": "Thai"}, {"alias": "chickenshop", "title": "Chicken Shop"}], "rating": 5.0, "coordinates": {"latitude": 40.7305, "longitude": -74.00045}, "transactions": ["pickup", "delivery"], "price": "$$", "location": {"address1": "120 West 3rd St", "address2": null, "address3": "", "city": "New York", "zip_code": "10012", "country": "US", "state": "NY", "display_address": ["120 West 3rd St", "New York, NY 10012"]}, "phone": "+16464550877", "display_phone": "(646) 455-0877", "distance": 4133.461745130256}, {"id": "9UkHgv9R3LakP0vNj6DMIg", "alias": "charm-kao-brooklyn", "name": "Charm Kao", "image_url": "https://s3-media3.fl.yelpcdn.com/bphoto/DAHQe_wP_Skuxrhbt492Mg/o.jpg", "is_closed": false, "url": "https://www.yelp.com/biz/charm-kao-brooklyn?adjust_creative=9gNmiWYX8uTbFBeTTvJMdA&utm_campaign=yelp_api_v3&utm_medium=api_v3_business_search&utm_source=9gNmiWYX8uTbFBeTTvJMdA", "review_count": 90, "categories": [{"alias": "thai", "title": "Thai"}], "rating": 4.5, "coordinates": {"latitude": 40.6892229764259, "longitude": -73.9863216751898}, "transactions": ["pickup", "delivery"], "price": "$$", "location": {"address1": "193 Schermerhorn St", "address2": "", "address3": null, "city": "Brooklyn", "zip_code": "11201", "country": "US", "state": "NY", "display_address": ["193 Schermerhorn St", "Brooklyn, NY 11201"]}, "phone": "+13475991748", "display_phone": "(347) 599-1748", "distance": 7905.271188193477}, {"id": "7lhmzhkct9-blnuBAp_HVQ", "alias": "five-stars-thai-restaurant-union-city", "name": "Five Stars Thai Restaurant", "image_url": "https://s3-media3.fl.yelpcdn.com/bphoto/No9kySQZlPgX-DmlJj_IKQ/o.jpg", "is_closed": false, "url": "https://www.yelp.com/biz/five-stars-thai-restaurant-union-city?adjust_creative=9gNmiWYX8uTbFBeTTvJMdA&utm_campaign=yelp_api_v3&utm_medium=api_v3_business_search&utm_source=9gNmiWYX8uTbFBeTTvJMdA", "review_count": 460, "categories": [{"alias": "thai", "title": "Thai"}], "rating": 4.0, "coordinates": {"latitude": 40.770244549496475, "longitude": -74.0288150168948}, "transactions": ["pickup", "delivery"], "price": "$$", "location": {"address1": "324 29th St", "address2": "", "address3": "", "city": "Union City", "zip_code": "07087", "country": "US", "state": "NJ", "display_address": ["324 29th St", "Union City, NJ 07087"]}, "phone": "+12015831800", "display_phone": "(201) 583-1800", "distance": 5138.799456642823}, {"id": "l_gQf_4NgPMJcx2OkjsMfg", "alias": "noods-n-chill-brooklyn", "name": "Noods n\u2019 Chill", "image_url": "https://s3-media1.fl.yelpcdn.com/bphoto/yonN9MTQEXvSzz7WgU-q4w/o.jpg", "is_closed": false, "url": "https://www.yelp.com/biz/noods-n-chill-brooklyn?adjust_creative=9gNmiWYX8uTbFBeTTvJMdA&utm_campaign=yelp_api_v3&utm_medium=api_v3_business_search&utm_source=9gNmiWYX8uTbFBeTTvJMdA", "review_count": 132, "categories": [{"alias": "thai", "title": "Thai"}], "rating": 4.0, "coordinates": {"latitude": 40.71194, "longitude": -73.96121}, "transactions": ["pickup", "delivery"], "price": "$$", "location": {"address1": "170 S 3rd St", "address2": "", "address3": null, "city": "Brooklyn", "zip_code": "11211", "country": "US", "state": "NY", "display_address": ["170 S 3rd St", "Brooklyn, NY 11211"]}, "phone": "+17183887695", "display_phone": "(718) 388-7695", "distance": 5310.147421437847}, {"id": "_zRVdCfUcx1cwseFycSQdQ", "alias": "thai-farm-kitchen-brooklyn-brooklyn", "name": "Thai Farm Kitchen - Brooklyn", "image_url": "https://s3-media2.fl.yelpcdn.com/bphoto/661jHpPwBqpIeSsEiZH5JQ/o.jpg", "is_closed": false, "url": "https://www.yelp.com/biz/thai-farm-kitchen-brooklyn-brooklyn?adjust_creative=9gNmiWYX8uTbFBeTTvJMdA&utm_campaign=yelp_api_v3&utm_medium=api_v3_business_search&utm_source=9gNmiWYX8uTbFBeTTvJMdA", "review_count": 329, "categories": [{"alias": "thai", "title": "Thai"}], "rating": 4.5, "coordinates": {"latitude": 40.644041754256, "longitude": -73.9760518446565}, "transactions": ["pickup", "delivery"], "price": "$$", "location": {"address1": "416 Church Ave", "address2": "", "address3": null, "city": "Brooklyn", "zip_code": "11218", "country": "US", "state": "NY", "display_address": ["416 Church Ave", "Brooklyn, NY 11218"]}, "phone": "+13475339368", "display_phone": "(347) 533-9368", "distance": 12813.827021983478}, {"id": "7DnZWIn1Dcsvq-_pIXXFZQ", "alias": "hortus-nyc-new-york", "name": "Hortus NYC", "image_url": "https://s3-media3.fl.yelpcdn.com/bphoto/BFyIS0Y1BlwL_t9QHuzBJQ/o.jpg", "is_closed": false, "url": "https://www.yelp.com/biz/hortus-nyc-new-york?adjust_creative=9gNmiWYX8uTbFBeTTvJMdA&utm_campaign=yelp_api_v3&utm_medium=api_v3_business_search&utm_source=9gNmiWYX8uTbFBeTTvJMdA", "review_count": 422, "categories": [{"alias": "asianfusion", "title": "Asian Fusion"}, {"alias": "korean", "title": "Korean"}, {"alias": "tapasmallplates", "title": "Tapas/Small Plates"}], "rating": 4.5, "coordinates": {"latitude": 40.745481, "longitude": -73.986518}, "transactions": ["pickup", "delivery"], "price": "$$$", "location": {"address1": "271 5th Ave", "address2": null, "address3": "", "city": "New York", "zip_code": "10016", "country": "US", "state": "NY", "display_address": ["271 5th Ave", "New York, NY 10016"]}, "phone": "+16468583784", "display_phone": "(646) 858-3784", "distance": 2087.0115010329664}, {"id": "m2_ZNFos5ugAwe8ft8eaEw", "alias": "eim-khao-mun-kai-elmhurst-elmhurst", "name": "Eim Khao Mun Kai Elmhurst", "image_url": "https://s3-media3.fl.yelpcdn.com/bphoto/7vpA-cd9NmOX2XcfMfMgMw/o.jpg", "is_closed": false, "url": "https://www.yelp.com/biz/eim-khao-mun-kai-elmhurst-elmhurst?adjust_creative=9gNmiWYX8uTbFBeTTvJMdA&utm_campaign=yelp_api_v3&utm_medium=api_v3_business_search&utm_source=9gNmiWYX8uTbFBeTTvJMdA", "review_count": 524, "categories": [{"alias": "thai", "title": "Thai"}, {"alias": "hainan", "title": "Hainan"}, {"alias": "chickenshop", "title": "Chicken Shop"}], "rating": 4.0, "coordinates": {"latitude": 40.7429414097644, "longitude": -73.8832733356575}, "transactions": ["pickup", "delivery"], "price": "$", "location": {"address1": "81-32 Broadway", "address2": "", "address3": "", "city": "Elmhurst", "zip_code": "11373", "country": "US", "state": "NY", "display_address": ["81-32 Broadway", "Elmhurst, NY 11373"]}, "phone": "+17184247156", "display_phone": "(718) 424-7156", "distance": 7490.363798005477}, {"id": "B9Mbi12NpBJkZcRtQNtMBA", "alias": "malaysia-grill-new-york", "name": "Malaysia Grill", "image_url": "https://s3-media3.fl.yelpcdn.com/bphoto/XC51vzDoiUxNdqP8sHmghA/o.jpg", "is_closed": false, "url": "https://www.yelp.com/biz/malaysia-grill-new-york?adjust_creative=9gNmiWYX8uTbFBeTTvJMdA&utm_campaign=yelp_api_v3&utm_medium=api_v3_business_search&utm_source=9gNmiWYX8uTbFBeTTvJMdA", "review_count": 338, "categories": [{"alias": "malaysian", "title": "Malaysian"}], "rating": 4.0, "coordinates": {"latitude": 40.79948, "longitude": -73.96775}, "transactions": ["pickup", "delivery"], "price": "$$", "location": {"address1": "224 W 104th St", "address2": "", "address3": "", "city": "New York", "zip_code": "10024", "country": "US", "state": "NY", "display_address": ["224 W 104th St", "New York, NY 10024"]}, "phone": "+12125791333", "display_phone": "(212) 579-1333", "distance": 4475.654263593945}, {"id": "Tmc90kL5jelJ2c9CiGzSFA", "alias": "hi-so-thai-weehawken", "name": "Hi-So Thai", "image_url": "https://s3-media1.fl.yelpcdn.com/bphoto/Zfm1WlGHg3bAaYS2oBjIhQ/o.jpg", "is_closed": false, "url": "https://www.yelp.com/biz/hi-so-thai-weehawken?adjust_creative=9gNmiWYX8uTbFBeTTvJMdA&utm_campaign=yelp_api_v3&utm_medium=api_v3_business_search&utm_source=9gNmiWYX8uTbFBeTTvJMdA", "review_count": 292, "categories": [{"alias": "thai", "title": "Thai"}], "rating": 4.0, "coordinates": {"latitude": 40.7602267, "longitude": -74.027825}, "transactions": ["pickup", "delivery"], "price": "$$", "location": {"address1": "1903 Willow Ave", "address2": "", "address3": "", "city": "Weehawken", "zip_code": "07086", "country": "US", "state": "NJ", "display_address": ["1903 Willow Ave", "Weehawken, NJ 07086"]}, "phone": "+12019020991", "display_phone": "(201) 902-0991", "distance": 4907.5867842738535}, {"id": "dqjko5ndMGayALuhwq3ghQ", "alias": "thailicious-new-york-3", "name": "Thailicious", "image_url": "https://s3-media2.fl.yelpcdn.com/bphoto/Zu4TCkvWV-DdvvCR6Vxo6A/o.jpg", "is_closed": false, "url": "https://www.yelp.com/biz/thailicious-new-york-3?adjust_creative=9gNmiWYX8uTbFBeTTvJMdA&utm_campaign=yelp_api_v3&utm_medium=api_v3_business_search&utm_source=9gNmiWYX8uTbFBeTTvJMdA", "review_count": 242, "categories": [{"alias": "thai", "title": "Thai"}, {"alias": "noodles", "title": "Noodles"}, {"alias": "cocktailbars", "title": "Cocktail Bars"}], "rating": 4.5, "coordinates": {"latitude": 40.71931, "longitude": -73.9851608}, "transactions": ["pickup", "delivery"], "price": "$$", "location": {"address1": "71 Clinton St", "address2": "", "address3": null, "city": "New York", "zip_code": "10002", "country": "US", "state": "NY", "display_address": ["71 Clinton St", "New York, NY 10002"]}, "phone": "+16468820343", "display_phone": "(646) 882-0343", "distance": 4623.17658246414}, {"id": "DguAGioaK6ZIAt_6kk93tA", "alias": "thai-select-new-york", "name": "Thai Select", "image_url": "https://s3-media4.fl.yelpcdn.com/bphoto/cPvhKUKeVyuZnoqnJAV-RA/o.jpg", "is_closed": false, "url": "https://www.yelp.com/biz/thai-select-new-york?adjust_creative=9gNmiWYX8uTbFBeTTvJMdA&utm_campaign=yelp_api_v3&utm_medium=api_v3_business_search&utm_source=9gNmiWYX8uTbFBeTTvJMdA", "review_count": 636, "categories": [{"alias": "thai", "title": "Thai"}], "rating": 3.5, "coordinates": {"latitude": 40.754764, "longitude": -73.994903}, "transactions": ["pickup", "delivery"], "price": "$$", "location": {"address1": "472 9th Ave", "address2": "", "address3": "", "city": "New York", "zip_code": "10018", "country": "US", "state": "NY", "display_address": ["472 9th Ave", "New York, NY 10018"]}, "phone": "+12126959920", "display_phone": "(212) 695-9920", "distance": 2190.271987619002}, {"id": "klAhw3xLQi9GF1tf_HnS7w", "alias": "izakaya-mew-new-york-3", "name": "Izakaya MEW", "image_url": "https://s3-media1.fl.yelpcdn.com/bphoto/YrAtfY_W5ZpMyjqB2XT-kA/o.jpg", "is_closed": false, "url": "https://www.yelp.com/biz/izakaya-mew-new-york-3?adjust_creative=9gNmiWYX8uTbFBeTTvJMdA&utm_campaign=yelp_api_v3&utm_medium=api_v3_business_search&utm_source=9gNmiWYX8uTbFBeTTvJMdA", "review_count": 2738, "categories": [{"alias": "tapas", "title": "Tapas Bars"}, {"alias": "sushi", "title": "Sushi Bars"}, {"alias": "izakaya", "title": "Izakaya"}], "rating": 4.5, "coordinates": {"latitude": 40.750148, "longitude": -73.9863203465939}, "transactions": ["pickup", "delivery"], "price": "$$", "location": {"address1": "53 W 35th St", "address2": "", "address3": "", "city": "New York", "zip_code": "10001", "country": "US", "state": "NY", "display_address": ["53 W 35th St", "New York, NY 10001"]}, "phone": "+16463689384", "display_phone": "(646) 368-9384", "distance": 1731.2329353012585}, {"id": "kXuubLd6s3GidpqU3psPdw", "alias": "chao-thai-elmhurst-3", "name": "Chao Thai", "image_url": "https://s3-media2.fl.yelpcdn.com/bphoto/W0KnuBgQKES3qfERUQstcA/o.jpg", "is_closed": false, "url": "https://www.yelp.com/biz/chao-thai-elmhurst-3?adjust_creative=9gNmiWYX8uTbFBeTTvJMdA&utm_campaign=yelp_api_v3&utm_medium=api_v3_business_search&utm_source=9gNmiWYX8uTbFBeTTvJMdA", "review_count": 407, "categories": [{"alias": "thai", "title": "Thai"}], "rating": 4.0, "coordinates": {"latitude": 40.7414656, "longitude": -73.8801273}, "transactions": ["pickup", "delivery"], "price": "$$", "location": {"address1": "8503 Whitney Ave", "address2": "", "address3": "", "city": "Elmhurst", "zip_code": "11373", "country": "US", "state": "NY", "display_address": ["8503 Whitney Ave", "Elmhurst, NY 11373"]}, "phone": "+17184244999", "display_phone": "(718) 424-4999", "distance": 7775.213916765921}, {"id": "4M-nT45SdA119-lcJg9c9A", "alias": "sabay-thai-restaurant-elmhurst", "name": "Sabay Thai Restaurant", "image_url": "https://s3-media1.fl.yelpcdn.com/bphoto/88V3PD4p-CR4112D15UxNA/o.jpg", "is_closed": false, "url": "https://www.yelp.com/biz/sabay-thai-restaurant-elmhurst?adjust_creative=9gNmiWYX8uTbFBeTTvJMdA&utm_campaign=yelp_api_v3&utm_medium=api_v3_business_search&utm_source=9gNmiWYX8uTbFBeTTvJMdA", "review_count": 156, "categories": [{"alias": "thai", "title": "Thai"}], "rating": 4.0, "coordinates": {"latitude": 40.746098, "longitude": -73.890055}, "transactions": ["pickup", "delivery"], "price": "$$", "location": {"address1": "75-19 Broadway", "address2": "", "address3": "", "city": "Elmhurst", "zip_code": "11373", "country": "US", "state": "NY", "display_address": ["75-19 Broadway", "Elmhurst, NY 11373"]}, "phone": "+17184249054", "display_phone": "(718) 424-9054", "distance": 6854.205934383746}, {"id": "FXFQJmhK6elesopXdhjvFQ", "alias": "amber-new-york-33", "name": "Amber", "image_url": "https://s3-media2.fl.yelpcdn.com/bphoto/T3IKxqwCrFKDry_FQJp2dw/o.jpg", "is_closed": false, "url": "https://www.yelp.com/biz/amber-new-york-33?adjust_creative=9gNmiWYX8uTbFBeTTvJMdA&utm_campaign=yelp_api_v3&utm_medium=api_v3_business_search&utm_source=9gNmiWYX8uTbFBeTTvJMdA", "review_count": 153, "categories": [{"alias": "japanese", "title": "Japanese"}, {"alias": "sushi", "title": "Sushi Bars"}, {"alias": "panasian", "title": "Pan Asian"}], "rating": 4.0, "coordinates": {"latitude": 40.77632084040014, "longitude": -73.97993601948492}, "transactions": ["pickup", "delivery"], "price": "$$", "location": {"address1": "103 W 70th St", "address2": "", "address3": "", "city": "New York", "zip_code": "10023", "country": "US", "state": "NY", "display_address": ["103 W 70th St", "New York, NY 10023"]}, "phone": "+12127998122", "display_phone": "(212) 799-8122", "distance": 2096.7763790369017}, {"id": "xCE6-u-FWcyovRYd2uLG7A", "alias": "nom-nam-new-york", "name": "Nom Nam", "image_url": "https://s3-media2.fl.yelpcdn.com/bphoto/0i32xI6e9qcEGYkrso1O8w/o.jpg", "is_closed": false, "url": "https://www.yelp.com/biz/nom-nam-new-york?adjust_creative=9gNmiWYX8uTbFBeTTvJMdA&utm_campaign=yelp_api_v3&utm_medium=api_v3_business_search&utm_source=9gNmiWYX8uTbFBeTTvJMdA", "review_count": 24, "categories": [{"alias": "vietnamese", "title": "Vietnamese"}, {"alias": "steak", "title": "Steakhouses"}], "rating": 5.0, "coordinates": {"latitude": 40.745414877806624, "longitude": -73.97763863087883}, "transactions": ["pickup", "delivery"], "location": {"address1": "210 E34st", "address2": null, "address3": "", "city": "New York", "zip_code": "10016", "country": "US", "state": "NY", "display_address": ["210 E34st", "New York, NY 10016"]}, "phone": "+13322684788", "display_phone": "(332) 268-4788", "distance": 1674.0498854739692}, {"id": "QVWmn5jmy_TPmg0G71Dk5g", "alias": "sea-brooklyn-2", "name": "Sea", "image_url": "https://s3-media1.fl.yelpcdn.com/bphoto/UbY8oEZIcLzPHPqkHdXYaQ/o.jpg", "is_closed": false, "url": "https://www.yelp.com/biz/sea-brooklyn-2?adjust_creative=9gNmiWYX8uTbFBeTTvJMdA&utm_campaign=yelp_api_v3&utm_medium=api_v3_business_search&utm_source=9gNmiWYX8uTbFBeTTvJMdA", "review_count": 3457, "categories": [{"alias": "thai", "title": "Thai"}, {"alias": "cocktailbars", "title": "Cocktail Bars"}], "rating": 3.5, "coordinates": {"latitude": 40.71807, "longitude": -73.960044}, "transactions": ["pickup", "delivery"], "price": "$$", "location": {"address1": "114 N 6th St", "address2": "", "address3": "", "city": "Brooklyn", "zip_code": "11211", "country": "US", "state": "NY", "display_address": ["114 N 6th St", "Brooklyn, NY 11211"]}, "phone": "+17183848850", "display_phone": "(718) 384-8850", "distance": 4639.84946193074}, {"id": "-YazuZbXAM_NOny8LpLQpQ", "alias": "bkny-thai-restaurant-bayside", "name": "BKNY Thai Restaurant", "image_url": "https://s3-media1.fl.yelpcdn.com/bphoto/Lsuo8owl7-48y2DZKm03TQ/o.jpg", "is_closed": false, "url": "https://www.yelp.com/biz/bkny-thai-restaurant-bayside?adjust_creative=9gNmiWYX8uTbFBeTTvJMdA&utm_campaign=yelp_api_v3&utm_medium=api_v3_business_search&utm_source=9gNmiWYX8uTbFBeTTvJMdA", "review_count": 1457, "categories": [{"alias": "thai", "title": "Thai"}, {"alias": "seafood", "title": "Seafood"}, {"alias": "salad", "title": "Salad"}], "rating": 4.0, "coordinates": {"latitude": 40.7530184239866, "longitude": -73.780074009384}, "transactions": ["delivery"], "price": "$$", "location": {"address1": "47-11 Francis Lewis Blvd", "address2": null, "address3": "", "city": "Bayside", "zip_code": "11361", "country": "US", "state": "NY", "display_address": ["47-11 Francis Lewis Blvd", "Bayside, NY 11361"]}, "phone": "+17182811900", "display_phone": "(718) 281-1900", "distance": 15976.169104396547}, {"id": "9VyMJICKGbC7Y5Ssq-Xk7w", "alias": "the-sabieng-thai-new-york", "name": "The Sabieng Thai", "image_url": "https://s3-media3.fl.yelpcdn.com/bphoto/-Pdcm0C7a4qk61vIXYywCg/o.jpg", "is_closed": false, "url": "https://www.yelp.com/biz/the-sabieng-thai-new-york?adjust_creative=9gNmiWYX8uTbFBeTTvJMdA&utm_campaign=yelp_api_v3&utm_medium=api_v3_business_search&utm_source=9gNmiWYX8uTbFBeTTvJMdA", "review_count": 119, "categories": [{"alias": "thai", "title": "Thai"}], "rating": 4.0, "coordinates": {"latitude": 40.72554, "longitude": -73.98722}, "transactions": ["pickup", "delivery"], "price": "$$", "location": {"address1": "71 1st Ave", "address2": "", "address3": null, "city": "New York", "zip_code": "10003", "country": "US", "state": "NY", "display_address": ["71 1st Ave", "New York, NY 10003"]}, "phone": "+12122532742", "display_phone": "(212) 253-2742", "distance": 4024.650721359407}, {"id": "F8WAp6PLIhM_0mNbVTsSzg", "alias": "bangkok-degree-brooklyn", "name": "Bangkok Degree", "image_url": "https://s3-media4.fl.yelpcdn.com/bphoto/BQ6vLi2L9xoidVrGEj7PSg/o.jpg", "is_closed": false, "url": "https://www.yelp.com/biz/bangkok-degree-brooklyn?adjust_creative=9gNmiWYX8uTbFBeTTvJMdA&utm_campaign=yelp_api_v3&utm_medium=api_v3_business_search&utm_source=9gNmiWYX8uTbFBeTTvJMdA", "review_count": 96, "categories": [{"alias": "thai", "title": "Thai"}], "rating": 4.5, "coordinates": {"latitude": 40.67472327190444, "longitude": -73.9757981977286}, "transactions": ["pickup", "delivery"], "price": "$$", "location": {"address1": "847 Union St", "address2": "Ste A", "address3": "", "city": "Brooklyn", "zip_code": "11215", "country": "US", "state": "NY", "display_address": ["847 Union St", "Ste A", "Brooklyn, NY 11215"]}, "phone": "+17185763962", "display_phone": "(718) 576-3962", "distance": 9405.200947413623}, {"id": "fcCF0Kh_RCbv6KSVlb-Seg", "alias": "sticky-rice-new-york", "name": "Sticky Rice", "image_url": "https://s3-media1.fl.yelpcdn.com/bphoto/6ybK__QK4NgBfcXgCTkVNw/o.jpg", "is_closed": false, "url": "https://www.yelp.com/biz/sticky-rice-new-york?adjust_creative=9gNmiWYX8uTbFBeTTvJMdA&utm_campaign=yelp_api_v3&utm_medium=api_v3_business_search&utm_source=9gNmiWYX8uTbFBeTTvJMdA", "review_count": 418, "categories": [{"alias": "thai", "title": "Thai"}, {"alias": "cocktailbars", "title": "Cocktail Bars"}], "rating": 4.0, "coordinates": {"latitude": 40.71798, "longitude": -73.99042}, "transactions": ["pickup", "delivery"], "price": "$$", "location": {"address1": "85 Orchard St", "address2": "", "address3": "", "city": "New York", "zip_code": "10002", "country": "US", "state": "NY", "display_address": ["85 Orchard St", "New York, NY 10002"]}, "phone": "+12122748208", "display_phone": "(212) 274-8208", "distance": 4910.838890260335}, {"id": "l3aVYfTWVINXaNGxlMz0bQ", "alias": "soho-thai-new-york-8", "name": "Soho Thai", "image_url": "https://s3-media1.fl.yelpcdn.com/bphoto/qkENi3KYQGSZHAuXc-x-xQ/o.jpg", "is_closed": false, "url": "https://www.yelp.com/biz/soho-thai-new-york-8?adjust_creative=9gNmiWYX8uTbFBeTTvJMdA&utm_campaign=yelp_api_v3&utm_medium=api_v3_business_search&utm_source=9gNmiWYX8uTbFBeTTvJMdA", "review_count": 198, "categories": [{"alias": "thai", "title": "Thai"}], "rating": 3.5, "coordinates": {"latitude": 40.720078, "longitude": -73.999641}, "transactions": ["pickup", "delivery"], "price": "$$", "location": {"address1": "141 Grand St", "address2": null, "address3": null, "city": "New York", "zip_code": "10013", "country": "US", "state": "NY", "display_address": ["141 Grand St", "New York, NY 10013"]}, "phone": "+12129668916", "display_phone": "(212) 966-8916", "distance": 5029.849031717995}, {"id": "liGIz8CzhyS1udx1aefjng", "alias": "williamsburg-thai-cuisine-brooklyn", "name": "Williamsburg Thai Cuisine", "image_url": "https://s3-media2.fl.yelpcdn.com/bphoto/_fawd5gh3tmn0Dx9tKbSgg/o.jpg", "is_closed": false, "url": "https://www.yelp.com/biz/williamsburg-thai-cuisine-brooklyn?adjust_creative=9gNmiWYX8uTbFBeTTvJMdA&utm_campaign=yelp_api_v3&utm_medium=api_v3_business_search&utm_source=9gNmiWYX8uTbFBeTTvJMdA", "review_count": 276, "categories": [{"alias": "thai", "title": "Thai"}], "rating": 4.0, "coordinates": {"latitude": 40.71699, "longitude": -73.9588799}, "transactions": ["pickup", "delivery"], "price": "$$", "location": {"address1": "212 Bedford Ave", "address2": null, "address3": "", "city": "Brooklyn", "zip_code": "11249", "country": "US", "state": "NY", "display_address": ["212 Bedford Ave", "Brooklyn, NY 11249"]}, "phone": "+19293377651", "display_phone": "(929) 337-7651", "distance": 4777.659560974074}, {"id": "0GftSP2dRwEzujkv2VKIgA", "alias": "wok-wok-southeast-asian-kitchen-new-york", "name": "Wok Wok Southeast Asian Kitchen", "image_url": "https://s3-media3.fl.yelpcdn.com/bphoto/XOc7n_rq6kYGXySwasouRQ/o.jpg", "is_closed": false, "url": "https://www.yelp.com/biz/wok-wok-southeast-asian-kitchen-new-york?adjust_creative=9gNmiWYX8uTbFBeTTvJMdA&utm_campaign=yelp_api_v3&utm_medium=api_v3_business_search&utm_source=9gNmiWYX8uTbFBeTTvJMdA", "review_count": 1156, "categories": [{"alias": "chinese", "title": "Chinese"}, {"alias": "malaysian", "title": "Malaysian"}, {"alias": "thai", "title": "Thai"}], "rating": 4.0, "coordinates": {"latitude": 40.7140555, "longitude": -73.9988387116394}, "transactions": ["pickup", "delivery"], "price": "$$", "location": {"address1": "11 Mott St", "address2": null, "address3": "", "city": "New York", "zip_code": "10013", "country": "US", "state": "NY", "display_address": ["11 Mott St", "New York, NY 10013"]}, "phone": "+19173883627", "display_phone": "(917) 388-3627", "distance": 5590.176266483338}, {"id": "wFjW3d0PDr2Lb_54RmnB6Q", "alias": "tlk-by-tigerlily-kitchen-new-york-2", "name": "TLK by Tigerlily Kitchen", "image_url": "https://s3-media3.fl.yelpcdn.com/bphoto/5WPH9I1p0xsWF4eroq9dcQ/o.jpg", "is_closed": false, "url": "https://www.yelp.com/biz/tlk-by-tigerlily-kitchen-new-york-2?adjust_creative=9gNmiWYX8uTbFBeTTvJMdA&utm_campaign=yelp_api_v3&utm_medium=api_v3_business_search&utm_source=9gNmiWYX8uTbFBeTTvJMdA", "review_count": 59, "categories": [{"alias": "gluten_free", "title": "Gluten-Free"}, {"alias": "panasian", "title": "Pan Asian"}, {"alias": "cocktailbars", "title": "Cocktail Bars"}], "rating": 4.5, "coordinates": {"latitude": 40.73116944194413, "longitude": -73.98908630204441}, "transactions": ["pickup", "delivery"], "location": {"address1": "58 3rd Ave", "address2": null, "address3": "", "city": "New York", "zip_code": "10003", "country": "US", "state": "NY", "display_address": ["58 3rd Ave", "New York, NY 10003"]}, "phone": "+19293738992", "display_phone": "(929) 373-8992", "distance": 3521.2601265438548}, {"id": "LIsCe_l7kUlv2cUs6AxNQQ", "alias": "suross-thai-bistro-new-york-4", "name": "SUROSS Thai Bistro", "image_url": "https://s3-media3.fl.yelpcdn.com/bphoto/XmGSBRPA_qjqkLM9jL1MXA/o.jpg", "is_closed": false, "url": "https://www.yelp.com/biz/suross-thai-bistro-new-york-4?adjust_creative=9gNmiWYX8uTbFBeTTvJMdA&utm_campaign=yelp_api_v3&utm_medium=api_v3_business_search&utm_source=9gNmiWYX8uTbFBeTTvJMdA", "review_count": 267, "categories": [{"alias": "thai", "title": "Thai"}, {"alias": "seafood", "title": "Seafood"}, {"alias": "soup", "title": "Soup"}], "rating": 4.5, "coordinates": {"latitude": 40.846016, "longitude": -73.9387367}, "transactions": ["pickup", "delivery"], "price": "$$", "location": {"address1": "4131 Broadway", "address2": null, "address3": "", "city": "New York", "zip_code": "10033", "country": "US", "state": "NY", "display_address": ["4131 Broadway", "New York, NY 10033"]}, "phone": "+12127950792", "display_phone": "(212) 795-0792", "distance": 9999.061852560346}, {"id": "4mzogOLOVDPBDVTO4cz9fA", "alias": "roi-siam-union-city", "name": "Roi Siam", "image_url": "https://s3-media2.fl.yelpcdn.com/bphoto/we_G3xswz0N-MMFT1gLSUA/o.jpg", "is_closed": false, "url": "https://www.yelp.com/biz/roi-siam-union-city?adjust_creative=9gNmiWYX8uTbFBeTTvJMdA&utm_campaign=yelp_api_v3&utm_medium=api_v3_business_search&utm_source=9gNmiWYX8uTbFBeTTvJMdA", "review_count": 170, "categories": [{"alias": "thai", "title": "Thai"}], "rating": 4.0, "coordinates": {"latitude": 40.76397, "longitude": -74.03454}, "transactions": ["pickup", "delivery"], "price": "$$", "location": {"address1": "1814 Bergenline Ave", "address2": "Ste 1", "address3": null, "city": "Union City", "zip_code": "07087", "country": "US", "state": "NJ", "display_address": ["1814 Bergenline Ave", "Ste 1", "Union City, NJ 07087"]}, "phone": "+12012230222", "display_phone": "(201) 223-0222", "distance": 5497.751307827985}, {"id": "23NSOmpzzrJTfWmYk8Lp4A", "alias": "lovely-day-new-york", "name": "Lovely Day", "image_url": "https://s3-media1.fl.yelpcdn.com/bphoto/p68xxTI18ucEEXyQ1qL9KA/o.jpg", "is_closed": false, "url": "https://www.yelp.com/biz/lovely-day-new-york?adjust_creative=9gNmiWYX8uTbFBeTTvJMdA&utm_campaign=yelp_api_v3&utm_medium=api_v3_business_search&utm_source=9gNmiWYX8uTbFBeTTvJMdA", "review_count": 390, "categories": [{"alias": "thai", "title": "Thai"}, {"alias": "breakfast_brunch", "title": "Breakfast & Brunch"}, {"alias": "irish", "title": "Irish"}], "rating": 3.5, "coordinates": {"latitude": 40.721774, "longitude": -73.994275}, "transactions": ["pickup", "delivery"], "price": "$$", "location": {"address1": "196 Elizabeth St", "address2": "", "address3": "", "city": "New York", "zip_code": "10012", "country": "US", "state": "NY", "display_address": ["196 Elizabeth St", "New York, NY 10012"]}, "phone": "+12129253310", "display_phone": "(212) 925-3310", "distance": 4650.383770488559}, {"id": "QYr9EO-2FmdpOVUjOyNjgg", "alias": "raenu-continental-thai-restaurant-new-york-2", "name": "Raenu Continental Thai Restaurant", "image_url": "https://s3-media1.fl.yelpcdn.com/bphoto/2hjfBrCueX3W_yQT1hnT0A/o.jpg", "is_closed": false, "url": "https://www.yelp.com/biz/raenu-continental-thai-restaurant-new-york-2?adjust_creative=9gNmiWYX8uTbFBeTTvJMdA&utm_campaign=yelp_api_v3&utm_medium=api_v3_business_search&utm_source=9gNmiWYX8uTbFBeTTvJMdA", "review_count": 127, "categories": [{"alias": "thai", "title": "Thai"}], "rating": 4.0, "coordinates": {"latitude": 40.7974550862067, "longitude": -73.9679066464305}, "transactions": ["pickup", "delivery"], "price": "$$", "location": {"address1": "844 Amsterdam Ave", "address2": "", "address3": null, "city": "New York", "zip_code": "10025", "country": "US", "state": "NY", "display_address": ["844 Amsterdam Ave", "New York, NY 10025"]}, "phone": "+16469985414", "display_phone": "(646) 998-5414", "distance": 4258.893897282767}, {"id": "414qtc1lNAI-HaJ-Gw9puA", "alias": "galanga-new-york", "name": "Galanga", "image_url": "https://s3-media2.fl.yelpcdn.com/bphoto/sJ1OzH9c7cfO9JS36MzINA/o.jpg", "is_closed": false, "url": "https://www.yelp.com/biz/galanga-new-york?adjust_creative=9gNmiWYX8uTbFBeTTvJMdA&utm_campaign=yelp_api_v3&utm_medium=api_v3_business_search&utm_source=9gNmiWYX8uTbFBeTTvJMdA", "review_count": 529, "categories": [{"alias": "thai", "title": "Thai"}], "rating": 3.5, "coordinates": {"latitude": 40.7316, "longitude": -74.00049}, "transactions": ["pickup", "delivery"], "price": "$$", "location": {"address1": "149 W 4th St", "address2": null, "address3": "", "city": "New York", "zip_code": "10012", "country": "US", "state": "NY", "display_address": ["149 W 4th St", "New York, NY 10012"]}, "phone": "+12122284267", "display_phone": "(212) 228-4267", "distance": 4016.9642984647603}, {"id": "QhE50zhSMnQaudpHW1jp7g", "alias": "the-tyger-new-york-2", "name": "The Tyger", "image_url": "https://s3-media2.fl.yelpcdn.com/bphoto/vPgdJweMK7zug1e-oe9Tjw/o.jpg", "is_closed": false, "url": "https://www.yelp.com/biz/the-tyger-new-york-2?adjust_creative=9gNmiWYX8uTbFBeTTvJMdA&utm_campaign=yelp_api_v3&utm_medium=api_v3_business_search&utm_source=9gNmiWYX8uTbFBeTTvJMdA", "review_count": 422, "categories": [{"alias": "cocktailbars", "title": "Cocktail Bars"}, {"alias": "noodles", "title": "Noodles"}, {"alias": "panasian", "title": "Pan Asian"}], "rating": 4.0, "coordinates": {"latitude": 40.71888, "longitude": -73.99951}, "transactions": ["pickup", "delivery"], "price": "$$$", "location": {"address1": "1 Howard St", "address2": null, "address3": null, "city": "New York", "zip_code": "10013", "country": "US", "state": "NY", "display_address": ["1 Howard St", "New York, NY 10013"]}, "phone": "+16463558693", "display_phone": "(646) 355-8693", "distance": 5139.702866880797}, {"id": "Fz5shOVBZ4CF5xUKTq5PqQ", "alias": "b\u1ed1i-licious-new-york", "name": "B\u1ed1i-licious", "image_url": "https://s3-media1.fl.yelpcdn.com/bphoto/zOmGdDZF7AKkKlIe7VghAA/o.jpg", "is_closed": false, "url": "https://www.yelp.com/biz/b%E1%BB%91i-licious-new-york?adjust_creative=9gNmiWYX8uTbFBeTTvJMdA&utm_campaign=yelp_api_v3&utm_medium=api_v3_business_search&utm_source=9gNmiWYX8uTbFBeTTvJMdA", "review_count": 45, "categories": [{"alias": "vietnamese", "title": "Vietnamese"}, {"alias": "soup", "title": "Soup"}, {"alias": "sandwiches", "title": "Sandwiches"}], "rating": 4.5, "coordinates": {"latitude": 40.752174, "longitude": -73.97395}, "transactions": ["pickup", "delivery"], "location": {"address1": "160 E 44th St", "address2": "", "address3": null, "city": "New York", "zip_code": "10017", "country": "US", "state": "NY", "display_address": ["160 E 44th St", "New York, NY 10017"]}, "phone": "+19172616789", "display_phone": "(917) 261-6789", "distance": 861.2972971419777}, {"id": "STx4mlpKJVrjd6eZu4yDIw", "alias": "heng-thai-long-island-city", "name": "Heng Thai", "image_url": "https://s3-media2.fl.yelpcdn.com/bphoto/7IhzWVFC9KOLjj-KvchLSA/o.jpg", "is_closed": false, "url": "https://www.yelp.com/biz/heng-thai-long-island-city?adjust_creative=9gNmiWYX8uTbFBeTTvJMdA&utm_campaign=yelp_api_v3&utm_medium=api_v3_business_search&utm_source=9gNmiWYX8uTbFBeTTvJMdA", "review_count": 37, "categories": [{"alias": "thai", "title": "Thai"}], "rating": 4.0, "coordinates": {"latitude": 40.74491469312005, "longitude": -73.94774386999885}, "transactions": ["pickup", "delivery"], "location": {"address1": "23-06 Jackson Ave", "address2": "", "address3": null, "city": "Long Island City", "zip_code": "11101", "country": "US", "state": "NY", "display_address": ["23-06 Jackson Ave", "Long Island City, NY 11101"]}, "phone": "+17187060999", "display_phone": "(718) 706-0999", "distance": 2428.0918137376766}, {"id": "1Fe4lCiMPNVhoEyjg92frA", "alias": "kati-thai-cuisine-new-york", "name": "Kati Thai Cuisine", "image_url": "https://s3-media2.fl.yelpcdn.com/bphoto/oV6pDm2DmIeAdURA4qyOjg/o.jpg", "is_closed": false, "url": "https://www.yelp.com/biz/kati-thai-cuisine-new-york?adjust_creative=9gNmiWYX8uTbFBeTTvJMdA&utm_campaign=yelp_api_v3&utm_medium=api_v3_business_search&utm_source=9gNmiWYX8uTbFBeTTvJMdA", "review_count": 261, "categories": [{"alias": "thai", "title": "Thai"}], "rating": 4.0, "coordinates": {"latitude": 40.7318077087402, "longitude": -73.98291015625}, "transactions": ["pickup", "delivery"], "price": "$$", "location": {"address1": "347 E 14th St", "address2": "", "address3": "", "city": "New York", "zip_code": "10003", "country": "US", "state": "NY", "display_address": ["347 E 14th St", "New York, NY 10003"]}, "phone": "+12125332046", "display_phone": "(212) 533-2046", "distance": 3250.940139715286}, {"id": "2ZBEE_MJeRdLD1NLiNTnCQ", "alias": "thailands-center-point-woodside-2", "name": "Thailand's Center Point", "image_url": "https://s3-media1.fl.yelpcdn.com/bphoto/LKygi5zQ5NBXF7qo-9wH2A/o.jpg", "is_closed": false, "url": "https://www.yelp.com/biz/thailands-center-point-woodside-2?adjust_creative=9gNmiWYX8uTbFBeTTvJMdA&utm_campaign=yelp_api_v3&utm_medium=api_v3_business_search&utm_source=9gNmiWYX8uTbFBeTTvJMdA", "review_count": 215, "categories": [{"alias": "thai", "title": "Thai"}, {"alias": "seafood", "title": "Seafood"}], "rating": 4.0, "coordinates": {"latitude": 40.746738, "longitude": -73.900162}, "transactions": ["pickup", "delivery"], "price": "$$", "location": {"address1": "63-19 39th Ave", "address2": "", "address3": "", "city": "Woodside", "zip_code": "11377", "country": "US", "state": "NY", "display_address": ["63-19 39th Ave", "Woodside, NY 11377"]}, "phone": "+17186516888", "display_phone": "(718) 651-6888", "distance": 6008.133394013398}, {"id": "e1jwvzY8hU642HSBZZATcw", "alias": "hub-thai-new-york", "name": "Hub Thai", "image_url": "https://s3-media1.fl.yelpcdn.com/bphoto/513ehkaqpyqqb97upBr5Mg/o.jpg", "is_closed": false, "url": "https://www.yelp.com/biz/hub-thai-new-york?adjust_creative=9gNmiWYX8uTbFBeTTvJMdA&utm_campaign=yelp_api_v3&utm_medium=api_v3_business_search&utm_source=9gNmiWYX8uTbFBeTTvJMdA", "review_count": 163, "categories": [{"alias": "thai", "title": "Thai"}], "rating": 4.0, "coordinates": {"latitude": 40.7238123, "longitude": -73.9847935}, "transactions": ["pickup", "delivery"], "price": "$$", "location": {"address1": "50 Avenue A", "address2": "", "address3": null, "city": "New York", "zip_code": "10009", "country": "US", "state": "NY", "display_address": ["50 Avenue A", "New York, NY 10009"]}, "phone": "+12122288221", "display_phone": "(212) 228-8221", "distance": 4135.893049124472}, {"id": "qLxTIOZSOBx3gkkOlPJJfQ", "alias": "tam-sang-thai-kitchen-new-york-3", "name": "Tam Sang Thai Kitchen", "image_url": "https://s3-media4.fl.yelpcdn.com/bphoto/EFJD73I_uNmz9NHV2K0R-A/o.jpg", "is_closed": false, "url": "https://www.yelp.com/biz/tam-sang-thai-kitchen-new-york-3?adjust_creative=9gNmiWYX8uTbFBeTTvJMdA&utm_campaign=yelp_api_v3&utm_medium=api_v3_business_search&utm_source=9gNmiWYX8uTbFBeTTvJMdA", "review_count": 3, "categories": [{"alias": "thai", "title": "Thai"}], "rating": 4.5, "coordinates": {"latitude": 40.744528, "longitude": -73.995674}, "transactions": ["pickup", "delivery"], "location": {"address1": "230 7th Ave", "address2": "", "address3": null, "city": "New York", "zip_code": "10011", "country": "US", "state": "NY", "display_address": ["230 7th Ave", "New York, NY 10011"]}, "phone": "+16468610917", "display_phone": "(646) 861-0917", "distance": 2737.4892008774223}, {"id": "wbDtb47idIoDkzOMX8uEkA", "alias": "thaimee-love-new-york", "name": "Thaimee Love", "image_url": "https://s3-media2.fl.yelpcdn.com/bphoto/8iOLjo9Qayw7Or3l8uHvSA/o.jpg", "is_closed": false, "url": "https://www.yelp.com/biz/thaimee-love-new-york?adjust_creative=9gNmiWYX8uTbFBeTTvJMdA&utm_campaign=yelp_api_v3&utm_medium=api_v3_business_search&utm_source=9gNmiWYX8uTbFBeTTvJMdA", "review_count": 43, "categories": [{"alias": "thai", "title": "Thai"}, {"alias": "soup", "title": "Soup"}, {"alias": "desserts", "title": "Desserts"}], "rating": 3.5, "coordinates": {"latitude": 40.727805192166834, "longitude": -74.00086038258787}, "transactions": ["pickup", "delivery"], "location": {"address1": "116 West Houston", "address2": "", "address3": null, "city": "New York", "zip_code": "10012", "country": "US", "state": "NY", "display_address": ["116 West Houston", "New York, NY 10012"]}, "phone": "+13473252557", "display_phone": "(347) 325-2557", "distance": 4371.9738607478375}], "total": 1700, "region": {"center": {"longitude": -73.96957397460938, "latitude": 40.75917470627005}}}