{"businesses": [{"id": "VpInBiE272MaN1Hi0DA-Zw", "alias": "sachi-asian-bistro-new-york", "name": "Sachi Asian Bistro", "image_url": "https://s3-media3.fl.yelpcdn.com/bphoto/CJOWtcBl19CjkQNGRrPW_g/o.jpg", "is_closed": false, "url": "https://www.yelp.com/biz/sachi-asian-bistro-new-york?adjust_creative=9gNmiWYX8uTbFBeTTvJMdA&utm_campaign=yelp_api_v3&utm_medium=api_v3_business_search&utm_source=9gNmiWYX8uTbFBeTTvJMdA", "review_count": 258, "categories": [{"alias": "sushi", "title": "Sushi Bars"}, {"alias": "panasian", "title": "Pan Asian"}], "rating": 4.0, "coordinates": {"latitude": 40.7478, "longitude": -73.97406}, "transactions": ["pickup", "delivery"], "price": "$$", "location": {"address1": "713 2nd Ave", "address2": "", "address3": "", "city": "New York", "zip_code": "10016", "country": "US", "state": "NY", "display_address": ["713 2nd Ave", "New York, NY 10016"]}, "phone": "+12122971883", "display_phone": "(212) 297-1883", "distance": 1335.3079652887534}, {"id": "UtaqVG_FZGEhJ1xGyNVzMA", "alias": "one-dee-siam-jersey-city-2", "name": "One Dee Siam", "image_url": "https://s3-media3.fl.yelpcdn.com/bphoto/63kQFh-8nZBaDlJQQr0t8A/o.jpg", "is_closed": false, "url": "https://www.yelp.com/biz/one-dee-siam-jersey-city-2?adjust_creative=9gNmiWYX8uTbFBeTTvJMdA&utm_campaign=yelp_api_v3&utm_medium=api_v3_business_search&utm_source=9gNmiWYX8uTbFBeTTvJMdA", "review_count": 103, "categories": [{"alias": "thai", "title": "Thai"}], "rating": 3.5, "coordinates": {"latitude": 40.72030420106932, "longitude": -74.04373644282656}, "transactions": ["delivery"], "price": "$$", "location": {"address1": "137 Newark Ave", "address2": "", "address3": null, "city": "Jersey City", "zip_code": "07302", "country": "US", "state": "NJ", "display_address": ["137 Newark Ave", "Jersey City, NJ 07302"]}, "phone": "+12016857268", "display_phone": "(201) 685-7268", "distance": 7597.467208042499}, {"id": "IZpSGcy19JDDEyJtq-vAXQ", "alias": "ricepot-thai-cookhouse-brooklyn", "name": "Ricepot Thai Cookhouse", "image_url": "https://s3-media1.fl.yelpcdn.com/bphoto/hIFhW1LdJPGEwQLEMR4QsA/o.jpg", "is_closed": false, "url": "https://www.yelp.com/biz/ricepot-thai-cookhouse-brooklyn?adjust_creative=9gNmiWYX8uTbFBeTTvJMdA&utm_campaign=yelp_api_v3&utm_medium=api_v3_business_search&utm_source=9gNmiWYX8uTbFBeTTvJMdA", "review_count": 93, "categories": [{"alias": "thai", "title": "Thai"}, {"alias": "fooddeliveryservices", "title": "Food Delivery Services"}, {"alias": "noodles", "title": "Noodles"}], "rating": 4.5, "coordinates": {"latitude": 40.60474, "longitude": -73.99879}, "transactions": ["pickup", "delivery"], "price": "$$", "location": {"address1": "1972 86th St", "address2": "", "address3": null, "city": "Brooklyn", "zip_code": "11214", "country": "US", "state": "NY", "display_address": ["1972 86th St", "Brooklyn, NY 11214"]}, "phone": "+19142765630", "display_phone": "(914) 276-5630", "distance": 17354.388268007588}, {"id": "mUl0wtO7tPkBocuJqZ-7Dw", "alias": "dun-huang-grand-central-new-york-4", "name": "Dun Huang -  Grand Central", "image_url": "https://s3-media2.fl.yelpcdn.com/bphoto/TmMr0NikR2kI8TXBHZ7qJw/o.jpg", "is_closed": false, "url": "https://www.yelp.com/biz/dun-huang-grand-central-new-york-4?adjust_creative=9gNmiWYX8uTbFBeTTvJMdA&utm_campaign=yelp_api_v3&utm_medium=api_v3_business_search&utm_source=9gNmiWYX8uTbFBeTTvJMdA", "review_count": 303, "categories": [{"alias": "chinese", "title": "Chinese"}, {"alias": "noodles", "title": "Noodles"}], "rating": 4.5, "coordinates": {"latitude": 40.74922, "longitude": -73.97785}, "transactions": ["pickup", "delivery"], "price": "$$", "location": {"address1": "320 Lexington Ave", "address2": null, "address3": null, "city": "New York", "zip_code": "10016", "country": "US", "state": "NY", "display_address": ["320 Lexington Ave", "New York, NY 10016"]}, "phone": "+16469644007", "display_phone": "(646) 964-4007", "distance": 1310.515017201054}, {"id": "6wJOojpF2c4lLeBNbTBB0A", "alias": "baoburg-brooklyn-2", "name": "Baoburg", "image_url": "https://s3-media3.fl.yelpcdn.com/bphoto/dKj992_3gxwfLizCVFBCUA/o.jpg", "is_closed": false, "url": "https://www.yelp.com/biz/baoburg-brooklyn-2?adjust_creative=9gNmiWYX8uTbFBeTTvJMdA&utm_campaign=yelp_api_v3&utm_medium=api_v3_business_search&utm_source=9gNmiWYX8uTbFBeTTvJMdA", "review_count": 299, "categories": [{"alias": "thai", "title": "Thai"}, {"alias": "cocktailbars", "title": "Cocktail Bars"}, {"alias": "vietnamese", "title": "Vietnamese"}], "rating": 4.0, "coordinates": {"latitude": 40.7234929271998, "longitude": -73.9503321851175}, "transactions": ["pickup", "delivery"], "price": "$$", "location": {"address1": "614 Manhattan Ave", "address2": "", "address3": "", "city": "Brooklyn", "zip_code": "11222", "country": "US", "state": "NY", "display_address": ["614 Manhattan Ave", "Brooklyn, NY 11222"]}, "phone": "+17183490011", "display_phone": "(718) 349-0011", "distance": 4286.023716603048}, {"id": "W9t_RWcisBoXMS0iAl7frQ", "alias": "thai-shack-teaneck", "name": "Thai Shack", "image_url": "https://s3-media2.fl.yelpcdn.com/bphoto/w4w56q76mlEB2RMYZ1L3Sg/o.jpg", "is_closed": false, "url": "https://www.yelp.com/biz/thai-shack-teaneck?adjust_creative=9gNmiWYX8uTbFBeTTvJMdA&utm_campaign=yelp_api_v3&utm_medium=api_v3_business_search&utm_source=9gNmiWYX8uTbFBeTTvJMdA", "review_count": 61, "categories": [{"alias": "thai", "title": "Thai"}], "rating": 4.5, "coordinates": {"latitude": 40.889147, "longitude": -74.0215578}, "transactions": ["pickup"], "location": {"address1": "445 Cedar Ln", "address2": "", "address3": null, "city": "Teaneck", "zip_code": "07666", "country": "US", "state": "NJ", "display_address": ["445 Cedar Ln", "Teaneck, NJ 07666"]}, "phone": "+12019280770", "display_phone": "(201) 928-0770", "distance": 15099.668018833743}, {"id": "OPSCHpuBSthP7UwnMm0GSA", "alias": "spice-new-york-14", "name": "Spice", "image_url": "https://s3-media2.fl.yelpcdn.com/bphoto/Z_GhGNfCyrNP3n9lxxJeVg/o.jpg", "is_closed": false, "url": "https://www.yelp.com/biz/spice-new-york-14?adjust_creative=9gNmiWYX8uTbFBeTTvJMdA&utm_campaign=yelp_api_v3&utm_medium=api_v3_business_search&utm_source=9gNmiWYX8uTbFBeTTvJMdA", "review_count": 217, "categories": [{"alias": "thai", "title": "Thai"}, {"alias": "cocktailbars", "title": "Cocktail Bars"}], "rating": 3.5, "coordinates": {"latitude": 40.8016123540962, "longitude": -73.964790176728}, "transactions": ["pickup", "delivery"], "price": "$$", "location": {"address1": "975 Amsterdam Ave", "address2": "", "address3": "", "city": "New York", "zip_code": "10025", "country": "US", "state": "NY", "display_address": ["975 Amsterdam Ave", "New York, NY 10025"]}, "phone": "+12128644168", "display_phone": "(212) 864-4168", "distance": 4736.005316072195}, {"id": "m2Zsy2UAkcDf0cRzk2Yoqw", "alias": "madame-vo-new-york", "name": "Madame Vo", "image_url": "https://s3-media1.fl.yelpcdn.com/bphoto/S_S_ITZlC7r80LnlNTYfcA/o.jpg", "is_closed": false, "url": "https://www.yelp.com/biz/madame-vo-new-york?adjust_creative=9gNmiWYX8uTbFBeTTvJMdA&utm_campaign=yelp_api_v3&utm_medium=api_v3_business_search&utm_source=9gNmiWYX8uTbFBeTTvJMdA", "review_count": 1036, "categories": [{"alias": "vietnamese", "title": "Vietnamese"}], "rating": 4.0, "coordinates": {"latitude": 40.72925, "longitude": -73.98612}, "transactions": ["pickup", "delivery"], "price": "$$", "location": {"address1": "212 E 10th St", "address2": null, "address3": "", "city": "New York", "zip_code": "10003", "country": "US", "state": "NY", "display_address": ["212 E 10th St", "New York, NY 10003"]}, "phone": "+19172612115", "display_phone": "(917) 261-2115", "distance": 3602.8274059421437}, {"id": "W03i9B7wZn2B5p9E_Yn5nw", "alias": "t-thai-hoboken", "name": "T Thai", "image_url": "https://s3-media2.fl.yelpcdn.com/bphoto/LJv3bDkG3Lm8LH8C5ezz7A/o.jpg", "is_closed": false, "url": "https://www.yelp.com/biz/t-thai-hoboken?adjust_creative=9gNmiWYX8uTbFBeTTvJMdA&utm_campaign=yelp_api_v3&utm_medium=api_v3_business_search&utm_source=9gNmiWYX8uTbFBeTTvJMdA", "review_count": 319, "categories": [{"alias": "thai", "title": "Thai"}], "rating": 3.5, "coordinates": {"latitude": 40.737459, "longitude": -74.029991}, "transactions": ["pickup", "delivery"], "price": "$$", "location": {"address1": "102 Hudson St", "address2": "", "address3": "", "city": "Hoboken", "zip_code": "07030", "country": "US", "state": "NJ", "display_address": ["102 Hudson St", "Hoboken, NJ 07030"]}, "phone": "+12013861522", "display_phone": "(201) 386-1522", "distance": 5633.259195643895}, {"id": "2AcDHuatOFXhqJDedZwGiA", "alias": "tung-thong-thai-restaurant-new-york", "name": "Tung Thong Thai Restaurant", "image_url": "https://s3-media3.fl.yelpcdn.com/bphoto/PIIxeFpE91d5XJk_lvEgjg/o.jpg", "is_closed": false, "url": "https://www.yelp.com/biz/tung-thong-thai-restaurant-new-york?adjust_creative=9gNmiWYX8uTbFBeTTvJMdA&utm_campaign=yelp_api_v3&utm_medium=api_v3_business_search&utm_source=9gNmiWYX8uTbFBeTTvJMdA", "review_count": 323, "categories": [{"alias": "thai", "title": "Thai"}], "rating": 3.5, "coordinates": {"latitude": 40.8414062274416, "longitude": -73.9386532729438}, "transactions": ["pickup", "delivery"], "price": "$$", "location": {"address1": "561 W 169th St", "address2": "", "address3": "", "city": "New York", "zip_code": "10032", "country": "US", "state": "NY", "display_address": ["561 W 169th St", "New York, NY 10032"]}, "phone": "+12127955995", "display_phone": "(212) 795-5995", "distance": 9506.926210729405}, {"id": "rxWd1WzIqw-NyUYZMqFRog", "alias": "tiptara-new-york-2", "name": "Tiptara", "image_url": "https://s3-media1.fl.yelpcdn.com/bphoto/ITw7Tcr3j245HLRu79JHng/o.jpg", "is_closed": false, "url": "https://www.yelp.com/biz/tiptara-new-york-2?adjust_creative=9gNmiWYX8uTbFBeTTvJMdA&utm_campaign=yelp_api_v3&utm_medium=api_v3_business_search&utm_source=9gNmiWYX8uTbFBeTTvJMdA", "review_count": 33, "categories": [{"alias": "thai", "title": "Thai"}], "rating": 4.5, "coordinates": {"latitude": 40.7139855, "longitude": -73.9875253}, "transactions": ["pickup", "delivery"], "price": "$$", "location": {"address1": "213 East Broadway", "address2": null, "address3": null, "city": "New York", "zip_code": "10002", "country": "US", "state": "NY", "display_address": ["213 East Broadway", "New York, NY 10002"]}, "phone": "+16464102222", "display_phone": "(646) 410-2222", "distance": 5247.499212370954}, {"id": "qtRPV9YANKcXU3OzcUUokw", "alias": "river-thai-edgewater-edgewater", "name": "River Thai Edgewater ", "image_url": "https://s3-media4.fl.yelpcdn.com/bphoto/W3Bsvo9NV4PC-ISYV1x9wQ/o.jpg", "is_closed": false, "url": "https://www.yelp.com/biz/river-thai-edgewater-edgewater?adjust_creative=9gNmiWYX8uTbFBeTTvJMdA&utm_campaign=yelp_api_v3&utm_medium=api_v3_business_search&utm_source=9gNmiWYX8uTbFBeTTvJMdA", "review_count": 239, "categories": [{"alias": "thai", "title": "Thai"}, {"alias": "asianfusion", "title": "Asian Fusion"}, {"alias": "noodles", "title": "Noodles"}], "rating": 3.5, "coordinates": {"latitude": 40.826372, "longitude": -73.975091}, "transactions": ["pickup", "delivery"], "price": "$$", "location": {"address1": "24 Hilliard Ave", "address2": "", "address3": "", "city": "Edgewater", "zip_code": "07020", "country": "US", "state": "NJ", "display_address": ["24 Hilliard Ave", "Edgewater, NJ 07020"]}, "phone": "+12019415688", "display_phone": "(201) 941-5688", "distance": 7487.976070677237}, {"id": "dnCRiUZWgu5ZI4Q-Z-az6Q", "alias": "thai-diva-cuisine-woodside-3", "name": "Thai Diva Cuisine", "image_url": "https://s3-media1.fl.yelpcdn.com/bphoto/pVilflmuFmljVJzKNSMj3g/o.jpg", "is_closed": false, "url": "https://www.yelp.com/biz/thai-diva-cuisine-woodside-3?adjust_creative=9gNmiWYX8uTbFBeTTvJMdA&utm_campaign=yelp_api_v3&utm_medium=api_v3_business_search&utm_source=9gNmiWYX8uTbFBeTTvJMdA", "review_count": 159, "categories": [{"alias": "thai", "title": "Thai"}], "rating": 4.0, "coordinates": {"latitude": 40.7414512, "longitude": -73.9190131}, "transactions": ["pickup", "delivery"], "price": "$$", "location": {"address1": "45-53 46th St", "address2": null, "address3": "", "city": "Woodside", "zip_code": "11377", "country": "US", "state": "NY", "display_address": ["45-53 46th St", "Woodside, NY 11377"]}, "phone": "+19292080282", "display_phone": "(929) 208-0282", "distance": 4692.947590359059}, {"id": "gBoqjD5MTJuGx65QjAhJGg", "alias": "bangkok-city-pelham", "name": "Bangkok City", "image_url": "https://s3-media1.fl.yelpcdn.com/bphoto/kYJX4L-AJVhvfhF-UkAwlg/o.jpg", "is_closed": false, "url": "https://www.yelp.com/biz/bangkok-city-pelham?adjust_creative=9gNmiWYX8uTbFBeTTvJMdA&utm_campaign=yelp_api_v3&utm_medium=api_v3_business_search&utm_source=9gNmiWYX8uTbFBeTTvJMdA", "review_count": 186, "categories": [{"alias": "thai", "title": "Thai"}], "rating": 4.0, "coordinates": {"latitude": 40.9123096, "longitude": -73.8089336}, "transactions": ["pickup", "delivery"], "price": "$$", "location": {"address1": "100 Fifth Ave", "address2": "", "address3": "", "city": "Pelham", "zip_code": "10803", "country": "US", "state": "NY", "display_address": ["100 Fifth Ave", "Pelham, NY 10803"]}, "phone": "+19147387070", "display_phone": "(914) 738-7070", "distance": 21739.04241382399}, {"id": "HXzO3am7-feBYeAVwsInQQ", "alias": "teo-thai-kitchen-new-york", "name": "Teo Thai Kitchen", "image_url": "https://s3-media3.fl.yelpcdn.com/bphoto/Avr4bHUQ1Jz-29RkVQJMOw/o.jpg", "is_closed": false, "url": "https://www.yelp.com/biz/teo-thai-kitchen-new-york?adjust_creative=9gNmiWYX8uTbFBeTTvJMdA&utm_campaign=yelp_api_v3&utm_medium=api_v3_business_search&utm_source=9gNmiWYX8uTbFBeTTvJMdA", "review_count": 1, "categories": [{"alias": "thai", "title": "Thai"}, {"alias": "chinese", "title": "Chinese"}, {"alias": "noodles", "title": "Noodles"}], "rating": 5.0, "coordinates": {"latitude": 40.71816029228648, "longitude": -73.99208005517721}, "transactions": ["pickup", "delivery"], "location": {"address1": "109 Eldridge St", "address2": "", "address3": null, "city": "New York", "zip_code": "10002", "country": "US", "state": "NY", "display_address": ["109 Eldridge St", "New York, NY 10002"]}, "phone": "+19294947253", "display_phone": "(929) 494-7253", "distance": 4939.0742851991}, {"id": "3KlWyCJ2BikxwcEb0-O4Ww", "alias": "thai-cafe-brooklyn", "name": "Thai Cafe", "image_url": "https://s3-media4.fl.yelpcdn.com/bphoto/DcATb4drQwVyJoyjMX9Ibw/o.jpg", "is_closed": false, "url": "https://www.yelp.com/biz/thai-cafe-brooklyn?adjust_creative=9gNmiWYX8uTbFBeTTvJMdA&utm_campaign=yelp_api_v3&utm_medium=api_v3_business_search&utm_source=9gNmiWYX8uTbFBeTTvJMdA", "review_count": 141, "categories": [{"alias": "thai", "title": "Thai"}], "rating": 3.5, "coordinates": {"latitude": 40.73104, "longitude": -73.95456}, "transactions": ["pickup", "delivery"], "price": "$$", "location": {"address1": "925 Manhattan Ave", "address2": "", "address3": "", "city": "Brooklyn", "zip_code": "11222", "country": "US", "state": "NY", "display_address": ["925 Manhattan Ave", "Brooklyn, NY 11222"]}, "phone": "+17183833562", "display_phone": "(718) 383-3562", "distance": 3376.178948406961}, {"id": "HvN9eVtlm9MnOQCL_GlRSg", "alias": "pho-saigon-new-york-3", "name": "Pho Saigon", "image_url": "https://s3-media1.fl.yelpcdn.com/bphoto/DYoh-E8_RwuXSjZd90tXZQ/o.jpg", "is_closed": false, "url": "https://www.yelp.com/biz/pho-saigon-new-york-3?adjust_creative=9gNmiWYX8uTbFBeTTvJMdA&utm_campaign=yelp_api_v3&utm_medium=api_v3_business_search&utm_source=9gNmiWYX8uTbFBeTTvJMdA", "review_count": 224, "categories": [{"alias": "vietnamese", "title": "Vietnamese"}], "rating": 3.5, "coordinates": {"latitude": 40.7565899362516, "longitude": -73.9644254744053}, "transactions": ["pickup", "delivery"], "price": "$$", "location": {"address1": "987 1st Ave", "address2": "", "address3": "", "city": "New York", "zip_code": "10022", "country": "US", "state": "NY", "display_address": ["987 1st Ave", "New York, NY 10022"]}, "phone": "+12126886888", "display_phone": "(212) 688-6888", "distance": 520.2437860451365}, {"id": "Swjm9no7DRqhThLlf0EHng", "alias": "sama-street-brooklyn-2", "name": "Sama Street", "image_url": "https://s3-media2.fl.yelpcdn.com/bphoto/bpOzNC_sDqI3x7xRPAp0LQ/o.jpg", "is_closed": false, "url": "https://www.yelp.com/biz/sama-street-brooklyn-2?adjust_creative=9gNmiWYX8uTbFBeTTvJMdA&utm_campaign=yelp_api_v3&utm_medium=api_v3_business_search&utm_source=9gNmiWYX8uTbFBeTTvJMdA", "review_count": 168, "categories": [{"alias": "cocktailbars", "title": "Cocktail Bars"}, {"alias": "panasian", "title": "Pan Asian"}, {"alias": "tapasmallplates", "title": "Tapas/Small Plates"}], "rating": 5.0, "coordinates": {"latitude": 40.7328843, "longitude": -73.9545232327229}, "transactions": ["pickup", "delivery"], "price": "$$$", "location": {"address1": "988 Manhattan Ave", "address2": null, "address3": "", "city": "Brooklyn", "zip_code": "11222", "country": "US", "state": "NY", "display_address": ["988 Manhattan Ave", "Brooklyn, NY 11222"]}, "phone": "+19292763140", "display_phone": "(929) 276-3140", "distance": 3186.472610746617}, {"id": "kA_Cw1YEGskuPuRYzLmgdQ", "alias": "aura-thai-kitchen-fort-lee", "name": "Aura Thai Kitchen", "image_url": "https://s3-media2.fl.yelpcdn.com/bphoto/_g1A0wUDmc7FgT21CSad1g/o.jpg", "is_closed": false, "url": "https://www.yelp.com/biz/aura-thai-kitchen-fort-lee?adjust_creative=9gNmiWYX8uTbFBeTTvJMdA&utm_campaign=yelp_api_v3&utm_medium=api_v3_business_search&utm_source=9gNmiWYX8uTbFBeTTvJMdA", "review_count": 157, "categories": [{"alias": "thai", "title": "Thai"}], "rating": 3.0, "coordinates": {"latitude": 40.8510322570801, "longitude": -73.9706878662109}, "transactions": ["pickup", "delivery"], "price": "$$", "location": {"address1": "210 Main St", "address2": null, "address3": "", "city": "Fort Lee", "zip_code": "07024", "country": "US", "state": "NJ", "display_address": ["210 Main St", "Fort Lee, NJ 07024"]}, "phone": "+12019440009", "display_phone": "(201) 944-0009", "distance": 10215.363538483742}, {"id": "ldE6TJ4lo1OIg0eCig3ICg", "alias": "bonmi-new-york", "name": "BONMi", "image_url": "https://s3-media2.fl.yelpcdn.com/bphoto/v2PhodCoUxdMlIVw6WiS6A/o.jpg", "is_closed": false, "url": "https://www.yelp.com/biz/bonmi-new-york?adjust_creative=9gNmiWYX8uTbFBeTTvJMdA&utm_campaign=yelp_api_v3&utm_medium=api_v3_business_search&utm_source=9gNmiWYX8uTbFBeTTvJMdA", "review_count": 181, "categories": [{"alias": "vietnamese", "title": "Vietnamese"}, {"alias": "sandwiches", "title": "Sandwiches"}], "rating": 3.0, "coordinates": {"latitude": 40.77156664331664, "longitude": -73.9852986}, "transactions": ["pickup", "delivery"], "price": "$$", "location": {"address1": "150 W 62nd St", "address2": null, "address3": "", "city": "New York", "zip_code": "10023", "country": "US", "state": "NY", "display_address": ["150 W 62nd St", "New York, NY 10023"]}, "phone": "+16463465142", "display_phone": "(646) 346-5142", "distance": 1911.129050829128}, {"id": "oNN202L_XcNM-tuDHlgkfg", "alias": "boon-chu-thai-place-elmhurst", "name": "Boon Chu Thai Place", "image_url": "https://s3-media2.fl.yelpcdn.com/bphoto/hvFfxGhp-l7cr6Y7hVYRwQ/o.jpg", "is_closed": false, "url": "https://www.yelp.com/biz/boon-chu-thai-place-elmhurst?adjust_creative=9gNmiWYX8uTbFBeTTvJMdA&utm_campaign=yelp_api_v3&utm_medium=api_v3_business_search&utm_source=9gNmiWYX8uTbFBeTTvJMdA", "review_count": 360, "categories": [{"alias": "thai", "title": "Thai"}], "rating": 4.0, "coordinates": {"latitude": 40.740638, "longitude": -73.879645}, "transactions": ["pickup", "delivery"], "price": "$$", "location": {"address1": "83-18 Broadway", "address2": "", "address3": "", "city": "Elmhurst", "zip_code": "11373", "country": "US", "state": "NY", "display_address": ["83-18 Broadway", "Elmhurst, NY 11373"]}, "phone": "+17188986836", "display_phone": "(718) 898-6836", "distance": 7850.790873140758}, {"id": "D-gd1Gb_Nmc2MN6G0KANMg", "alias": "san-aroy-thai-kitchen-astoria-2", "name": "San Aroy Thai Kitchen", "image_url": "https://s3-media1.fl.yelpcdn.com/bphoto/UjXPbADSouAqNEhxkrfUdw/o.jpg", "is_closed": false, "url": "https://www.yelp.com/biz/san-aroy-thai-kitchen-astoria-2?adjust_creative=9gNmiWYX8uTbFBeTTvJMdA&utm_campaign=yelp_api_v3&utm_medium=api_v3_business_search&utm_source=9gNmiWYX8uTbFBeTTvJMdA", "review_count": 135, "categories": [{"alias": "thai", "title": "Thai"}], "rating": 4.0, "coordinates": {"latitude": 40.7748233734315, "longitude": -73.9137511700392}, "transactions": ["pickup", "delivery"], "price": "$$", "location": {"address1": "2906 23rd Ave", "address2": "", "address3": null, "city": "Astoria", "zip_code": "11105", "country": "US", "state": "NY", "display_address": ["2906 23rd Ave", "Astoria, NY 11105"]}, "phone": "+17185458203", "display_phone": "(718) 545-8203", "distance": 5012.8509086018075}, {"id": "jc_XQPbSCwMHsXLfinXA6A", "alias": "prince-and-i-jersey-city-5", "name": "Prince & I", "image_url": "https://s3-media4.fl.yelpcdn.com/bphoto/C3Jx6r7x5egsUrCsOT9yOg/o.jpg", "is_closed": false, "url": "https://www.yelp.com/biz/prince-and-i-jersey-city-5?adjust_creative=9gNmiWYX8uTbFBeTTvJMdA&utm_campaign=yelp_api_v3&utm_medium=api_v3_business_search&utm_source=9gNmiWYX8uTbFBeTTvJMdA", "review_count": 488, "categories": [{"alias": "thai", "title": "Thai"}, {"alias": "creperies", "title": "Creperies"}, {"alias": "noodles", "title": "Noodles"}], "rating": 4.5, "coordinates": {"latitude": 40.7198, "longitude": -74.04576}, "transactions": ["pickup", "delivery"], "price": "$$", "location": {"address1": "80 Wayne St", "address2": "", "address3": "", "city": "Jersey City", "zip_code": "07302", "country": "US", "state": "NJ", "display_address": ["80 Wayne St", "Jersey City, NJ 07302"]}, "phone": "+12012732438", "display_phone": "(201) 273-2438", "distance": 7780.123719142377}, {"id": "AAXX-WkDd1CW3_GgIVivvw", "alias": "chang-noi-thai-staten-island", "name": "Chang Noi Thai", "image_url": "https://s3-media2.fl.yelpcdn.com/bphoto/U7dUQ5zTV6nXwHpts7s4mQ/o.jpg", "is_closed": false, "url": "https://www.yelp.com/biz/chang-noi-thai-staten-island?adjust_creative=9gNmiWYX8uTbFBeTTvJMdA&utm_campaign=yelp_api_v3&utm_medium=api_v3_business_search&utm_source=9gNmiWYX8uTbFBeTTvJMdA", "review_count": 220, "categories": [{"alias": "thai", "title": "Thai"}], "rating": 4.5, "coordinates": {"latitude": 40.6437040412059, "longitude": -74.0776029179201}, "transactions": ["pickup", "delivery"], "price": "$$", "location": {"address1": "100 Stuyvesant Pl", "address2": "", "address3": null, "city": "Staten Island", "zip_code": "10301", "country": "US", "state": "NY", "display_address": ["100 Stuyvesant Pl", "Staten Island, NY 10301"]}, "phone": "+17184428424", "display_phone": "(718) 442-8424", "distance": 15741.375253169645}, {"id": "nxUs6svpNSL0wAwAA2F34w", "alias": "clifton-thai-restaurant-clifton-3", "name": "Clifton Thai Restaurant", "image_url": "https://s3-media3.fl.yelpcdn.com/bphoto/JQsh7h5_AqtH8ccu13SjyQ/o.jpg", "is_closed": false, "url": "https://www.yelp.com/biz/clifton-thai-restaurant-clifton-3?adjust_creative=9gNmiWYX8uTbFBeTTvJMdA&utm_campaign=yelp_api_v3&utm_medium=api_v3_business_search&utm_source=9gNmiWYX8uTbFBeTTvJMdA", "review_count": 506, "categories": [{"alias": "thai", "title": "Thai"}], "rating": 4.0, "coordinates": {"latitude": 40.8758985, "longitude": -74.1237514}, "transactions": ["pickup", "delivery"], "price": "$$", "location": {"address1": "239 Parker Ave", "address2": "", "address3": "", "city": "Clifton", "zip_code": "07011", "country": "US", "state": "NJ", "display_address": ["239 Parker Ave", "Clifton, NJ 07011"]}, "phone": "+19732531400", "display_phone": "(973) 253-1400", "distance": 18351.796325013733}, {"id": "n7evyqn87ZTJj7QtGxpsww", "alias": "general-green-new-york", "name": "General Green", "image_url": "https://s3-media4.fl.yelpcdn.com/bphoto/b_Ql-YukmJk6RkjFLO--OA/o.jpg", "is_closed": false, "url": "https://www.yelp.com/biz/general-green-new-york?adjust_creative=9gNmiWYX8uTbFBeTTvJMdA&utm_campaign=yelp_api_v3&utm_medium=api_v3_business_search&utm_source=9gNmiWYX8uTbFBeTTvJMdA", "review_count": 24, "categories": [{"alias": "salad", "title": "Salad"}, {"alias": "acaibowls", "title": "Acai Bowls"}, {"alias": "juicebars", "title": "Juice Bars & Smoothies"}], "rating": 4.5, "coordinates": {"latitude": 40.724419, "longitude": -73.950919}, "transactions": ["pickup", "delivery"], "location": {"address1": "650 Manhattan Ave", "address2": null, "address3": "", "city": "New York", "zip_code": "11222", "country": "US", "state": "NY", "display_address": ["650 Manhattan Ave", "New York, NY 11222"]}, "phone": "+17188088866", "display_phone": "(718) 808-8866", "distance": 4166.958582906687}, {"id": "i6CpYdmMYoz712bRWTWVgQ", "alias": "piggyback-by-pig-and-khao-new-york", "name": "Piggyback by Pig and Khao", "image_url": "https://s3-media2.fl.yelpcdn.com/bphoto/rkNJcnKVxlmpKwJ8Z5lGoA/o.jpg", "is_closed": false, "url": "https://www.yelp.com/biz/piggyback-by-pig-and-khao-new-york?adjust_creative=9gNmiWYX8uTbFBeTTvJMdA&utm_campaign=yelp_api_v3&utm_medium=api_v3_business_search&utm_source=9gNmiWYX8uTbFBeTTvJMdA", "review_count": 93, "categories": [{"alias": "cocktailbars", "title": "Cocktail Bars"}, {"alias": "panasian", "title": "Pan Asian"}], "rating": 4.0, "coordinates": {"latitude": 40.747961, "longitude": -73.99163}, "transactions": ["pickup", "delivery"], "location": {"address1": "140 W 30th St", "address2": "", "address3": null, "city": "New York", "zip_code": "10001", "country": "US", "state": "NY", "display_address": ["140 W 30th St", "New York, NY 10001"]}, "phone": "+12122390570", "display_phone": "(212) 239-0570", "distance": 2237.4860940337294}, {"id": "MD-GiizNpmFbuDIdKGzXnA", "alias": "mekong-new-york-2", "name": "Mekong", "image_url": "https://s3-media1.fl.yelpcdn.com/bphoto/geIpDLd7RGS_EdZ12_dU5w/o.jpg", "is_closed": false, "url": "https://www.yelp.com/biz/mekong-new-york-2?adjust_creative=9gNmiWYX8uTbFBeTTvJMdA&utm_campaign=yelp_api_v3&utm_medium=api_v3_business_search&utm_source=9gNmiWYX8uTbFBeTTvJMdA", "review_count": 79, "categories": [{"alias": "thai", "title": "Thai"}, {"alias": "vietnamese", "title": "Vietnamese"}], "rating": 4.0, "coordinates": {"latitude": 40.7984, "longitude": -73.96326}, "transactions": ["pickup", "delivery"], "location": {"address1": "917 Columbus Ave", "address2": null, "address3": "", "city": "New York", "zip_code": "10025", "country": "US", "state": "NY", "display_address": ["917 Columbus Ave", "New York, NY 10025"]}, "phone": "+16466783136", "display_phone": "(646) 678-3136", "distance": 4390.540268133979}, {"id": "mESab-FqL5QqSVsnX72asQ", "alias": "zen-ramen-and-sushi-new-york", "name": "Zen Ramen & Sushi", "image_url": "https://s3-media2.fl.yelpcdn.com/bphoto/-W7fV5FcFuq-KGw_IT_fow/o.jpg", "is_closed": false, "url": "https://www.yelp.com/biz/zen-ramen-and-sushi-new-york?adjust_creative=9gNmiWYX8uTbFBeTTvJMdA&utm_campaign=yelp_api_v3&utm_medium=api_v3_business_search&utm_source=9gNmiWYX8uTbFBeTTvJMdA", "review_count": 2540, "categories": [{"alias": "sushi", "title": "Sushi Bars"}, {"alias": "ramen", "title": "Ramen"}, {"alias": "salad", "title": "Salad"}], "rating": 4.5, "coordinates": {"latitude": 40.75177475474212, "longitude": -73.98897630211589}, "transactions": ["pickup", "delivery"], "price": "$$", "location": {"address1": "150 W 36th street", "address2": "", "address3": "", "city": "New York", "zip_code": "10018", "country": "US", "state": "NY", "display_address": ["150 W 36th street", "New York, NY 10018"]}, "phone": "+16468707509", "display_phone": "(646) 870-7509", "distance": 1829.7215898358247}, {"id": "SoEQRDUNYDZPVSSIhTOG6A", "alias": "muse-brooklyn", "name": "Muse", "image_url": "https://s3-media3.fl.yelpcdn.com/bphoto/uSBvWNseDN7KCPjgfrJwuw/o.jpg", "is_closed": false, "url": "https://www.yelp.com/biz/muse-brooklyn?adjust_creative=9gNmiWYX8uTbFBeTTvJMdA&utm_campaign=yelp_api_v3&utm_medium=api_v3_business_search&utm_source=9gNmiWYX8uTbFBeTTvJMdA", "review_count": 123, "categories": [{"alias": "thai", "title": "Thai"}, {"alias": "cocktailbars", "title": "Cocktail Bars"}], "rating": 4.5, "coordinates": {"latitude": 40.6766485, "longitude": -73.96339957259552}, "transactions": ["pickup", "restaurant_reservation", "delivery"], "price": "$$", "location": {"address1": "689 Washington Ave", "address2": null, "address3": "", "city": "Brooklyn", "zip_code": "11238", "country": "US", "state": "NY", "display_address": ["689 Washington Ave", "Brooklyn, NY 11238"]}, "phone": "+13474420443", "display_phone": "(347) 442-0443", "distance": 9191.227470385043}, {"id": "nIS0a4W7CNDU57cVwUvi9A", "alias": "the-rooster-new-york", "name": "The Rooster", "image_url": "https://s3-media3.fl.yelpcdn.com/bphoto/DDr82j58ooUG2wS7AnHtiQ/o.jpg", "is_closed": false, "url": "https://www.yelp.com/biz/the-rooster-new-york?adjust_creative=9gNmiWYX8uTbFBeTTvJMdA&utm_campaign=yelp_api_v3&utm_medium=api_v3_business_search&utm_source=9gNmiWYX8uTbFBeTTvJMdA", "review_count": 4, "categories": [{"alias": "thai", "title": "Thai"}], "rating": 5.0, "coordinates": {"latitude": 40.788821, "longitude": -73.948453}, "transactions": [], "location": {"address1": "1575 Lexington Ave", "address2": null, "address3": "", "city": "New York", "zip_code": "10029", "country": "US", "state": "NY", "display_address": ["1575 Lexington Ave", "New York, NY 10029"]}, "phone": "+19174751465", "display_phone": "(917) 475-1465", "distance": 3746.1324344776476}, {"id": "sljnE3uoRUmM7aW5f1I3Ug", "alias": "once-more-thai-new-york", "name": "Once More Thai", "image_url": "https://s3-media3.fl.yelpcdn.com/bphoto/KQrMs5uZTnxbjy77czurVA/o.jpg", "is_closed": false, "url": "https://www.yelp.com/biz/once-more-thai-new-york?adjust_creative=9gNmiWYX8uTbFBeTTvJMdA&utm_campaign=yelp_api_v3&utm_medium=api_v3_business_search&utm_source=9gNmiWYX8uTbFBeTTvJMdA", "review_count": 277, "categories": [{"alias": "thai", "title": "Thai"}, {"alias": "chickenshop", "title": "Chicken Shop"}, {"alias": "noodles", "title": "Noodles"}], "rating": 3.5, "coordinates": {"latitude": 40.72103, "longitude": -73.98381}, "transactions": ["pickup", "delivery"], "price": "$$", "location": {"address1": "6 Clinton St", "address2": null, "address3": "", "city": "New York", "zip_code": "10002", "country": "US", "state": "NY", "display_address": ["6 Clinton St", "New York, NY 10002"]}, "phone": "+12122288858", "display_phone": "(212) 228-8858", "distance": 4409.208218765914}, {"id": "7hyQqnnAisSL-nfIWCPziQ", "alias": "chop-shop-new-york", "name": "Chop Shop", "image_url": "https://s3-media1.fl.yelpcdn.com/bphoto/IYfXGgwuUBuUQ_VlFXfkFw/o.jpg", "is_closed": false, "url": "https://www.yelp.com/biz/chop-shop-new-york?adjust_creative=9gNmiWYX8uTbFBeTTvJMdA&utm_campaign=yelp_api_v3&utm_medium=api_v3_business_search&utm_source=9gNmiWYX8uTbFBeTTvJMdA", "review_count": 265, "categories": [{"alias": "asianfusion", "title": "Asian Fusion"}, {"alias": "chinese", "title": "Chinese"}, {"alias": "thai", "title": "Thai"}], "rating": 4.0, "coordinates": {"latitude": 40.7486687, "longitude": -74.0031128}, "transactions": ["pickup", "delivery"], "price": "$$", "location": {"address1": "254 10th Ave", "address2": null, "address3": "", "city": "New York", "zip_code": "10001", "country": "US", "state": "NY", "display_address": ["254 10th Ave", "New York, NY 10001"]}, "phone": "+12128200333", "display_phone": "(212) 820-0333", "distance": 3064.7962738260176}, {"id": "MMotl_bi3-5JRra91A2jLA", "alias": "satay-malaysian-cuisine-hoboken-2", "name": "Satay Malaysian Cuisine", "image_url": "https://s3-media2.fl.yelpcdn.com/bphoto/6OnZfK9BX8PJR9u62BKWKA/o.jpg", "is_closed": false, "url": "https://www.yelp.com/biz/satay-malaysian-cuisine-hoboken-2?adjust_creative=9gNmiWYX8uTbFBeTTvJMdA&utm_campaign=yelp_api_v3&utm_medium=api_v3_business_search&utm_source=9gNmiWYX8uTbFBeTTvJMdA", "review_count": 601, "categories": [{"alias": "malaysian", "title": "Malaysian"}, {"alias": "chinese", "title": "Chinese"}, {"alias": "asianfusion", "title": "Asian Fusion"}], "rating": 4.0, "coordinates": {"latitude": 40.73731, "longitude": -74.03066}, "transactions": ["pickup", "delivery"], "price": "$$", "location": {"address1": "99 Washington St", "address2": null, "address3": "", "city": "Hoboken", "zip_code": "07030", "country": "US", "state": "NJ", "display_address": ["99 Washington St", "Hoboken, NJ 07030"]}, "phone": "+12013868688", "display_phone": "(201) 386-8688", "distance": 5694.103814163136}, {"id": "OWv-LobTHp8MWWZBT2mtIg", "alias": "sawadeja-thai-restaurant-clifton-3", "name": "Sawadeja Thai Restaurant", "image_url": "https://s3-media1.fl.yelpcdn.com/bphoto/Wp_9ub4EolIGRZC8EmIWLQ/o.jpg", "is_closed": false, "url": "https://www.yelp.com/biz/sawadeja-thai-restaurant-clifton-3?adjust_creative=9gNmiWYX8uTbFBeTTvJMdA&utm_campaign=yelp_api_v3&utm_medium=api_v3_business_search&utm_source=9gNmiWYX8uTbFBeTTvJMdA", "review_count": 158, "categories": [{"alias": "thai", "title": "Thai"}], "rating": 4.5, "coordinates": {"latitude": 40.8457617, "longitude": -74.1605865}, "transactions": ["pickup", "delivery"], "price": "$$", "location": {"address1": "64 Market St", "address2": null, "address3": "", "city": "Clifton", "zip_code": "07012", "country": "US", "state": "NJ", "display_address": ["64 Market St", "Clifton, NJ 07012"]}, "phone": "+19739286777", "display_phone": "(973) 928-6777", "distance": 18749.88845458843}, {"id": "W1L0UB1MvlhvkKTF43emSA", "alias": "jaew-hon-new-york-jackson-heights", "name": "Jaew Hon New York", "image_url": "https://s3-media3.fl.yelpcdn.com/bphoto/MI9gJrtK5zuh0nl_D2lRvw/o.jpg", "is_closed": false, "url": "https://www.yelp.com/biz/jaew-hon-new-york-jackson-heights?adjust_creative=9gNmiWYX8uTbFBeTTvJMdA&utm_campaign=yelp_api_v3&utm_medium=api_v3_business_search&utm_source=9gNmiWYX8uTbFBeTTvJMdA", "review_count": 249, "categories": [{"alias": "thai", "title": "Thai"}, {"alias": "hotpot", "title": "Hot Pot"}], "rating": 4.5, "coordinates": {"latitude": 40.7464487, "longitude": -73.8938216}, "transactions": ["pickup", "delivery"], "price": "$$$", "location": {"address1": "71-30 Roosevelt Ave", "address2": "", "address3": null, "city": "Jackson Heights", "zip_code": "11372", "country": "US", "state": "NY", "display_address": ["71-30 Roosevelt Ave", "Jackson Heights, NY 11372"]}, "phone": "+13479353085", "display_phone": "(347) 935-3085", "distance": 6535.9280180790975}, {"id": "KXD44wWmrGf7mzyyr0bikw", "alias": "p-s-kitchen-new-york-3", "name": "P.S. Kitchen", "image_url": "https://s3-media3.fl.yelpcdn.com/bphoto/iGyr8tMU4mcy2zF2DBN4lw/o.jpg", "is_closed": false, "url": "https://www.yelp.com/biz/p-s-kitchen-new-york-3?adjust_creative=9gNmiWYX8uTbFBeTTvJMdA&utm_campaign=yelp_api_v3&utm_medium=api_v3_business_search&utm_source=9gNmiWYX8uTbFBeTTvJMdA", "review_count": 666, "categories": [{"alias": "vegetarian", "title": "Vegetarian"}, {"alias": "bars", "title": "Bars"}, {"alias": "vegan", "title": "Vegan"}], "rating": 4.5, "coordinates": {"latitude": 40.760706, "longitude": -73.986627}, "transactions": ["pickup", "delivery"], "price": "$$", "location": {"address1": "246 W 48th St", "address2": "", "address3": null, "city": "New York", "zip_code": "10036", "country": "US", "state": "NY", "display_address": ["246 W 48th St", "New York, NY 10036"]}, "phone": "+12126517247", "display_phone": "(212) 651-7247", "distance": 1446.3435341803377}, {"id": "1uuxUq-QrUYX-Zal9TvFFQ", "alias": "charm-thai-express-new-york", "name": "Charm Thai Express", "image_url": "https://s3-media1.fl.yelpcdn.com/bphoto/dD-eFxlGGqQZtGjBYbrtNA/o.jpg", "is_closed": false, "url": "https://www.yelp.com/biz/charm-thai-express-new-york?adjust_creative=9gNmiWYX8uTbFBeTTvJMdA&utm_campaign=yelp_api_v3&utm_medium=api_v3_business_search&utm_source=9gNmiWYX8uTbFBeTTvJMdA", "review_count": 105, "categories": [{"alias": "thai", "title": "Thai"}], "rating": 4.0, "coordinates": {"latitude": 40.8139028640919, "longitude": -73.9561226963997}, "transactions": ["pickup", "delivery"], "location": {"address1": "1346 Amsterdam Ave", "address2": "", "address3": null, "city": "New York", "zip_code": "10027", "country": "US", "state": "NY", "display_address": ["1346 Amsterdam Ave", "New York, NY 10027"]}, "phone": "+16467264548", "display_phone": "(646) 726-4548", "distance": 6189.963755303364}, {"id": "-bM9YDomW6BX3zGDHN24XQ", "alias": "curry-house-new-york-3", "name": "Curry House", "image_url": "https://s3-media2.fl.yelpcdn.com/bphoto/JDwUItSZAbZrrTZrm20rfg/o.jpg", "is_closed": false, "url": "https://www.yelp.com/biz/curry-house-new-york-3?adjust_creative=9gNmiWYX8uTbFBeTTvJMdA&utm_campaign=yelp_api_v3&utm_medium=api_v3_business_search&utm_source=9gNmiWYX8uTbFBeTTvJMdA", "review_count": 35, "categories": [{"alias": "malaysian", "title": "Malaysian"}, {"alias": "thai", "title": "Thai"}], "rating": 4.5, "coordinates": {"latitude": 40.7147043540403, "longitude": -73.99770502336152}, "transactions": ["pickup", "restaurant_reservation", "delivery"], "location": {"address1": "9 Pell St", "address2": "", "address3": null, "city": "New York", "zip_code": "10013", "country": "US", "state": "NY", "display_address": ["9 Pell St", "New York, NY 10013"]}, "phone": "+16466785131", "display_phone": "(646) 678-5131", "distance": 5483.553915806395}, {"id": "CY1lJBQatCNo4-_ljlS1rA", "alias": "unique-fusion-restaurant-new-york-2", "name": "Unique Fusion Restaurant", "image_url": "https://s3-media2.fl.yelpcdn.com/bphoto/DasxOMZ07L0urMMNjg9YGg/o.jpg", "is_closed": false, "url": "https://www.yelp.com/biz/unique-fusion-restaurant-new-york-2?adjust_creative=9gNmiWYX8uTbFBeTTvJMdA&utm_campaign=yelp_api_v3&utm_medium=api_v3_business_search&utm_source=9gNmiWYX8uTbFBeTTvJMdA", "review_count": 101, "categories": [{"alias": "asianfusion", "title": "Asian Fusion"}, {"alias": "thai", "title": "Thai"}], "rating": 5.0, "coordinates": {"latitude": 40.8670407799303, "longitude": -73.9210193562469}, "transactions": ["pickup", "delivery"], "price": "$$", "location": {"address1": "586 West 207 St", "address2": null, "address3": "", "city": "New York", "zip_code": "10034", "country": "US", "state": "NY", "display_address": ["586 West 207 St", "New York, NY 10034"]}, "phone": "+12124519556", "display_phone": "(212) 451-9556", "distance": 12671.10013233087}, {"id": "4xQ7ZLWHFALOmJJURDOCUw", "alias": "curry-42-new-york", "name": "Curry 42", "image_url": "https://s3-media1.fl.yelpcdn.com/bphoto/gVHWeLHPhEOpNcKGfSPmTg/o.jpg", "is_closed": false, "url": "https://www.yelp.com/biz/curry-42-new-york?adjust_creative=9gNmiWYX8uTbFBeTTvJMdA&utm_campaign=yelp_api_v3&utm_medium=api_v3_business_search&utm_source=9gNmiWYX8uTbFBeTTvJMdA", "review_count": 6, "categories": [{"alias": "noodles", "title": "Noodles"}, {"alias": "thai", "title": "Thai"}], "rating": 4.0, "coordinates": {"latitude": 40.74998, "longitude": -73.973}, "transactions": [], "location": {"address1": "220 E 42nd St", "address2": "", "address3": null, "city": "New York", "zip_code": "10017", "country": "US", "state": "NY", "display_address": ["220 E 42nd St", "New York, NY 10017"]}, "phone": "", "display_phone": "", "distance": 1105.2990688733635}, {"id": "GbrHNEaB2dcTO0zcatqQKQ", "alias": "gai-chicken-and-rice-new-york-8", "name": "Gai Chicken & Rice", "image_url": "https://s3-media2.fl.yelpcdn.com/bphoto/qoV_ztnch7MIyAtzgp4NAA/o.jpg", "is_closed": false, "url": "https://www.yelp.com/biz/gai-chicken-and-rice-new-york-8?adjust_creative=9gNmiWYX8uTbFBeTTvJMdA&utm_campaign=yelp_api_v3&utm_medium=api_v3_business_search&utm_source=9gNmiWYX8uTbFBeTTvJMdA", "review_count": 4, "categories": [{"alias": "thai", "title": "Thai"}, {"alias": "chicken_wings", "title": "Chicken Wings"}], "rating": 3.5, "coordinates": {"latitude": 40.73979, "longitude": -73.98499}, "transactions": ["pickup", "delivery"], "location": {"address1": "127 E 23rd St", "address2": "", "address3": null, "city": "New York", "zip_code": "10010", "country": "US", "state": "NY", "display_address": ["127 E 23rd St", "New York, NY 10010"]}, "phone": "+16469187565", "display_phone": "(646) 918-7565", "distance": 2512.204555856066}, {"id": "2-z6dRAkKupCyz1LF251pQ", "alias": "jintana-thai-farmhouse-brooklyn", "name": "Jintana Thai Farmhouse", "image_url": "https://s3-media4.fl.yelpcdn.com/bphoto/FbiFS6EDF8RUrIaEwdz-Vg/o.jpg", "is_closed": false, "url": "https://www.yelp.com/biz/jintana-thai-farmhouse-brooklyn?adjust_creative=9gNmiWYX8uTbFBeTTvJMdA&utm_campaign=yelp_api_v3&utm_medium=api_v3_business_search&utm_source=9gNmiWYX8uTbFBeTTvJMdA", "review_count": 189, "categories": [{"alias": "thai", "title": "Thai"}], "rating": 4.0, "coordinates": {"latitude": 40.6665799, "longitude": -73.98211}, "transactions": ["pickup", "delivery"], "price": "$$", "location": {"address1": "344 7th Ave", "address2": "", "address3": null, "city": "Brooklyn", "zip_code": "11215", "country": "US", "state": "NY", "display_address": ["344 7th Ave", "Brooklyn, NY 11215"]}, "phone": "+17187881922", "display_phone": "(718) 788-1922", "distance": 10350.133313243563}, {"id": "DEoUnmEnguWiwlDh3CFm1A", "alias": "thai-peppercorn-new-york-2", "name": "Thai Peppercorn", "image_url": "https://s3-media2.fl.yelpcdn.com/bphoto/aC2_IQXe4CCX0VH2HaUElw/o.jpg", "is_closed": false, "url": "https://www.yelp.com/biz/thai-peppercorn-new-york-2?adjust_creative=9gNmiWYX8uTbFBeTTvJMdA&utm_campaign=yelp_api_v3&utm_medium=api_v3_business_search&utm_source=9gNmiWYX8uTbFBeTTvJMdA", "review_count": 79, "categories": [{"alias": "thai", "title": "Thai"}], "rating": 3.0, "coordinates": {"latitude": 40.78821, "longitude": -73.95363}, "transactions": ["pickup", "delivery"], "price": "$$", "location": {"address1": "1406 Madison Ave", "address2": "", "address3": "", "city": "New York", "zip_code": "10029", "country": "US", "state": "NY", "display_address": ["1406 Madison Ave", "New York, NY 10029"]}, "phone": "+12129876185", "display_phone": "(212) 987-6185", "distance": 3490.2823332242865}, {"id": "ColGPMmJOa6YD44fjS6wfg", "alias": "sri-thai-thai-restaurant-hoboken", "name": "Sri Thai Thai Restaurant", "image_url": "https://s3-media4.fl.yelpcdn.com/bphoto/0Us_gMhfm2ZwuHwSJgzbuQ/o.jpg", "is_closed": false, "url": "https://www.yelp.com/biz/sri-thai-thai-restaurant-hoboken?adjust_creative=9gNmiWYX8uTbFBeTTvJMdA&utm_campaign=yelp_api_v3&utm_medium=api_v3_business_search&utm_source=9gNmiWYX8uTbFBeTTvJMdA", "review_count": 257, "categories": [{"alias": "thai", "title": "Thai"}], "rating": 3.5, "coordinates": {"latitude": 40.74007, "longitude": -74.03116}, "transactions": ["pickup", "delivery"], "price": "$$", "location": {"address1": "234 Bloomfield St", "address2": "", "address3": "", "city": "Hoboken", "zip_code": "07030", "country": "US", "state": "NJ", "display_address": ["234 Bloomfield St", "Hoboken, NJ 07030"]}, "phone": "+12017984822", "display_phone": "(201) 798-4822", "distance": 5605.126683333642}, {"id": "shHhP5lfZwrAYFL3K04_lg", "alias": "hero-thai-izakaya-astoria", "name": "Hero Thai-Izakaya", "image_url": "https://s3-media1.fl.yelpcdn.com/bphoto/3Lbyc5r1zaIo09gCwt2Syg/o.jpg", "is_closed": false, "url": "https://www.yelp.com/biz/hero-thai-izakaya-astoria?adjust_creative=9gNmiWYX8uTbFBeTTvJMdA&utm_campaign=yelp_api_v3&utm_medium=api_v3_business_search&utm_source=9gNmiWYX8uTbFBeTTvJMdA", "review_count": 148, "categories": [{"alias": "thai", "title": "Thai"}, {"alias": "ramen", "title": "Ramen"}, {"alias": "izakaya", "title": "Izakaya"}], "rating": 4.0, "coordinates": {"latitude": 40.76038, "longitude": -73.92257}, "transactions": ["pickup", "delivery"], "price": "$$", "location": {"address1": "34-16 Broadway", "address2": "", "address3": null, "city": "Astoria", "zip_code": "11106", "country": "US", "state": "NY", "display_address": ["34-16 Broadway", "Astoria, NY 11106"]}, "phone": "+17189328826", "display_phone": "(718) 932-8826", "distance": 3960.443120079259}, {"id": "Cebmp5-kEcdb4dBPrMKkWg", "alias": "mayree-new-york", "name": "MayRee", "image_url": "https://s3-media2.fl.yelpcdn.com/bphoto/cmXA9FafebvdU8Bsj45xYA/o.jpg", "is_closed": false, "url": "https://www.yelp.com/biz/mayree-new-york?adjust_creative=9gNmiWYX8uTbFBeTTvJMdA&utm_campaign=yelp_api_v3&utm_medium=api_v3_business_search&utm_source=9gNmiWYX8uTbFBeTTvJMdA", "review_count": 23, "categories": [{"alias": "thai", "title": "Thai"}], "rating": 5.0, "coordinates": {"latitude": 40.72374, "longitude": -73.9893}, "transactions": ["pickup", "delivery"], "location": {"address1": "58 E 1st St", "address2": "", "address3": null, "city": "New York", "zip_code": "10003", "country": "US", "state": "NY", "display_address": ["58 E 1st St", "New York, NY 10003"]}, "phone": "+19299896213", "display_phone": "(929) 989-6213", "distance": 4263.3148863847255}, {"id": "xWUL-j6TQyKQHIfOtetu-Q", "alias": "hangawi-new-york", "name": "HanGawi", "image_url": "https://s3-media2.fl.yelpcdn.com/bphoto/jvUKeXckaOTjBscELCYtgQ/o.jpg", "is_closed": false, "url": "https://www.yelp.com/biz/hangawi-new-york?adjust_creative=9gNmiWYX8uTbFBeTTvJMdA&utm_campaign=yelp_api_v3&utm_medium=api_v3_business_search&utm_source=9gNmiWYX8uTbFBeTTvJMdA", "review_count": 1355, "categories": [{"alias": "vegetarian", "title": "Vegetarian"}, {"alias": "korean", "title": "Korean"}, {"alias": "vegan", "title": "Vegan"}], "rating": 4.0, "coordinates": {"latitude": 40.746612323020926, "longitude": -73.98476051936564}, "transactions": ["pickup", "delivery"], "price": "$$$", "location": {"address1": "12 E 32nd St", "address2": "", "address3": "", "city": "New York", "zip_code": "10016", "country": "US", "state": "NY", "display_address": ["12 E 32nd St", "New York, NY 10016"]}, "phone": "+12122130077", "display_phone": "(212) 213-0077", "distance": 1894.1089025721428}, {"id": "h4wpGRaMue8FSbcMcz1qPg", "alias": "dd-thai-cuisine-rochelle-park", "name": "DD Thai Cuisine", "image_url": "https://s3-media2.fl.yelpcdn.com/bphoto/JIzLYjfGv2B9t_Ke_eBFkg/o.jpg", "is_closed": false, "url": "https://www.yelp.com/biz/dd-thai-cuisine-rochelle-park?adjust_creative=9gNmiWYX8uTbFBeTTvJMdA&utm_campaign=yelp_api_v3&utm_medium=api_v3_business_search&utm_source=9gNmiWYX8uTbFBeTTvJMdA", "review_count": 228, "categories": [{"alias": "thai", "title": "Thai"}], "rating": 4.0, "coordinates": {"latitude": 40.9135404, "longitude": -74.0795847}, "transactions": ["pickup", "delivery"], "price": "$$", "location": {"address1": "184 W Passaic St", "address2": "", "address3": "", "city": "Rochelle Park", "zip_code": "07662", "country": "US", "state": "NJ", "display_address": ["184 W Passaic St", "Rochelle Park, NJ 07662"]}, "phone": "+12018808227", "display_phone": "(201) 880-8227", "distance": 19507.906938602988}, {"id": "iS26QjjC-4GtP0YpoXwI8w", "alias": "zaab-zaab-brooklyn", "name": "Zaab Zaab", "image_url": "https://s3-media2.fl.yelpcdn.com/bphoto/3U1Sa-Pot3Ihd9GfHn6WQA/o.jpg", "is_closed": false, "url": "https://www.yelp.com/biz/zaab-zaab-brooklyn?adjust_creative=9gNmiWYX8uTbFBeTTvJMdA&utm_campaign=yelp_api_v3&utm_medium=api_v3_business_search&utm_source=9gNmiWYX8uTbFBeTTvJMdA", "review_count": 20, "categories": [{"alias": "thai", "title": "Thai"}, {"alias": "seafood", "title": "Seafood"}], "rating": 4.0, "coordinates": {"latitude": 40.71387597679311, "longitude": -73.960393}, "transactions": ["pickup", "delivery"], "location": {"address1": "208 Grand St", "address2": "", "address3": null, "city": "Brooklyn", "zip_code": "11211", "country": "US", "state": "NY", "display_address": ["208 Grand St", "Brooklyn, NY 11211"]}, "phone": "+17185763743", "display_phone": "(718) 576-3743", "distance": 5096.033798698458}], "total": 1700, "region": {"center": {"longitude": -73.96957397460938, "latitude": 40.75917470627005}}}