{"businesses": [{"id": "cPES3ErgMEDnHwRVNQt-hQ", "alias": "czen-restaurant-englewood-englewood-2", "name": "CZEN Restaurant Englewood", "image_url": "https://s3-media3.fl.yelpcdn.com/bphoto/qR8bVz-bTIlwcV5uvzqeuA/o.jpg", "is_closed": false, "url": "https://www.yelp.com/biz/czen-restaurant-englewood-englewood-2?adjust_creative=9gNmiWYX8uTbFBeTTvJMdA&utm_campaign=yelp_api_v3&utm_medium=api_v3_business_search&utm_source=9gNmiWYX8uTbFBeTTvJMdA", "review_count": 37, "categories": [{"alias": "caribbean", "title": "Caribbean"}, {"alias": "asianfusion", "title": "Asian Fusion"}], "rating": 4.5, "coordinates": {"latitude": 40.89547, "longitude": -73.97475}, "transactions": ["delivery", "pickup"], "location": {"address1": "36 N Van Brunt St", "address2": null, "address3": "", "city": "Englewood", "zip_code": "07631", "country": "US", "state": "NJ", "display_address": ["36 N Van Brunt St", "Englewood, NJ 07631"]}, "phone": "+12014319199", "display_phone": "(201) 431-9199", "distance": 15144.086816359633}, {"id": "RnQjRZ9MJrBN9SKiIv3i-A", "alias": "amarin-cafe-brooklyn", "name": "Amarin Cafe", "image_url": "https://s3-media2.fl.yelpcdn.com/bphoto/iKb1LwZdLRxn2UX6X1Sp_w/o.jpg", "is_closed": false, "url": "https://www.yelp.com/biz/amarin-cafe-brooklyn?adjust_creative=9gNmiWYX8uTbFBeTTvJMdA&utm_campaign=yelp_api_v3&utm_medium=api_v3_business_search&utm_source=9gNmiWYX8uTbFBeTTvJMdA", "review_count": 303, "categories": [{"alias": "thai", "title": "Thai"}], "rating": 4.0, "coordinates": {"latitude": 40.72345, "longitude": -73.95087}, "transactions": ["delivery"], "price": "$$", "location": {"address1": "617 Manhattan Ave", "address2": "", "address3": "", "city": "Brooklyn", "zip_code": "11222", "country": "US", "state": "NY", "display_address": ["617 Manhattan Ave", "Brooklyn, NY 11222"]}, "phone": "+17183492788", "display_phone": "(718) 349-2788", "distance": 4272.660173740815}, {"id": "SJmMIWWS267q4d9PLc3zAQ", "alias": "tuk-tuk-tucker-new-york-2", "name": "Tuk Tuk Tucker", "image_url": "https://s3-media1.fl.yelpcdn.com/bphoto/GXWM3YY2-JZgTbcwaePyOQ/o.jpg", "is_closed": false, "url": "https://www.yelp.com/biz/tuk-tuk-tucker-new-york-2?adjust_creative=9gNmiWYX8uTbFBeTTvJMdA&utm_campaign=yelp_api_v3&utm_medium=api_v3_business_search&utm_source=9gNmiWYX8uTbFBeTTvJMdA", "review_count": 5, "categories": [{"alias": "asianfusion", "title": "Asian Fusion"}, {"alias": "dimsum", "title": "Dim Sum"}, {"alias": "foodtrucks", "title": "Food Trucks"}], "rating": 4.5, "coordinates": {"latitude": 40.77037, "longitude": -73.953763}, "transactions": ["delivery", "pickup"], "location": {"address1": "1462 1st Ave", "address2": null, "address3": "", "city": "New York", "zip_code": "10075", "country": "US", "state": "NY", "display_address": ["1462 1st Ave", "New York, NY 10075"]}, "phone": "+19173789113", "display_phone": "(917) 378-9113", "distance": 1822.1987784767937}, {"id": "u0qfikB-ppp6UwoNKqxlRw", "alias": "flame-new-york-3", "name": "Flame", "image_url": "https://s3-media2.fl.yelpcdn.com/bphoto/zXXTDdj7SpxvSZLGAvwsOA/o.jpg", "is_closed": false, "url": "https://www.yelp.com/biz/flame-new-york-3?adjust_creative=9gNmiWYX8uTbFBeTTvJMdA&utm_campaign=yelp_api_v3&utm_medium=api_v3_business_search&utm_source=9gNmiWYX8uTbFBeTTvJMdA", "review_count": 505, "categories": [{"alias": "sushi", "title": "Sushi Bars"}, {"alias": "japanese", "title": "Japanese"}, {"alias": "asianfusion", "title": "Asian Fusion"}], "rating": 4.0, "coordinates": {"latitude": 40.78396, "longitude": -73.97444}, "transactions": ["delivery", "restaurant_reservation", "pickup"], "price": "$$", "location": {"address1": "100 W 82nd St", "address2": null, "address3": "", "city": "New York", "zip_code": "10024", "country": "US", "state": "NY", "display_address": ["100 W 82nd St", "New York, NY 10024"]}, "phone": "+16468700301", "display_phone": "(646) 870-0301", "distance": 2788.8332013229606}, {"id": "0DagPXrDResqZYEIqJSvgg", "alias": "pho-master-168-new-york-4", "name": "Pho Master 168", "image_url": "https://s3-media4.fl.yelpcdn.com/bphoto/xpBRcaWEGgBXfq5MS7Ze-g/o.jpg", "is_closed": false, "url": "https://www.yelp.com/biz/pho-master-168-new-york-4?adjust_creative=9gNmiWYX8uTbFBeTTvJMdA&utm_campaign=yelp_api_v3&utm_medium=api_v3_business_search&utm_source=9gNmiWYX8uTbFBeTTvJMdA", "review_count": 27, "categories": [{"alias": "vietnamese", "title": "Vietnamese"}], "rating": 4.5, "coordinates": {"latitude": 40.7535516, "longitude": -73.9850215}, "transactions": [], "price": "$", "location": {"address1": "W 40th St 6th Ave", "address2": null, "address3": null, "city": "New York", "zip_code": "10018", "country": "US", "state": "NY", "display_address": ["W 40th St 6th Ave", "New York, NY 10018"]}, "phone": "+19176074800", "display_phone": "(917) 607-4800", "distance": 1443.5711775321984}, {"id": "qusZ-K5tzM1EyOa1IEWCHA", "alias": "nourish-brooklyn-4", "name": "Nourish", "image_url": "https://s3-media3.fl.yelpcdn.com/bphoto/Muq80S8STBQgpM6ZV3jUGg/o.jpg", "is_closed": false, "url": "https://www.yelp.com/biz/nourish-brooklyn-4?adjust_creative=9gNmiWYX8uTbFBeTTvJMdA&utm_campaign=yelp_api_v3&utm_medium=api_v3_business_search&utm_source=9gNmiWYX8uTbFBeTTvJMdA", "review_count": 355, "categories": [{"alias": "thai", "title": "Thai"}, {"alias": "asianfusion", "title": "Asian Fusion"}, {"alias": "soup", "title": "Soup"}], "rating": 4.0, "coordinates": {"latitude": 40.677941, "longitude": -73.968455}, "transactions": ["delivery", "pickup"], "price": "$$", "location": {"address1": "637A Vanderbilt Ave", "address2": null, "address3": "", "city": "Brooklyn", "zip_code": "11238", "country": "US", "state": "NY", "display_address": ["637A Vanderbilt Ave", "Brooklyn, NY 11238"]}, "phone": "+17187893981", "display_phone": "(718) 789-3981", "distance": 9031.978091820927}, {"id": "khvnn7cpiYSpe80ue5YLvg", "alias": "ddee-thai-astoria", "name": "Ddee Thai", "image_url": "https://s3-media1.fl.yelpcdn.com/bphoto/mVpYungatdQ1AFuujOjTdA/o.jpg", "is_closed": false, "url": "https://www.yelp.com/biz/ddee-thai-astoria?adjust_creative=9gNmiWYX8uTbFBeTTvJMdA&utm_campaign=yelp_api_v3&utm_medium=api_v3_business_search&utm_source=9gNmiWYX8uTbFBeTTvJMdA", "review_count": 64, "categories": [{"alias": "thai", "title": "Thai"}], "rating": 4.5, "coordinates": {"latitude": 40.762909, "longitude": -73.91325}, "transactions": ["delivery", "pickup"], "price": "$$", "location": {"address1": "42-06 30th Ave", "address2": "", "address3": null, "city": "Astoria", "zip_code": "11103", "country": "US", "state": "NY", "display_address": ["42-06 30th Ave", "Astoria, NY 11103"]}, "phone": "+17186261222", "display_phone": "(718) 626-1222", "distance": 4762.025020868653}, {"id": "pREotiEdCIV1GKSp_pLgNA", "alias": "somtum-der-redhook-new-york", "name": "Somtum Der Redhook", "image_url": "https://s3-media4.fl.yelpcdn.com/bphoto/nGE5LDi2IwnED2vzrs3J5Q/o.jpg", "is_closed": false, "url": "https://www.yelp.com/biz/somtum-der-redhook-new-york?adjust_creative=9gNmiWYX8uTbFBeTTvJMdA&utm_campaign=yelp_api_v3&utm_medium=api_v3_business_search&utm_source=9gNmiWYX8uTbFBeTTvJMdA", "review_count": 76, "categories": [{"alias": "thai", "title": "Thai"}], "rating": 4.5, "coordinates": {"latitude": 40.67707, "longitude": -74.01343}, "transactions": ["delivery", "pickup"], "location": {"address1": "380 Van Brunt St", "address2": null, "address3": "", "city": "New York", "zip_code": "11231", "country": "US", "state": "NY", "display_address": ["380 Van Brunt St", "New York, NY 11231"]}, "phone": "+13472277889", "display_phone": "(347) 227-7889", "distance": 9852.33529274689}, {"id": "_ArDQIKj5qHgmwNnnIaIIg", "alias": "i-am-thai-restaurant-woodside-2", "name": "I Am Thai Restaurant", "image_url": "https://s3-media1.fl.yelpcdn.com/bphoto/XsxNZrzXFFEp_9YtPvGlTw/o.jpg", "is_closed": false, "url": "https://www.yelp.com/biz/i-am-thai-restaurant-woodside-2?adjust_creative=9gNmiWYX8uTbFBeTTvJMdA&utm_campaign=yelp_api_v3&utm_medium=api_v3_business_search&utm_source=9gNmiWYX8uTbFBeTTvJMdA", "review_count": 314, "categories": [{"alias": "thai", "title": "Thai"}, {"alias": "seafood", "title": "Seafood"}, {"alias": "vegan", "title": "Vegan"}], "rating": 4.0, "coordinates": {"latitude": 40.7445421133747, "longitude": -73.9154577255249}, "transactions": ["delivery", "pickup"], "price": "$$", "location": {"address1": "49-08 43rd Ave", "address2": "", "address3": "", "city": "Woodside", "zip_code": "11377", "country": "US", "state": "NY", "display_address": ["49-08 43rd Ave", "Woodside, NY 11377"]}, "phone": "+17184577700", "display_phone": "(718) 457-7700", "distance": 4840.152738571214}, {"id": "40Km2Xn6aGslql9CtuJSbg", "alias": "green-thai-nyc-new-york", "name": "Green Thai NYC", "image_url": "https://s3-media2.fl.yelpcdn.com/bphoto/l1kzCcU4OiXcrjWpSd-pKA/o.jpg", "is_closed": false, "url": "https://www.yelp.com/biz/green-thai-nyc-new-york?adjust_creative=9gNmiWYX8uTbFBeTTvJMdA&utm_campaign=yelp_api_v3&utm_medium=api_v3_business_search&utm_source=9gNmiWYX8uTbFBeTTvJMdA", "review_count": 1, "categories": [{"alias": "thai", "title": "Thai"}], "rating": 4.0, "coordinates": {"latitude": 40.72403347791555, "longitude": -73.98925092208928}, "transactions": ["delivery", "pickup"], "location": {"address1": "58 E 1 St", "address2": "", "address3": "", "city": "New York", "zip_code": "10003", "country": "US", "state": "NY", "display_address": ["58 E 1 St", "New York, NY 10003"]}, "phone": "+17187755691", "display_phone": "(718) 775-5691", "distance": 4244.624388354762}, {"id": "yA29ur97O7B6kYr1g5IoAw", "alias": "aroy-dee-thai-kitchen-new-york", "name": "Aroy Dee Thai Kitchen", "image_url": "https://s3-media1.fl.yelpcdn.com/bphoto/Fq0bdsQNv_14TzwgNo6E9w/o.jpg", "is_closed": false, "url": "https://www.yelp.com/biz/aroy-dee-thai-kitchen-new-york?adjust_creative=9gNmiWYX8uTbFBeTTvJMdA&utm_campaign=yelp_api_v3&utm_medium=api_v3_business_search&utm_source=9gNmiWYX8uTbFBeTTvJMdA", "review_count": 474, "categories": [{"alias": "thai", "title": "Thai"}], "rating": 3.5, "coordinates": {"latitude": 40.7096786, "longitude": -74.0089569}, "transactions": ["delivery", "pickup"], "price": "$$", "location": {"address1": "20 John St", "address2": "", "address3": "", "city": "New York", "zip_code": "10038", "country": "US", "state": "NY", "display_address": ["20 John St", "New York, NY 10038"]}, "phone": "+12125289922", "display_phone": "(212) 528-9922", "distance": 6423.475004990629}, {"id": "eQzQo6XWLHstH5A2IpwXPQ", "alias": "national-brooklyn-2", "name": "National", "image_url": "https://s3-media1.fl.yelpcdn.com/bphoto/opK9lbw9eF0Q-EjpLYgLPw/o.jpg", "is_closed": false, "url": "https://www.yelp.com/biz/national-brooklyn-2?adjust_creative=9gNmiWYX8uTbFBeTTvJMdA&utm_campaign=yelp_api_v3&utm_medium=api_v3_business_search&utm_source=9gNmiWYX8uTbFBeTTvJMdA", "review_count": 443, "categories": [{"alias": "thai", "title": "Thai"}], "rating": 3.5, "coordinates": {"latitude": 40.6871800754375, "longitude": -73.9763717601786}, "transactions": ["delivery", "pickup"], "price": "$$", "location": {"address1": "723 Fulton St", "address2": "", "address3": "", "city": "Brooklyn", "zip_code": "11217", "country": "US", "state": "NY", "display_address": ["723 Fulton St", "Brooklyn, NY 11217"]}, "phone": "+17185223510", "display_phone": "(718) 522-3510", "distance": 8025.899115552213}, {"id": "JRQBzjWWijnJAb0SLqHaxQ", "alias": "khaosan-thai-nyc-brooklyn", "name": "Khaosan Thai Nyc", "image_url": "https://s3-media2.fl.yelpcdn.com/bphoto/_ZpgGa3DP1GAO-VpJhFwnA/o.jpg", "is_closed": false, "url": "https://www.yelp.com/biz/khaosan-thai-nyc-brooklyn?adjust_creative=9gNmiWYX8uTbFBeTTvJMdA&utm_campaign=yelp_api_v3&utm_medium=api_v3_business_search&utm_source=9gNmiWYX8uTbFBeTTvJMdA", "review_count": 15, "categories": [{"alias": "thai", "title": "Thai"}], "rating": 4.5, "coordinates": {"latitude": 40.694537, "longitude": -73.994241}, "transactions": ["delivery", "pickup"], "location": {"address1": "128 Montague St", "address2": null, "address3": "", "city": "Brooklyn", "zip_code": "11201", "country": "US", "state": "NY", "display_address": ["128 Montague St", "Brooklyn, NY 11201"]}, "phone": "+13472940179", "display_phone": "(347) 294-0179", "distance": 7477.5638286561025}, {"id": "1BJo1JcwYHUuk-UfJLEwUQ", "alias": "vera-thai-restaurant-sunnyside", "name": "Vera Thai Restaurant", "image_url": "https://s3-media1.fl.yelpcdn.com/bphoto/06PukTd9bxr6jxZT8V0hlQ/o.jpg", "is_closed": false, "url": "https://www.yelp.com/biz/vera-thai-restaurant-sunnyside?adjust_creative=9gNmiWYX8uTbFBeTTvJMdA&utm_campaign=yelp_api_v3&utm_medium=api_v3_business_search&utm_source=9gNmiWYX8uTbFBeTTvJMdA", "review_count": 79, "categories": [{"alias": "thai", "title": "Thai"}], "rating": 3.5, "coordinates": {"latitude": 40.74386, "longitude": -73.9212}, "transactions": ["delivery", "pickup"], "price": "$$", "location": {"address1": "43-01 Queens Blvd", "address2": "", "address3": null, "city": "Sunnyside", "zip_code": "11104", "country": "US", "state": "NY", "display_address": ["43-01 Queens Blvd", "Sunnyside, NY 11104"]}, "phone": "+17183835040", "display_phone": "(718) 383-5040", "distance": 4416.9270383023995}, {"id": "zJ6-ZCrtJA943nsVl2l8gQ", "alias": "thai-cuisine-bronx-2", "name": "Thai Cuisine", "image_url": "https://s3-media2.fl.yelpcdn.com/bphoto/JViwl-AU0Et5i8pq3n_sYw/o.jpg", "is_closed": false, "url": "https://www.yelp.com/biz/thai-cuisine-bronx-2?adjust_creative=9gNmiWYX8uTbFBeTTvJMdA&utm_campaign=yelp_api_v3&utm_medium=api_v3_business_search&utm_source=9gNmiWYX8uTbFBeTTvJMdA", "review_count": 77, "categories": [{"alias": "thai", "title": "Thai"}], "rating": 3.0, "coordinates": {"latitude": 40.83811, "longitude": -73.8638}, "transactions": ["delivery", "pickup"], "price": "$$", "location": {"address1": "1509 White Plains Rd", "address2": null, "address3": "", "city": "Bronx", "zip_code": "10462", "country": "US", "state": "NY", "display_address": ["1509 White Plains Rd", "Bronx, NY 10462"]}, "phone": "+16464069664", "display_phone": "(646) 406-9664", "distance": 12503.298476249289}, {"id": "vA2VEhW6S1ioX6tXtQdO9A", "alias": "lemon-grass-brooklyn-brooklyn", "name": "Lemon Grass Brooklyn", "image_url": "https://s3-media3.fl.yelpcdn.com/bphoto/zkVl9I85cHLKmrVgC392Og/o.jpg", "is_closed": false, "url": "https://www.yelp.com/biz/lemon-grass-brooklyn-brooklyn?adjust_creative=9gNmiWYX8uTbFBeTTvJMdA&utm_campaign=yelp_api_v3&utm_medium=api_v3_business_search&utm_source=9gNmiWYX8uTbFBeTTvJMdA", "review_count": 804, "categories": [{"alias": "thai", "title": "Thai"}, {"alias": "asianfusion", "title": "Asian Fusion"}, {"alias": "noodles", "title": "Noodles"}], "rating": 4.0, "coordinates": {"latitude": 40.688684, "longitude": -73.993137}, "transactions": ["delivery", "restaurant_reservation", "pickup"], "price": "$$", "location": {"address1": "156 Court St", "address2": "", "address3": "", "city": "Brooklyn", "zip_code": "11201", "country": "US", "state": "NY", "display_address": ["156 Court St", "Brooklyn, NY 11201"]}, "phone": "+17185229728", "display_phone": "(718) 522-9728", "distance": 8086.670277979425}, {"id": "AeNU0DYNtYDVPGnWAIh-0Q", "alias": "wok-to-walk-new-york-2", "name": "Wok To Walk", "image_url": "https://s3-media1.fl.yelpcdn.com/bphoto/Evlg9TirxRh3HGVz95DXzQ/o.jpg", "is_closed": false, "url": "https://www.yelp.com/biz/wok-to-walk-new-york-2?adjust_creative=9gNmiWYX8uTbFBeTTvJMdA&utm_campaign=yelp_api_v3&utm_medium=api_v3_business_search&utm_source=9gNmiWYX8uTbFBeTTvJMdA", "review_count": 419, "categories": [{"alias": "asianfusion", "title": "Asian Fusion"}, {"alias": "hotdogs", "title": "Fast Food"}], "rating": 3.5, "coordinates": {"latitude": 40.754724, "longitude": -73.991278}, "transactions": ["delivery", "pickup"], "price": "$", "location": {"address1": "570 8th Ave", "address2": "", "address3": "", "city": "New York", "zip_code": "10018", "country": "US", "state": "NY", "display_address": ["570 8th Ave", "New York, NY 10018"]}, "phone": "", "display_phone": "", "distance": 1898.8171042620465}, {"id": "U74_3F7r3tMhd6dmTmDBxQ", "alias": "macao-trading-company-new-york", "name": "Macao Trading Company", "image_url": "https://s3-media2.fl.yelpcdn.com/bphoto/EY5hMnXAFZpZcISNvOEymQ/o.jpg", "is_closed": false, "url": "https://www.yelp.com/biz/macao-trading-company-new-york?adjust_creative=9gNmiWYX8uTbFBeTTvJMdA&utm_campaign=yelp_api_v3&utm_medium=api_v3_business_search&utm_source=9gNmiWYX8uTbFBeTTvJMdA", "review_count": 840, "categories": [{"alias": "asianfusion", "title": "Asian Fusion"}, {"alias": "portuguese", "title": "Portuguese"}, {"alias": "chinese", "title": "Chinese"}], "rating": 4.0, "coordinates": {"latitude": 40.719623, "longitude": -74.003904}, "transactions": ["delivery", "pickup"], "price": "$$$", "location": {"address1": "311 Church St", "address2": "", "address3": "", "city": "New York", "zip_code": "10013", "country": "US", "state": "NY", "display_address": ["311 Church St", "New York, NY 10013"]}, "phone": "+12124318642", "display_phone": "(212) 431-8642", "distance": 5263.485448410985}, {"id": "wctR1TrheHAwpHZ2sJknEw", "alias": "yemen-cafe-and-restaurant-brooklyn-3", "name": "Yemen Cafe & Restaurant", "image_url": "https://s3-media2.fl.yelpcdn.com/bphoto/LtIzyhzhLbRe_V8BxIYidQ/o.jpg", "is_closed": false, "url": "https://www.yelp.com/biz/yemen-cafe-and-restaurant-brooklyn-3?adjust_creative=9gNmiWYX8uTbFBeTTvJMdA&utm_campaign=yelp_api_v3&utm_medium=api_v3_business_search&utm_source=9gNmiWYX8uTbFBeTTvJMdA", "review_count": 606, "categories": [{"alias": "mideastern", "title": "Middle Eastern"}, {"alias": "cafes", "title": "Cafes"}, {"alias": "soup", "title": "Soup"}], "rating": 4.5, "coordinates": {"latitude": 40.68989, "longitude": -73.99366}, "transactions": ["delivery", "pickup"], "price": "$$", "location": {"address1": "176 Atlantic Ave", "address2": "", "address3": "", "city": "Brooklyn", "zip_code": "11201", "country": "US", "state": "NY", "display_address": ["176 Atlantic Ave", "Brooklyn, NY 11201"]}, "phone": "+17188349533", "display_phone": "(718) 834-9533", "distance": 7969.263047519866}, {"id": "ZfuZ2byArGq-5j8zX8Afeg", "alias": "zest-sushi-new-york-3", "name": "Zest Sushi", "image_url": "https://s3-media1.fl.yelpcdn.com/bphoto/298IMnphPVeb3FVBLcqPRQ/o.jpg", "is_closed": false, "url": "https://www.yelp.com/biz/zest-sushi-new-york-3?adjust_creative=9gNmiWYX8uTbFBeTTvJMdA&utm_campaign=yelp_api_v3&utm_medium=api_v3_business_search&utm_source=9gNmiWYX8uTbFBeTTvJMdA", "review_count": 926, "categories": [{"alias": "sushi", "title": "Sushi Bars"}, {"alias": "japanese", "title": "Japanese"}, {"alias": "thai", "title": "Thai"}], "rating": 4.0, "coordinates": {"latitude": 40.7178344726563, "longitude": -73.9899597167969}, "transactions": ["delivery", "pickup"], "price": "$$", "location": {"address1": "249 Broome St", "address2": "", "address3": "", "city": "New York", "zip_code": "10002", "country": "US", "state": "NY", "display_address": ["249 Broome St", "New York, NY 10002"]}, "phone": "+12126773158", "display_phone": "(212) 677-3158", "distance": 4907.206686466741}, {"id": "tx-gxkns4uFyve7Eu5mYKA", "alias": "tana-thai-bronx", "name": "Tana Thai", "image_url": "https://s3-media4.fl.yelpcdn.com/bphoto/FWqfkWekjDyGFV-xn4qcHA/o.jpg", "is_closed": false, "url": "https://www.yelp.com/biz/tana-thai-bronx?adjust_creative=9gNmiWYX8uTbFBeTTvJMdA&utm_campaign=yelp_api_v3&utm_medium=api_v3_business_search&utm_source=9gNmiWYX8uTbFBeTTvJMdA", "review_count": 217, "categories": [{"alias": "thai", "title": "Thai"}], "rating": 3.0, "coordinates": {"latitude": 40.8513635, "longitude": -73.8439993}, "transactions": ["delivery", "pickup"], "price": "$$", "location": {"address1": "1890 Eastchester Rd", "address2": "", "address3": "", "city": "Bronx", "zip_code": "10461", "country": "US", "state": "NY", "display_address": ["1890 Eastchester Rd", "Bronx, NY 10461"]}, "phone": "+17186841900", "display_phone": "(718) 684-1900", "distance": 14739.07125331502}, {"id": "1ubEg-rrSE8IWXl6lJzIGw", "alias": "nur-thai-rego-park", "name": "Nur Thai", "image_url": "https://s3-media2.fl.yelpcdn.com/bphoto/wKL4Mnmig42Youp-9eYUIg/o.jpg", "is_closed": false, "url": "https://www.yelp.com/biz/nur-thai-rego-park?adjust_creative=9gNmiWYX8uTbFBeTTvJMdA&utm_campaign=yelp_api_v3&utm_medium=api_v3_business_search&utm_source=9gNmiWYX8uTbFBeTTvJMdA", "review_count": 637, "categories": [{"alias": "thai", "title": "Thai"}], "rating": 4.0, "coordinates": {"latitude": 40.7235516378586, "longitude": -73.868817789544}, "transactions": ["delivery", "pickup"], "price": "$$", "location": {"address1": "63-32 Woodhaven Blvd", "address2": "", "address3": "", "city": "Rego Park", "zip_code": "11374", "country": "US", "state": "NY", "display_address": ["63-32 Woodhaven Blvd", "Rego Park, NY 11374"]}, "phone": "+17182556141", "display_phone": "(718) 255-6141", "distance": 9367.25381338346}, {"id": "HDoJIH-qW9FqJ5WB-bKTqA", "alias": "mighty-bowl-new-york-9", "name": "MIGHTY Bowl", "image_url": "https://s3-media2.fl.yelpcdn.com/bphoto/ULfPg6yatxMSS-CPZThbAA/o.jpg", "is_closed": false, "url": "https://www.yelp.com/biz/mighty-bowl-new-york-9?adjust_creative=9gNmiWYX8uTbFBeTTvJMdA&utm_campaign=yelp_api_v3&utm_medium=api_v3_business_search&utm_source=9gNmiWYX8uTbFBeTTvJMdA", "review_count": 145, "categories": [{"alias": "asianfusion", "title": "Asian Fusion"}, {"alias": "poke", "title": "Poke"}], "rating": 4.5, "coordinates": {"latitude": 40.7738, "longitude": -73.95945}, "transactions": ["delivery", "pickup"], "price": "$$", "location": {"address1": "1109 Lexington Ave", "address2": null, "address3": "", "city": "New York", "zip_code": "10075", "country": "US", "state": "NY", "display_address": ["1109 Lexington Ave", "New York, NY 10075"]}, "phone": "+16466929065", "display_phone": "(646) 692-9065", "distance": 1835.9666657142402}, {"id": "sSkLiIMnOBaN-XKwV5r3Cg", "alias": "spice-long-island-city", "name": "Spice", "image_url": "https://s3-media2.fl.yelpcdn.com/bphoto/lPae2AI6sQwgrntvEcbRCg/o.jpg", "is_closed": false, "url": "https://www.yelp.com/biz/spice-long-island-city?adjust_creative=9gNmiWYX8uTbFBeTTvJMdA&utm_campaign=yelp_api_v3&utm_medium=api_v3_business_search&utm_source=9gNmiWYX8uTbFBeTTvJMdA", "review_count": 313, "categories": [{"alias": "thai", "title": "Thai"}, {"alias": "cocktailbars", "title": "Cocktail Bars"}], "rating": 3.0, "coordinates": {"latitude": 40.744659975905634, "longitude": -73.9535092189908}, "transactions": ["delivery", "pickup"], "price": "$$", "location": {"address1": "47-45 Vernon Blvd", "address2": "", "address3": "", "city": "Long Island City", "zip_code": "11101", "country": "US", "state": "NY", "display_address": ["47-45 Vernon Blvd", "Long Island City, NY 11101"]}, "phone": "+17183927888", "display_phone": "(718) 392-7888", "distance": 2106.195415493835}, {"id": "r6r-XK_wL02FQdAgaauTxg", "alias": "kame-new-york-2", "name": "Kame", "image_url": "https://s3-media1.fl.yelpcdn.com/bphoto/QE8CzBkSpCDOTv2L9ag5MQ/o.jpg", "is_closed": false, "url": "https://www.yelp.com/biz/kame-new-york-2?adjust_creative=9gNmiWYX8uTbFBeTTvJMdA&utm_campaign=yelp_api_v3&utm_medium=api_v3_business_search&utm_source=9gNmiWYX8uTbFBeTTvJMdA", "review_count": 711, "categories": [{"alias": "ramen", "title": "Ramen"}, {"alias": "noodles", "title": "Noodles"}, {"alias": "salad", "title": "Salad"}], "rating": 4.5, "coordinates": {"latitude": 40.7474881059799, "longitude": -73.996648862958}, "transactions": ["delivery", "pickup"], "price": "$$", "location": {"address1": "330 8th Ave", "address2": null, "address3": null, "city": "New York", "zip_code": "10001", "country": "US", "state": "NY", "display_address": ["330 8th Ave", "New York, NY 10001"]}, "phone": "+19173918587", "display_phone": "(917) 391-8587", "distance": 2624.845286101084}, {"id": "PoHNZsMAx3B_wuNoib7w0g", "alias": "new-manila-restaurant-isle-of-man", "name": "New Manila Restaurant", "image_url": "https://s3-media2.fl.yelpcdn.com/bphoto/vJ0lNXxWrhj0jbR-tGwaFA/o.jpg", "is_closed": false, "url": "https://www.yelp.com/biz/new-manila-restaurant-isle-of-man?adjust_creative=9gNmiWYX8uTbFBeTTvJMdA&utm_campaign=yelp_api_v3&utm_medium=api_v3_business_search&utm_source=9gNmiWYX8uTbFBeTTvJMdA", "review_count": 3, "categories": [{"alias": "thai", "title": "Thai"}, {"alias": "asianfusion", "title": "Asian Fusion"}], "rating": 4.0, "coordinates": {"latitude": 54.1647, "longitude": -4.46761}, "transactions": [], "location": {"address1": "Marathon Terrace Queens", "address2": "Promenade Douglas", "address3": "", "city": "Isle of Man", "zip_code": "IM2 4NH", "country": "IM", "state": "IOM", "display_address": ["Marathon Terrace Queens", "Promenade Douglas", "Isle of Man IM2 4NH", "Isle of Man"]}, "phone": "+441624660600", "display_phone": "+44 1624 660600", "distance": 15116.513537661918}, {"id": "v2dtG37r1ThqtfEfiFsAUg", "alias": "shanghai-mong-new-york", "name": "Shanghai Mong", "image_url": "https://s3-media1.fl.yelpcdn.com/bphoto/6gBvfvj0TH44dvmvLAjUdQ/o.jpg", "is_closed": false, "url": "https://www.yelp.com/biz/shanghai-mong-new-york?adjust_creative=9gNmiWYX8uTbFBeTTvJMdA&utm_campaign=yelp_api_v3&utm_medium=api_v3_business_search&utm_source=9gNmiWYX8uTbFBeTTvJMdA", "review_count": 617, "categories": [{"alias": "korean", "title": "Korean"}, {"alias": "chinese", "title": "Chinese"}, {"alias": "asianfusion", "title": "Asian Fusion"}], "rating": 3.0, "coordinates": {"latitude": 40.7476119995117, "longitude": -73.9871597290039}, "transactions": ["delivery", "pickup"], "price": "$$", "location": {"address1": "30 W 32nd St", "address2": null, "address3": "", "city": "New York", "zip_code": "10001", "country": "US", "state": "NY", "display_address": ["30 W 32nd St", "New York, NY 10001"]}, "phone": "+12126296450", "display_phone": "(212) 629-6450", "distance": 1962.1750424438396}, {"id": "PjbB73stmWEsRgF_uHa2iQ", "alias": "thai-noodle-house-new-york-3", "name": "Thai Noodle House", "image_url": "https://s3-media1.fl.yelpcdn.com/bphoto/iqadHL9cUlgmeCWiqpvggg/o.jpg", "is_closed": false, "url": "https://www.yelp.com/biz/thai-noodle-house-new-york-3?adjust_creative=9gNmiWYX8uTbFBeTTvJMdA&utm_campaign=yelp_api_v3&utm_medium=api_v3_business_search&utm_source=9gNmiWYX8uTbFBeTTvJMdA", "review_count": 10, "categories": [{"alias": "thai", "title": "Thai"}], "rating": 2.5, "coordinates": {"latitude": 40.73564, "longitude": -73.99409}, "transactions": ["delivery", "pickup"], "location": {"address1": "74 5th Ave", "address2": "", "address3": null, "city": "New York", "zip_code": "10003", "country": "US", "state": "NY", "display_address": ["74 5th Ave", "New York, NY 10003"]}, "phone": "", "display_phone": "", "distance": 3333.996230337624}, {"id": "eWSZHH4kfzS5NeNU1CMcyg", "alias": "amayar-kitchen-maywood", "name": "Amayar Kitchen", "image_url": "https://s3-media2.fl.yelpcdn.com/bphoto/RMEypERtIoC06Uw3UkM8VQ/o.jpg", "is_closed": false, "url": "https://www.yelp.com/biz/amayar-kitchen-maywood?adjust_creative=9gNmiWYX8uTbFBeTTvJMdA&utm_campaign=yelp_api_v3&utm_medium=api_v3_business_search&utm_source=9gNmiWYX8uTbFBeTTvJMdA", "review_count": 105, "categories": [{"alias": "burmese", "title": "Burmese"}], "rating": 5.0, "coordinates": {"latitude": 40.90072880597357, "longitude": -74.05832523553553}, "transactions": ["delivery", "pickup"], "price": "$$", "location": {"address1": "111 E Passaic St", "address2": "", "address3": null, "city": "Maywood", "zip_code": "07607", "country": "US", "state": "NJ", "display_address": ["111 E Passaic St", "Maywood, NJ 07607"]}, "phone": "+12018810588", "display_phone": "(201) 881-0588", "distance": 17421.499561721852}, {"id": "xEDD2ScBU3jHhWxlMC7dkQ", "alias": "nougatine-at-jean-georges-new-york-3", "name": "Nougatine at Jean-Georges", "image_url": "https://s3-media3.fl.yelpcdn.com/bphoto/j-qEGaATAd-nZ_A5upoPjQ/o.jpg", "is_closed": false, "url": "https://www.yelp.com/biz/nougatine-at-jean-georges-new-york-3?adjust_creative=9gNmiWYX8uTbFBeTTvJMdA&utm_campaign=yelp_api_v3&utm_medium=api_v3_business_search&utm_source=9gNmiWYX8uTbFBeTTvJMdA", "review_count": 1233, "categories": [{"alias": "french", "title": "French"}, {"alias": "asianfusion", "title": "Asian Fusion"}, {"alias": "breakfast_brunch", "title": "Breakfast & Brunch"}], "rating": 4.0, "coordinates": {"latitude": 40.76891, "longitude": -73.98176}, "transactions": ["delivery", "pickup"], "price": "$$$", "location": {"address1": "1 Central Park W", "address2": "", "address3": null, "city": "New York", "zip_code": "10023", "country": "US", "state": "NY", "display_address": ["1 Central Park W", "New York, NY 10023"]}, "phone": "+12122993900", "display_phone": "(212) 299-3900", "distance": 1493.3105330633502}, {"id": "oTL_nPII6x0HfPVpEQklUg", "alias": "planta-queen-nomad-new-york", "name": "PLANTA Queen - Nomad", "image_url": "https://s3-media4.fl.yelpcdn.com/bphoto/Q05DWLvbphEDbHcfPu0reA/o.jpg", "is_closed": false, "url": "https://www.yelp.com/biz/planta-queen-nomad-new-york?adjust_creative=9gNmiWYX8uTbFBeTTvJMdA&utm_campaign=yelp_api_v3&utm_medium=api_v3_business_search&utm_source=9gNmiWYX8uTbFBeTTvJMdA", "review_count": 541, "categories": [{"alias": "sushi", "title": "Sushi Bars"}, {"alias": "tapasmallplates", "title": "Tapas/Small Plates"}, {"alias": "japanese", "title": "Japanese"}], "rating": 4.5, "coordinates": {"latitude": 40.744435, "longitude": -73.98832}, "transactions": ["delivery", "pickup"], "price": "$$", "location": {"address1": "15 W 27th St", "address2": null, "address3": null, "city": "New York", "zip_code": "10001", "country": "US", "state": "NY", "display_address": ["15 W 27th St", "New York, NY 10001"]}, "phone": "+19176757700", "display_phone": "(917) 675-7700", "distance": 2271.412401583157}, {"id": "oS1e-zZ_qzZNIUEp3FYHhQ", "alias": "yummy-thai-new-york", "name": "Yummy Thai", "image_url": "https://s3-media4.fl.yelpcdn.com/bphoto/6jXUxMF4wQLeiJIoK0sMrQ/o.jpg", "is_closed": false, "url": "https://www.yelp.com/biz/yummy-thai-new-york?adjust_creative=9gNmiWYX8uTbFBeTTvJMdA&utm_campaign=yelp_api_v3&utm_medium=api_v3_business_search&utm_source=9gNmiWYX8uTbFBeTTvJMdA", "review_count": 429, "categories": [{"alias": "thai", "title": "Thai"}], "rating": 3.0, "coordinates": {"latitude": 40.86808, "longitude": -73.9205}, "transactions": ["delivery", "pickup"], "price": "$$", "location": {"address1": "4959 Broadway", "address2": "", "address3": "", "city": "New York", "zip_code": "10034", "country": "US", "state": "NY", "display_address": ["4959 Broadway", "New York, NY 10034"]}, "phone": "+19175290811", "display_phone": "(917) 529-0811", "distance": 12797.38500537581}, {"id": "TUoya6mwmxr0Zpr8oZSXlg", "alias": "thip-osha-brooklyn-2", "name": "Thip Osha", "image_url": "https://s3-media2.fl.yelpcdn.com/bphoto/YWhyL8FbdQXJ_IXzydQlog/o.jpg", "is_closed": false, "url": "https://www.yelp.com/biz/thip-osha-brooklyn-2?adjust_creative=9gNmiWYX8uTbFBeTTvJMdA&utm_campaign=yelp_api_v3&utm_medium=api_v3_business_search&utm_source=9gNmiWYX8uTbFBeTTvJMdA", "review_count": 112, "categories": [{"alias": "thai", "title": "Thai"}], "rating": 4.5, "coordinates": {"latitude": 40.712123, "longitude": -73.941437}, "transactions": ["delivery", "pickup"], "price": "$$", "location": {"address1": "795 Grand St", "address2": "", "address3": null, "city": "Brooklyn", "zip_code": "11211", "country": "US", "state": "NY", "display_address": ["795 Grand St", "Brooklyn, NY 11211"]}, "phone": "+17183887787", "display_phone": "(718) 388-7787", "distance": 5747.422547892407}, {"id": "mU1ctN2chR3U3__d_Zjcng", "alias": "maple-thai-eatery-astoria", "name": "Maple Thai Eatery", "image_url": "https://s3-media2.fl.yelpcdn.com/bphoto/mcfKvUp1aD7zoBI39_msIA/o.jpg", "is_closed": false, "url": "https://www.yelp.com/biz/maple-thai-eatery-astoria?adjust_creative=9gNmiWYX8uTbFBeTTvJMdA&utm_campaign=yelp_api_v3&utm_medium=api_v3_business_search&utm_source=9gNmiWYX8uTbFBeTTvJMdA", "review_count": 59, "categories": [{"alias": "thai", "title": "Thai"}], "rating": 4.0, "coordinates": {"latitude": 40.75446, "longitude": -73.92576}, "transactions": ["delivery", "pickup"], "location": {"address1": "3602 36th Ave", "address2": null, "address3": "", "city": "Astoria", "zip_code": "11106", "country": "US", "state": "NY", "display_address": ["3602 36th Ave", "Astoria, NY 11106"]}, "phone": "+17187070407", "display_phone": "(718) 707-0407", "distance": 3729.83666089948}, {"id": "C2o3Iw-DXjoUJFgQIbiqkQ", "alias": "bocaph\u00ea-new-york-3", "name": "BoCaphe", "image_url": "https://s3-media3.fl.yelpcdn.com/bphoto/IdJq5O1MSzoDtyfOFj10fg/o.jpg", "is_closed": false, "url": "https://www.yelp.com/biz/bocaph%C3%AA-new-york-3?adjust_creative=9gNmiWYX8uTbFBeTTvJMdA&utm_campaign=yelp_api_v3&utm_medium=api_v3_business_search&utm_source=9gNmiWYX8uTbFBeTTvJMdA", "review_count": 1739, "categories": [{"alias": "vietnamese", "title": "Vietnamese"}, {"alias": "breakfast_brunch", "title": "Breakfast & Brunch"}, {"alias": "french", "title": "French"}], "rating": 4.0, "coordinates": {"latitude": 40.722062, "longitude": -73.997587}, "transactions": ["delivery", "pickup"], "price": "$$", "location": {"address1": "222 Lafayette St", "address2": "", "address3": "", "city": "New York", "zip_code": "10012", "country": "US", "state": "NY", "display_address": ["222 Lafayette St", "New York, NY 10012"]}, "phone": "+16468821939", "display_phone": "(646) 882-1939", "distance": 4753.938716887451}, {"id": "hSiTqxKKgvQSI5x5VdMjoQ", "alias": "top-thai-restaurant-brooklyn-6", "name": "Top Thai Restaurant", "image_url": "https://s3-media1.fl.yelpcdn.com/bphoto/r_1LQVRCkdV0s6aOVB7wlw/o.jpg", "is_closed": false, "url": "https://www.yelp.com/biz/top-thai-restaurant-brooklyn-6?adjust_creative=9gNmiWYX8uTbFBeTTvJMdA&utm_campaign=yelp_api_v3&utm_medium=api_v3_business_search&utm_source=9gNmiWYX8uTbFBeTTvJMdA", "review_count": 343, "categories": [{"alias": "thai", "title": "Thai"}, {"alias": "halal", "title": "Halal"}, {"alias": "noodles", "title": "Noodles"}], "rating": 3.5, "coordinates": {"latitude": 40.62325, "longitude": -74.02838}, "transactions": ["delivery", "pickup"], "price": "$$", "location": {"address1": "8510 4th Ave", "address2": "", "address3": "", "city": "Brooklyn", "zip_code": "11209", "country": "US", "state": "NY", "display_address": ["8510 4th Ave", "Brooklyn, NY 11209"]}, "phone": "+17183335811", "display_phone": "(718) 333-5811", "distance": 15906.356109968681}, {"id": "9v4l7pz4J709z0mkqUpQbw", "alias": "savory-thai-brooklyn-4", "name": "Savory Thai", "image_url": "https://s3-media1.fl.yelpcdn.com/bphoto/TLYrXwcdXKyyPjEAUr6VMg/o.jpg", "is_closed": false, "url": "https://www.yelp.com/biz/savory-thai-brooklyn-4?adjust_creative=9gNmiWYX8uTbFBeTTvJMdA&utm_campaign=yelp_api_v3&utm_medium=api_v3_business_search&utm_source=9gNmiWYX8uTbFBeTTvJMdA", "review_count": 112, "categories": [{"alias": "bubbletea", "title": "Bubble Tea"}, {"alias": "noodles", "title": "Noodles"}, {"alias": "vegetarian", "title": "Vegetarian"}], "rating": 4.5, "coordinates": {"latitude": 40.71395, "longitude": -73.95554}, "transactions": ["delivery", "pickup"], "price": "$$", "location": {"address1": "378 Metropolitan Ave", "address2": "", "address3": null, "city": "Brooklyn", "zip_code": "11211", "country": "US", "state": "NY", "display_address": ["378 Metropolitan Ave", "Brooklyn, NY 11211"]}, "phone": "+13477213878", "display_phone": "(347) 721-3878", "distance": 5170.054207790802}, {"id": "0VGn3bLaUG7lhM5WwkMTCA", "alias": "bangkok-city-thai-restaurant-hoboken", "name": "Bangkok City Thai Restaurant", "image_url": "https://s3-media1.fl.yelpcdn.com/bphoto/ZQaU5_zBhIdP4koFpQHfOQ/o.jpg", "is_closed": false, "url": "https://www.yelp.com/biz/bangkok-city-thai-restaurant-hoboken?adjust_creative=9gNmiWYX8uTbFBeTTvJMdA&utm_campaign=yelp_api_v3&utm_medium=api_v3_business_search&utm_source=9gNmiWYX8uTbFBeTTvJMdA", "review_count": 178, "categories": [{"alias": "thai", "title": "Thai"}], "rating": 3.0, "coordinates": {"latitude": 40.74106, "longitude": -74.02956}, "transactions": ["delivery", "pickup"], "price": "$$", "location": {"address1": "335 Washington St", "address2": "", "address3": "", "city": "Hoboken", "zip_code": "07030", "country": "US", "state": "NJ", "display_address": ["335 Washington St", "Hoboken, NJ 07030"]}, "phone": "+12017926613", "display_phone": "(201) 792-6613", "distance": 5436.310440318816}, {"id": "5DwGICd6TkAnvO6YNeYp0Q", "alias": "red-basil-rutherford", "name": "Red Basil", "image_url": "https://s3-media2.fl.yelpcdn.com/bphoto/TkSi9MNsipATY6kuyoiOTw/o.jpg", "is_closed": false, "url": "https://www.yelp.com/biz/red-basil-rutherford?adjust_creative=9gNmiWYX8uTbFBeTTvJMdA&utm_campaign=yelp_api_v3&utm_medium=api_v3_business_search&utm_source=9gNmiWYX8uTbFBeTTvJMdA", "review_count": 268, "categories": [{"alias": "thai", "title": "Thai"}, {"alias": "asianfusion", "title": "Asian Fusion"}, {"alias": "noodles", "title": "Noodles"}], "rating": 3.5, "coordinates": {"latitude": 40.8273429870605, "longitude": -74.1029052734375}, "transactions": ["delivery", "pickup"], "price": "$$", "location": {"address1": "4 Glen Rd", "address2": "", "address3": "", "city": "Rutherford", "zip_code": "07070", "country": "US", "state": "NJ", "display_address": ["4 Glen Rd", "Rutherford, NJ 07070"]}, "phone": "+12014608585", "display_phone": "(201) 460-8585", "distance": 13545.083059795676}, {"id": "B9_TgZa8rgW5oZOtXZUMCw", "alias": "laut-singapura-new-york-2", "name": "Laut Singapura", "image_url": "https://s3-media3.fl.yelpcdn.com/bphoto/DJXif5Q06PsF1A1ZmF3leA/o.jpg", "is_closed": false, "url": "https://www.yelp.com/biz/laut-singapura-new-york-2?adjust_creative=9gNmiWYX8uTbFBeTTvJMdA&utm_campaign=yelp_api_v3&utm_medium=api_v3_business_search&utm_source=9gNmiWYX8uTbFBeTTvJMdA", "review_count": 356, "categories": [{"alias": "singaporean", "title": "Singaporean"}, {"alias": "cocktailbars", "title": "Cocktail Bars"}], "rating": 4.0, "coordinates": {"latitude": 40.738584506222814, "longitude": -73.98812157116433}, "transactions": ["delivery", "pickup"], "price": "$$", "location": {"address1": "31 E 20th St", "address2": null, "address3": "", "city": "New York", "zip_code": "10003", "country": "US", "state": "NY", "display_address": ["31 E 20th St", "New York, NY 10003"]}, "phone": "+16464299986", "display_phone": "(646) 429-9986", "distance": 2771.838794058156}, {"id": "Wa_-nKA-IWYMN15YagHr9w", "alias": "kinsen-queens", "name": "Kin Sen", "image_url": "https://s3-media1.fl.yelpcdn.com/bphoto/GBXqpQl-sPkTFTs__nBkCg/o.jpg", "is_closed": false, "url": "https://www.yelp.com/biz/kinsen-queens?adjust_creative=9gNmiWYX8uTbFBeTTvJMdA&utm_campaign=yelp_api_v3&utm_medium=api_v3_business_search&utm_source=9gNmiWYX8uTbFBeTTvJMdA", "review_count": 8, "categories": [{"alias": "thai", "title": "Thai"}, {"alias": "noodles", "title": "Noodles"}], "rating": 4.5, "coordinates": {"latitude": 40.741724, "longitude": -73.878682}, "transactions": ["delivery", "pickup"], "location": {"address1": "86-08 Whitney Ave", "address2": "", "address3": null, "city": "Queens", "zip_code": "11373", "country": "US", "state": "NY", "display_address": ["86-08 Whitney Ave", "Queens, NY 11373"]}, "phone": "+17182055181", "display_phone": "(718) 205-5181", "distance": 7905.229164051189}, {"id": "PHu2RLIMZix9W4Uc-FS1fg", "alias": "eatzy-thai-astoria", "name": "Eatzy Thai", "image_url": "https://s3-media2.fl.yelpcdn.com/bphoto/7lI6altOFUbbquxd9KxvBw/o.jpg", "is_closed": false, "url": "https://www.yelp.com/biz/eatzy-thai-astoria?adjust_creative=9gNmiWYX8uTbFBeTTvJMdA&utm_campaign=yelp_api_v3&utm_medium=api_v3_business_search&utm_source=9gNmiWYX8uTbFBeTTvJMdA", "review_count": 67, "categories": [{"alias": "thai", "title": "Thai"}, {"alias": "hotpot", "title": "Hot Pot"}, {"alias": "bbq", "title": "Barbeque"}], "rating": 3.5, "coordinates": {"latitude": 40.761214, "longitude": -73.92328}, "transactions": ["delivery", "pickup"], "price": "$$", "location": {"address1": "33-09 Broadway", "address2": "", "address3": null, "city": "Astoria", "zip_code": "11106", "country": "US", "state": "NY", "display_address": ["33-09 Broadway", "Astoria, NY 11106"]}, "phone": "", "display_phone": "", "distance": 3906.1799715141074}, {"id": "oO_X1H5Lxo8sNykx6azLVQ", "alias": "thai-super-new-york-2", "name": "Thai Super", "image_url": "https://s3-media2.fl.yelpcdn.com/bphoto/mMTR8qVbBw64HWgTyxTGKA/o.jpg", "is_closed": false, "url": "https://www.yelp.com/biz/thai-super-new-york-2?adjust_creative=9gNmiWYX8uTbFBeTTvJMdA&utm_campaign=yelp_api_v3&utm_medium=api_v3_business_search&utm_source=9gNmiWYX8uTbFBeTTvJMdA", "review_count": 197, "categories": [{"alias": "thai", "title": "Thai"}], "rating": 3.5, "coordinates": {"latitude": 40.799358, "longitude": -73.939726}, "transactions": ["delivery", "pickup"], "price": "$$", "location": {"address1": "166 E 118th St", "address2": "Store A & B", "address3": "", "city": "New York", "zip_code": "10035", "country": "US", "state": "NY", "display_address": ["166 E 118th St", "Store A & B", "New York, NY 10035"]}, "phone": "+16465591339", "display_phone": "(646) 559-1339", "distance": 5126.477840039284}, {"id": "jwKPVep2qZYBUA6SLLQPvg", "alias": "legend-72-new-york-9", "name": "Legend 72", "image_url": "https://s3-media1.fl.yelpcdn.com/bphoto/Ly8b-awA06mBIx1v2pQLkA/o.jpg", "is_closed": false, "url": "https://www.yelp.com/biz/legend-72-new-york-9?adjust_creative=9gNmiWYX8uTbFBeTTvJMdA&utm_campaign=yelp_api_v3&utm_medium=api_v3_business_search&utm_source=9gNmiWYX8uTbFBeTTvJMdA", "review_count": 279, "categories": [{"alias": "chinese", "title": "Chinese"}, {"alias": "seafood", "title": "Seafood"}, {"alias": "noodles", "title": "Noodles"}], "rating": 3.5, "coordinates": {"latitude": 40.77796, "longitude": -73.9796901}, "transactions": ["delivery", "pickup"], "price": "$$", "location": {"address1": "127 W 72nd St", "address2": "", "address3": "", "city": "New York", "zip_code": "10023", "country": "US", "state": "NY", "display_address": ["127 W 72nd St", "New York, NY 10023"]}, "phone": "+19174414790", "display_phone": "(917) 441-4790", "distance": 2255.8725468807925}, {"id": "qn9dgCRGNjHKDGilBamkiw", "alias": "noodlefan-castleton-corners", "name": "Noodlefan", "image_url": "https://s3-media4.fl.yelpcdn.com/bphoto/9HZH1BnBk3-ndVgRzmUnHQ/o.jpg", "is_closed": false, "url": "https://www.yelp.com/biz/noodlefan-castleton-corners?adjust_creative=9gNmiWYX8uTbFBeTTvJMdA&utm_campaign=yelp_api_v3&utm_medium=api_v3_business_search&utm_source=9gNmiWYX8uTbFBeTTvJMdA", "review_count": 183, "categories": [{"alias": "thai", "title": "Thai"}, {"alias": "noodles", "title": "Noodles"}], "rating": 4.0, "coordinates": {"latitude": 40.61319, "longitude": -74.12367}, "transactions": ["delivery", "pickup"], "price": "$$", "location": {"address1": "1809 Victory Blvd", "address2": "", "address3": "", "city": "Castleton Corners", "zip_code": "10314", "country": "US", "state": "NY", "display_address": ["1809 Victory Blvd", "Castleton Corners, NY 10314"]}, "phone": "+17187277499", "display_phone": "(718) 727-7499", "distance": 20787.476556703692}, {"id": "f_OiLWqldSmNy1MAvtWlPQ", "alias": "cyclo-long-island-city", "name": "Cyclo", "image_url": "https://s3-media3.fl.yelpcdn.com/bphoto/Yy-jLo8Mvx2kAYlVkSJ5Yw/o.jpg", "is_closed": false, "url": "https://www.yelp.com/biz/cyclo-long-island-city?adjust_creative=9gNmiWYX8uTbFBeTTvJMdA&utm_campaign=yelp_api_v3&utm_medium=api_v3_business_search&utm_source=9gNmiWYX8uTbFBeTTvJMdA", "review_count": 641, "categories": [{"alias": "vietnamese", "title": "Vietnamese"}, {"alias": "noodles", "title": "Noodles"}, {"alias": "comfortfood", "title": "Comfort Food"}], "rating": 4.0, "coordinates": {"latitude": 40.745714, "longitude": -73.953549}, "transactions": ["delivery", "pickup"], "price": "$$", "location": {"address1": "5-51 47th Ave", "address2": "", "address3": "", "city": "Long Island City", "zip_code": "11101", "country": "US", "state": "NY", "display_address": ["5-51 47th Ave", "Long Island City, NY 11101"]}, "phone": "+17187868309", "display_phone": "(718) 786-8309", "distance": 2015.5370016850538}, {"id": "lI91u68v2xTdE70lyioKAg", "alias": "lotus-thai-cuisine-guttenberg", "name": "Lotus Thai Cuisine", "image_url": "https://s3-media2.fl.yelpcdn.com/bphoto/Ewzy2F3xaklUhZA8nxu4pw/o.jpg", "is_closed": false, "url": "https://www.yelp.com/biz/lotus-thai-cuisine-guttenberg?adjust_creative=9gNmiWYX8uTbFBeTTvJMdA&utm_campaign=yelp_api_v3&utm_medium=api_v3_business_search&utm_source=9gNmiWYX8uTbFBeTTvJMdA", "review_count": 296, "categories": [{"alias": "thai", "title": "Thai"}], "rating": 3.5, "coordinates": {"latitude": 40.7929206, "longitude": -74.0031012}, "transactions": ["delivery", "pickup"], "price": "$$", "location": {"address1": "7007 Park Ave", "address2": "", "address3": "", "city": "Guttenberg", "zip_code": "07093", "country": "US", "state": "NJ", "display_address": ["7007 Park Ave", "Guttenberg, NJ 07093"]}, "phone": "+12018688980", "display_phone": "(201) 868-8980", "distance": 4695.7812581615835}, {"id": "63e2dDq5WCbpaBlercQllg", "alias": "thai-essence-nutley", "name": "Thai Essence", "image_url": "https://s3-media2.fl.yelpcdn.com/bphoto/2cd11nZh7DwtMpUrYUL-RA/o.jpg", "is_closed": false, "url": "https://www.yelp.com/biz/thai-essence-nutley?adjust_creative=9gNmiWYX8uTbFBeTTvJMdA&utm_campaign=yelp_api_v3&utm_medium=api_v3_business_search&utm_source=9gNmiWYX8uTbFBeTTvJMdA", "review_count": 289, "categories": [{"alias": "thai", "title": "Thai"}], "rating": 4.0, "coordinates": {"latitude": 40.815803, "longitude": -74.162223}, "transactions": ["delivery", "pickup"], "price": "$$", "location": {"address1": "231 Franklin Ave", "address2": null, "address3": "", "city": "Nutley", "zip_code": "07110", "country": "US", "state": "NJ", "display_address": ["231 Franklin Ave", "Nutley, NJ 07110"]}, "phone": "+19735420128", "display_phone": "(973) 542-0128", "distance": 17398.496675019163}, {"id": "V58g7E1AHkuTchTVyLQuYQ", "alias": "saigon-grill-and-bar-brooklyn-3", "name": "Saigon Grill & Bar", "image_url": "https://s3-media3.fl.yelpcdn.com/bphoto/4BPuCV0MrokHauyUQo3j5g/o.jpg", "is_closed": false, "url": "https://www.yelp.com/biz/saigon-grill-and-bar-brooklyn-3?adjust_creative=9gNmiWYX8uTbFBeTTvJMdA&utm_campaign=yelp_api_v3&utm_medium=api_v3_business_search&utm_source=9gNmiWYX8uTbFBeTTvJMdA", "review_count": 278, "categories": [{"alias": "vietnamese", "title": "Vietnamese"}, {"alias": "asianfusion", "title": "Asian Fusion"}], "rating": 4.0, "coordinates": {"latitude": 40.61883, "longitude": -73.93099}, "transactions": ["delivery", "pickup"], "price": "$$", "location": {"address1": "4521 Ave N", "address2": "", "address3": "", "city": "Brooklyn", "zip_code": "11234", "country": "US", "state": "NY", "display_address": ["4521 Ave N", "Brooklyn, NY 11234"]}, "phone": "+17183388886", "display_phone": "(718) 338-8886", "distance": 15935.988783102946}, {"id": "LvmDVd1OlRGFdtY4RH2iSQ", "alias": "abaya-thai-new-york", "name": "Abaya Thai", "image_url": "https://s3-media4.fl.yelpcdn.com/bphoto/OgBD-3_0EOl8Sv-ERZ-qyg/o.jpg", "is_closed": false, "url": "https://www.yelp.com/biz/abaya-thai-new-york?adjust_creative=9gNmiWYX8uTbFBeTTvJMdA&utm_campaign=yelp_api_v3&utm_medium=api_v3_business_search&utm_source=9gNmiWYX8uTbFBeTTvJMdA", "review_count": 82, "categories": [{"alias": "thai", "title": "Thai"}], "rating": 3.0, "coordinates": {"latitude": 40.753665, "longitude": -73.993568}, "transactions": ["delivery", "pickup"], "price": "$$", "location": {"address1": "318 W 36th St", "address2": null, "address3": null, "city": "New York", "zip_code": "10018", "country": "US", "state": "NY", "display_address": ["318 W 36th St", "New York, NY 10018"]}, "phone": "+12128683399", "display_phone": "(212) 868-3399", "distance": 2103.7815530120333}], "total": 1700, "region": {"center": {"longitude": -73.96957397460938, "latitude": 40.75917470627005}}}