{"businesses": [{"id": "JmnkTReET5gqeYCga2NrxQ", "alias": "chachawan-ridgewood", "name": "Chachawan", "image_url": "https://s3-media3.fl.yelpcdn.com/bphoto/Wquua6_8_1Kx8vE6d6qsMQ/o.jpg", "is_closed": false, "url": "https://www.yelp.com/biz/chachawan-ridgewood?adjust_creative=9gNmiWYX8uTbFBeTTvJMdA&utm_campaign=yelp_api_v3&utm_medium=api_v3_business_search&utm_source=9gNmiWYX8uTbFBeTTvJMdA", "review_count": 42, "categories": [{"alias": "thai", "title": "Thai"}, {"alias": "seafood", "title": "Seafood"}], "rating": 4.5, "coordinates": {"latitude": 40.70258728675213, "longitude": -73.90156004684026}, "transactions": ["pickup", "delivery"], "location": {"address1": "881 Woodward Ave", "address2": null, "address3": "", "city": "Ridgewood", "zip_code": "11385", "country": "US", "state": "NY", "display_address": ["881 Woodward Ave", "Ridgewood, NY 11385"]}, "phone": "+17188944404", "display_phone": "(718) 894-4404", "distance": 8510.932142838012}, {"id": "0eLtFI6MeEYM2rlMtcjRaQ", "alias": "e-a-k-ramen-and-izakaya-by-machida-shoten-hell-s-kitchen-new-york-2", "name": "E.A.K. RAMEN and IZAKAYA by MACHIDA SHOTEN Hell\u2019s Kitchen", "image_url": "https://s3-media2.fl.yelpcdn.com/bphoto/VYN1YkJzCC1VweX_Cl8uQQ/o.jpg", "is_closed": false, "url": "https://www.yelp.com/biz/e-a-k-ramen-and-izakaya-by-machida-shoten-hell-s-kitchen-new-york-2?adjust_creative=9gNmiWYX8uTbFBeTTvJMdA&utm_campaign=yelp_api_v3&utm_medium=api_v3_business_search&utm_source=9gNmiWYX8uTbFBeTTvJMdA", "review_count": 241, "categories": [{"alias": "ramen", "title": "Ramen"}, {"alias": "noodles", "title": "Noodles"}], "rating": 4.0, "coordinates": {"latitude": 40.76055191347044, "longitude": -73.99018342883555}, "transactions": ["restaurant_reservation", "delivery", "pickup"], "price": "$$", "location": {"address1": "360 W 46th St", "address2": "", "address3": "", "city": "New York", "zip_code": "10036", "country": "US", "state": "NY", "display_address": ["360 W 46th St", "New York, NY 10036"]}, "phone": "+16468508032", "display_phone": "(646) 850-8032", "distance": 1742.5690114201147}, {"id": "Qi1AoRNcFEX8etII_RZkFg", "alias": "ajisai-japanese-fusion-new-york", "name": "Ajisai Japanese Fusion", "image_url": "https://s3-media1.fl.yelpcdn.com/bphoto/4IwXQ1qgFCLty6IlyvCP_w/o.jpg", "is_closed": false, "url": "https://www.yelp.com/biz/ajisai-japanese-fusion-new-york?adjust_creative=9gNmiWYX8uTbFBeTTvJMdA&utm_campaign=yelp_api_v3&utm_medium=api_v3_business_search&utm_source=9gNmiWYX8uTbFBeTTvJMdA", "review_count": 175, "categories": [{"alias": "japanese", "title": "Japanese"}, {"alias": "asianfusion", "title": "Asian Fusion"}, {"alias": "sushi", "title": "Sushi Bars"}], "rating": 3.5, "coordinates": {"latitude": 40.763763, "longitude": -73.966743}, "transactions": ["pickup", "delivery"], "price": "$$", "location": {"address1": "795 Lexington Ave", "address2": "", "address3": "", "city": "New York", "zip_code": "10065", "country": "US", "state": "NY", "display_address": ["795 Lexington Ave", "New York, NY 10065"]}, "phone": "+12123550888", "display_phone": "(212) 355-0888", "distance": 562.930483723756}, {"id": "-lKKdp0XYVJY2DWL-ZSwtQ", "alias": "pac-rim-new-york-2", "name": "Pac Rim", "image_url": "https://s3-media2.fl.yelpcdn.com/bphoto/pRcrz4HNudAa73-KosB1lw/o.jpg", "is_closed": false, "url": "https://www.yelp.com/biz/pac-rim-new-york-2?adjust_creative=9gNmiWYX8uTbFBeTTvJMdA&utm_campaign=yelp_api_v3&utm_medium=api_v3_business_search&utm_source=9gNmiWYX8uTbFBeTTvJMdA", "review_count": 7, "categories": [{"alias": "sushi", "title": "Sushi Bars"}, {"alias": "asianfusion", "title": "Asian Fusion"}], "rating": 4.5, "coordinates": {"latitude": 40.75373972103885, "longitude": -73.96800323380802}, "transactions": [], "location": {"address1": "308 E 49th St", "address2": "", "address3": null, "city": "New York", "zip_code": "10017", "country": "US", "state": "NY", "display_address": ["308 E 49th St", "New York, NY 10017"]}, "phone": "+12122074787", "display_phone": "(212) 207-4787", "distance": 618.6543748974339}, {"id": "zYIKxE7eKeglXweoABjSwg", "alias": "thai-bkk-new-york", "name": "Thai BKK", "image_url": "https://s3-media2.fl.yelpcdn.com/bphoto/mtPqxPdBvwMup3z0tRXi_A/o.jpg", "is_closed": false, "url": "https://www.yelp.com/biz/thai-bkk-new-york?adjust_creative=9gNmiWYX8uTbFBeTTvJMdA&utm_campaign=yelp_api_v3&utm_medium=api_v3_business_search&utm_source=9gNmiWYX8uTbFBeTTvJMdA", "review_count": 95, "categories": [{"alias": "thai", "title": "Thai"}], "rating": 3.5, "coordinates": {"latitude": 40.802786, "longitude": -73.938354}, "transactions": ["pickup", "delivery"], "price": "$$", "location": {"address1": "2021 Lexington Ave", "address2": "", "address3": null, "city": "New York", "zip_code": "10035", "country": "US", "state": "NY", "display_address": ["2021 Lexington Ave", "New York, NY 10035"]}, "phone": "+12128602737", "display_phone": "(212) 860-2737", "distance": 5518.6651106518675}, {"id": "ybczZr7m8jZtGe0qDPXW5w", "alias": "accent-thai-kitchen-yonkers", "name": "Accent Thai Kitchen", "image_url": "https://s3-media2.fl.yelpcdn.com/bphoto/U5lPqQMvG-TBAk9Fu3puRQ/o.jpg", "is_closed": false, "url": "https://www.yelp.com/biz/accent-thai-kitchen-yonkers?adjust_creative=9gNmiWYX8uTbFBeTTvJMdA&utm_campaign=yelp_api_v3&utm_medium=api_v3_business_search&utm_source=9gNmiWYX8uTbFBeTTvJMdA", "review_count": 143, "categories": [{"alias": "thai", "title": "Thai"}], "rating": 3.0, "coordinates": {"latitude": 40.9091134, "longitude": -73.8792337}, "transactions": ["pickup", "delivery"], "price": "$$", "location": {"address1": "631 Mclean Ave", "address2": null, "address3": "", "city": "Yonkers", "zip_code": "10705", "country": "US", "state": "NY", "display_address": ["631 Mclean Ave", "Yonkers, NY 10705"]}, "phone": "+19149651800", "display_phone": "(914) 965-1800", "distance": 18317.72651790759}, {"id": "CFIOL_GmkAuJyz3fKc7WYg", "alias": "sky-thai-jersey-city", "name": "Sky Thai", "image_url": "https://s3-media2.fl.yelpcdn.com/bphoto/UDG1jcmGO-t6CQxFJWo_6g/o.jpg", "is_closed": false, "url": "https://www.yelp.com/biz/sky-thai-jersey-city?adjust_creative=9gNmiWYX8uTbFBeTTvJMdA&utm_campaign=yelp_api_v3&utm_medium=api_v3_business_search&utm_source=9gNmiWYX8uTbFBeTTvJMdA", "review_count": 459, "categories": [{"alias": "thai", "title": "Thai"}], "rating": 3.0, "coordinates": {"latitude": 40.713814, "longitude": -74.036506}, "transactions": ["pickup", "delivery"], "price": "$$", "location": {"address1": "62 Morris St", "address2": "", "address3": "", "city": "Jersey City", "zip_code": "07302", "country": "US", "state": "NJ", "display_address": ["62 Morris St", "Jersey City, NJ 07302"]}, "phone": "+12013334311", "display_phone": "(201) 333-4311", "distance": 7565.8817662796155}, {"id": "r2JVKalbucGf2nryywuL2w", "alias": "kopitiam-new-york", "name": "Kopitiam", "image_url": "https://s3-media1.fl.yelpcdn.com/bphoto/QwkF1ela_T9g-f4kTJq69A/o.jpg", "is_closed": false, "url": "https://www.yelp.com/biz/kopitiam-new-york?adjust_creative=9gNmiWYX8uTbFBeTTvJMdA&utm_campaign=yelp_api_v3&utm_medium=api_v3_business_search&utm_source=9gNmiWYX8uTbFBeTTvJMdA", "review_count": 926, "categories": [{"alias": "malaysian", "title": "Malaysian"}, {"alias": "desserts", "title": "Desserts"}, {"alias": "breakfast_brunch", "title": "Breakfast & Brunch"}], "rating": 4.0, "coordinates": {"latitude": 40.71387, "longitude": -73.99091}, "transactions": ["pickup", "delivery"], "price": "$$", "location": {"address1": "151 E Broadway", "address2": "", "address3": "", "city": "New York", "zip_code": "10002", "country": "US", "state": "NY", "display_address": ["151 E Broadway", "New York, NY 10002"]}, "phone": "+16466093785", "display_phone": "(646) 609-3785", "distance": 5353.493006552973}, {"id": "lPdN_JjD_rMovgKQVxCBgQ", "alias": "wan-wan-new-york", "name": "Wan Wan", "image_url": "https://s3-media2.fl.yelpcdn.com/bphoto/FtTtiQfb1BZgLe0r-DKyYw/o.jpg", "is_closed": false, "url": "https://www.yelp.com/biz/wan-wan-new-york?adjust_creative=9gNmiWYX8uTbFBeTTvJMdA&utm_campaign=yelp_api_v3&utm_medium=api_v3_business_search&utm_source=9gNmiWYX8uTbFBeTTvJMdA", "review_count": 1, "categories": [{"alias": "thai", "title": "Thai"}], "rating": 5.0, "coordinates": {"latitude": 40.7218, "longitude": -73.99643}, "transactions": [], "location": {"address1": "209 Mulberry St", "address2": "", "address3": null, "city": "New York", "zip_code": "10012", "country": "US", "state": "NY", "display_address": ["209 Mulberry St", "New York, NY 10012"]}, "phone": "", "display_phone": "", "distance": 4735.022927245882}, {"id": "cPXF0NTHTHEdWLDwknWHXA", "alias": "huge-thai-brooklyn", "name": "Huge Thai", "image_url": "https://s3-media4.fl.yelpcdn.com/bphoto/azODl9q1JfjolrANj_RDsw/o.jpg", "is_closed": false, "url": "https://www.yelp.com/biz/huge-thai-brooklyn?adjust_creative=9gNmiWYX8uTbFBeTTvJMdA&utm_campaign=yelp_api_v3&utm_medium=api_v3_business_search&utm_source=9gNmiWYX8uTbFBeTTvJMdA", "review_count": 43, "categories": [{"alias": "thai", "title": "Thai"}], "rating": 4.5, "coordinates": {"latitude": 40.68887, "longitude": -73.99261}, "transactions": ["pickup", "delivery"], "location": {"address1": "157 Court St", "address2": null, "address3": "", "city": "Brooklyn", "zip_code": "11201", "country": "US", "state": "NY", "display_address": ["157 Court St", "Brooklyn, NY 11201"]}, "phone": "+13479874198", "display_phone": "(347) 987-4198", "distance": 8054.428497476793}, {"id": "hhjhupemqjXuxQXLCtl98A", "alias": "act-one-bar-and-restaurant-brooklyn", "name": "Act One Bar and Restaurant", "image_url": "https://s3-media3.fl.yelpcdn.com/bphoto/mOBA_5STQ34KhTJdzKgsuA/o.jpg", "is_closed": false, "url": "https://www.yelp.com/biz/act-one-bar-and-restaurant-brooklyn?adjust_creative=9gNmiWYX8uTbFBeTTvJMdA&utm_campaign=yelp_api_v3&utm_medium=api_v3_business_search&utm_source=9gNmiWYX8uTbFBeTTvJMdA", "review_count": 9, "categories": [{"alias": "bars", "title": "Bars"}, {"alias": "thai", "title": "Thai"}, {"alias": "karaoke", "title": "Karaoke"}], "rating": 5.0, "coordinates": {"latitude": 40.687597, "longitude": -74.001266}, "transactions": ["pickup", "delivery"], "location": {"address1": "117 Columbia St", "address2": null, "address3": "", "city": "Brooklyn", "zip_code": "11231", "country": "US", "state": "NY", "display_address": ["117 Columbia St", "Brooklyn, NY 11231"]}, "phone": "+17188588898", "display_phone": "(718) 858-8898", "distance": 8395.334713529417}, {"id": "hnBgmEQsJgRhY3VvWnwkfA", "alias": "the-green-papaya-river-edge", "name": "The Green Papaya", "image_url": "https://s3-media4.fl.yelpcdn.com/bphoto/fJVeNcG4f0tQukVlbqpqnQ/o.jpg", "is_closed": false, "url": "https://www.yelp.com/biz/the-green-papaya-river-edge?adjust_creative=9gNmiWYX8uTbFBeTTvJMdA&utm_campaign=yelp_api_v3&utm_medium=api_v3_business_search&utm_source=9gNmiWYX8uTbFBeTTvJMdA", "review_count": 439, "categories": [{"alias": "thai", "title": "Thai"}, {"alias": "malaysian", "title": "Malaysian"}, {"alias": "asianfusion", "title": "Asian Fusion"}], "rating": 4.0, "coordinates": {"latitude": 40.91157, "longitude": -74.03576}, "transactions": ["pickup", "delivery"], "price": "$$", "location": {"address1": "110 Kinderkamack Rd", "address2": "", "address3": "", "city": "River Edge", "zip_code": "07661", "country": "US", "state": "NJ", "display_address": ["110 Kinderkamack Rd", "River Edge, NJ 07661"]}, "phone": "+12016781888", "display_phone": "(201) 678-1888", "distance": 17829.67487708868}, {"id": "oyyubJoK0VZ2V3a5sVJULg", "alias": "natsumi-new-york-3", "name": "Natsumi", "image_url": "https://s3-media4.fl.yelpcdn.com/bphoto/Tgzjhn5Ojdln4leV39aPOw/o.jpg", "is_closed": false, "url": "https://www.yelp.com/biz/natsumi-new-york-3?adjust_creative=9gNmiWYX8uTbFBeTTvJMdA&utm_campaign=yelp_api_v3&utm_medium=api_v3_business_search&utm_source=9gNmiWYX8uTbFBeTTvJMdA", "review_count": 936, "categories": [{"alias": "sushi", "title": "Sushi Bars"}, {"alias": "japanese", "title": "Japanese"}, {"alias": "lounges", "title": "Lounges"}], "rating": 4.0, "coordinates": {"latitude": 40.761673475325274, "longitude": -73.98518550748527}, "transactions": ["pickup", "delivery"], "price": "$$$", "location": {"address1": "226 W 50th St", "address2": "", "address3": "", "city": "New York", "zip_code": "10019", "country": "US", "state": "NY", "display_address": ["226 W 50th St", "New York, NY 10019"]}, "phone": "+12122582988", "display_phone": "(212) 258-2988", "distance": 1343.903273733034}, {"id": "4ak7lLxs6jopSjkMWJ8yKQ", "alias": "kinkhao-thai-new-york", "name": "Kinkhao Thai", "image_url": "https://s3-media2.fl.yelpcdn.com/bphoto/nMzYuZ14nq1YcliclDIFPA/o.jpg", "is_closed": false, "url": "https://www.yelp.com/biz/kinkhao-thai-new-york?adjust_creative=9gNmiWYX8uTbFBeTTvJMdA&utm_campaign=yelp_api_v3&utm_medium=api_v3_business_search&utm_source=9gNmiWYX8uTbFBeTTvJMdA", "review_count": 48, "categories": [{"alias": "thai", "title": "Thai"}], "rating": 3.5, "coordinates": {"latitude": 40.84079, "longitude": -73.93648}, "transactions": ["pickup", "delivery"], "location": {"address1": "2200 Amsterdam Ave", "address2": "", "address3": null, "city": "New York", "zip_code": "10032", "country": "US", "state": "NY", "display_address": ["2200 Amsterdam Ave", "New York, NY 10032"]}, "phone": "+16468337939", "display_phone": "(646) 833-7939", "distance": 9494.16808502297}, {"id": "SBy46BviyBKowPjbTjDsHQ", "alias": "lantern-brooklyn", "name": "Lantern", "image_url": "https://s3-media3.fl.yelpcdn.com/bphoto/iHCexP4alMF6GHCDuNKyLQ/o.jpg", "is_closed": false, "url": "https://www.yelp.com/biz/lantern-brooklyn?adjust_creative=9gNmiWYX8uTbFBeTTvJMdA&utm_campaign=yelp_api_v3&utm_medium=api_v3_business_search&utm_source=9gNmiWYX8uTbFBeTTvJMdA", "review_count": 504, "categories": [{"alias": "thai", "title": "Thai"}], "rating": 3.5, "coordinates": {"latitude": 40.69533, "longitude": -73.99544}, "transactions": ["pickup", "delivery"], "price": "$$", "location": {"address1": "101 Montague St", "address2": null, "address3": "", "city": "Brooklyn", "zip_code": "11201", "country": "US", "state": "NY", "display_address": ["101 Montague St", "Brooklyn, NY 11201"]}, "phone": "+17182372594", "display_phone": "(718) 237-2594", "distance": 7430.704020880593}, {"id": "BKABojUN3G9vUrG3AlDZgQ", "alias": "wild-ginger-brooklyn-6", "name": "Wild Ginger", "image_url": "https://s3-media1.fl.yelpcdn.com/bphoto/wBBG-DSDF_SXYNSzM0qblw/o.jpg", "is_closed": false, "url": "https://www.yelp.com/biz/wild-ginger-brooklyn-6?adjust_creative=9gNmiWYX8uTbFBeTTvJMdA&utm_campaign=yelp_api_v3&utm_medium=api_v3_business_search&utm_source=9gNmiWYX8uTbFBeTTvJMdA", "review_count": 171, "categories": [{"alias": "asianfusion", "title": "Asian Fusion"}, {"alias": "vegan", "title": "Vegan"}], "rating": 4.0, "coordinates": {"latitude": 40.718859, "longitude": -73.955371}, "transactions": ["pickup", "delivery"], "price": "$$", "location": {"address1": "182 N 10th St", "address2": "", "address3": "", "city": "Brooklyn", "zip_code": "11211", "country": "US", "state": "NY", "display_address": ["182 N 10th St", "Brooklyn, NY 11211"]}, "phone": "+17182188828", "display_phone": "(718) 218-8828", "distance": 4635.782330556937}, {"id": "RYoc4EBUNOtgbg7c32OG9A", "alias": "atoboy-new-york", "name": "Atoboy", "image_url": "https://s3-media2.fl.yelpcdn.com/bphoto/pFr_zU0I39YAo1xwECoGWA/o.jpg", "is_closed": false, "url": "https://www.yelp.com/biz/atoboy-new-york?adjust_creative=9gNmiWYX8uTbFBeTTvJMdA&utm_campaign=yelp_api_v3&utm_medium=api_v3_business_search&utm_source=9gNmiWYX8uTbFBeTTvJMdA", "review_count": 575, "categories": [{"alias": "korean", "title": "Korean"}, {"alias": "tapasmallplates", "title": "Tapas/Small Plates"}, {"alias": "asianfusion", "title": "Asian Fusion"}], "rating": 4.5, "coordinates": {"latitude": 40.74364, "longitude": -73.98456}, "transactions": ["delivery"], "price": "$$$$", "location": {"address1": "43 E 28th St", "address2": null, "address3": "", "city": "New York", "zip_code": "10016", "country": "US", "state": "NY", "display_address": ["43 E 28th St", "New York, NY 10016"]}, "phone": "+16464767217", "display_phone": "(646) 476-7217", "distance": 2136.314517692424}, {"id": "bjf8vmAIrdPo1aHoaYPkBw", "alias": "sweet-basil-woodside", "name": "Sweet Basil", "image_url": "https://s3-media1.fl.yelpcdn.com/bphoto/rhWmEZ0dc5UUSQPwaW-TCw/o.jpg", "is_closed": false, "url": "https://www.yelp.com/biz/sweet-basil-woodside?adjust_creative=9gNmiWYX8uTbFBeTTvJMdA&utm_campaign=yelp_api_v3&utm_medium=api_v3_business_search&utm_source=9gNmiWYX8uTbFBeTTvJMdA", "review_count": 155, "categories": [{"alias": "thai", "title": "Thai"}, {"alias": "noodles", "title": "Noodles"}], "rating": 4.0, "coordinates": {"latitude": 40.746457, "longitude": -73.9032297}, "transactions": ["pickup", "delivery"], "price": "$$", "location": {"address1": "39-28 61st St", "address2": "", "address3": "", "city": "Woodside", "zip_code": "11377", "country": "US", "state": "NY", "display_address": ["39-28 61st St", "Woodside, NY 11377"]}, "phone": "+17182050080", "display_phone": "(718) 205-0080", "distance": 5767.913743557916}, {"id": "rhWaFGReGsmyWAojvGWQlQ", "alias": "papa-thai-cuisine-new-york-2", "name": "PaPa Thai Cuisine", "image_url": "https://s3-media3.fl.yelpcdn.com/bphoto/zB3hJ8KqeWz_o5C9NUIhbg/o.jpg", "is_closed": false, "url": "https://www.yelp.com/biz/papa-thai-cuisine-new-york-2?adjust_creative=9gNmiWYX8uTbFBeTTvJMdA&utm_campaign=yelp_api_v3&utm_medium=api_v3_business_search&utm_source=9gNmiWYX8uTbFBeTTvJMdA", "review_count": 93, "categories": [{"alias": "thai", "title": "Thai"}], "rating": 3.0, "coordinates": {"latitude": 40.80346, "longitude": -73.95647}, "transactions": ["pickup", "delivery"], "location": {"address1": "2115 Frederick Douglass Blvd", "address2": "", "address3": null, "city": "New York", "zip_code": "10026", "country": "US", "state": "NY", "display_address": ["2115 Frederick Douglass Blvd", "New York, NY 10026"]}, "phone": "+12128661857", "display_phone": "(212) 866-1857", "distance": 5046.645394227406}, {"id": "od-UsU-zZx29CWLhq-eong", "alias": "chongkho-restaurant-brooklyn", "name": "Chongkho Restaurant", "image_url": "https://s3-media2.fl.yelpcdn.com/bphoto/ISK1D_S-BI3G8Gn47wgvgw/o.jpg", "is_closed": false, "url": "https://www.yelp.com/biz/chongkho-restaurant-brooklyn?adjust_creative=9gNmiWYX8uTbFBeTTvJMdA&utm_campaign=yelp_api_v3&utm_medium=api_v3_business_search&utm_source=9gNmiWYX8uTbFBeTTvJMdA", "review_count": 53, "categories": [{"alias": "thai", "title": "Thai"}], "rating": 5.0, "coordinates": {"latitude": 40.71101, "longitude": -73.94929}, "transactions": ["pickup", "delivery"], "location": {"address1": "562 Grand St", "address2": "Fl 1", "address3": "", "city": "Brooklyn", "zip_code": "11211", "country": "US", "state": "NY", "display_address": ["562 Grand St", "Fl 1", "Brooklyn, NY 11211"]}, "phone": "+19292763190", "display_phone": "(929) 276-3190", "distance": 5626.783798324468}, {"id": "XNkC1vJmLOI8NRR3Jl_vyQ", "alias": "amy-thai-bistro-brooklyn", "name": "Amy Thai Bistro", "image_url": "https://s3-media1.fl.yelpcdn.com/bphoto/iImj0hp6AoEW5cL4Vm68aw/o.jpg", "is_closed": false, "url": "https://www.yelp.com/biz/amy-thai-bistro-brooklyn?adjust_creative=9gNmiWYX8uTbFBeTTvJMdA&utm_campaign=yelp_api_v3&utm_medium=api_v3_business_search&utm_source=9gNmiWYX8uTbFBeTTvJMdA", "review_count": 272, "categories": [{"alias": "thai", "title": "Thai"}], "rating": 4.5, "coordinates": {"latitude": 40.66055, "longitude": -73.9604851}, "transactions": ["delivery"], "price": "$$", "location": {"address1": "545 Flatbush Ave", "address2": null, "address3": "", "city": "Brooklyn", "zip_code": "11225", "country": "US", "state": "NY", "display_address": ["545 Flatbush Ave", "Brooklyn, NY 11225"]}, "phone": "+17184621555", "display_phone": "(718) 462-1555", "distance": 10982.43727585866}, {"id": "V-rY0hlPjAghV14jOlVUiQ", "alias": "nikko-new-york-2", "name": "Nikko", "image_url": "https://s3-media2.fl.yelpcdn.com/bphoto/EKHiRwA7xBPxZoSbMFD4CQ/o.jpg", "is_closed": false, "url": "https://www.yelp.com/biz/nikko-new-york-2?adjust_creative=9gNmiWYX8uTbFBeTTvJMdA&utm_campaign=yelp_api_v3&utm_medium=api_v3_business_search&utm_source=9gNmiWYX8uTbFBeTTvJMdA", "review_count": 408, "categories": [{"alias": "asianfusion", "title": "Asian Fusion"}, {"alias": "thai", "title": "Thai"}, {"alias": "sushi", "title": "Sushi Bars"}], "rating": 3.5, "coordinates": {"latitude": 40.81156, "longitude": -73.95781}, "transactions": ["pickup", "delivery"], "price": "$$", "location": {"address1": "1280 Amsterdam Ave", "address2": "", "address3": "", "city": "New York", "zip_code": "10027", "country": "US", "state": "NY", "display_address": ["1280 Amsterdam Ave", "New York, NY 10027"]}, "phone": "+12125311188", "display_phone": "(212) 531-1188", "distance": 5899.446169441757}, {"id": "HZWHBfeuP4Fb6y8b8uqnbA", "alias": "sushi-yasaka-new-york", "name": "Sushi Yasaka", "image_url": "https://s3-media3.fl.yelpcdn.com/bphoto/kBzfFxtiN2eLH_XOPXIdsw/o.jpg", "is_closed": false, "url": "https://www.yelp.com/biz/sushi-yasaka-new-york?adjust_creative=9gNmiWYX8uTbFBeTTvJMdA&utm_campaign=yelp_api_v3&utm_medium=api_v3_business_search&utm_source=9gNmiWYX8uTbFBeTTvJMdA", "review_count": 1979, "categories": [{"alias": "japanese", "title": "Japanese"}, {"alias": "sushi", "title": "Sushi Bars"}], "rating": 4.0, "coordinates": {"latitude": 40.779583, "longitude": -73.983482}, "transactions": ["pickup", "delivery"], "price": "$$", "location": {"address1": "251 W 72nd St", "address2": "", "address3": "", "city": "New York", "zip_code": "10023", "country": "US", "state": "NY", "display_address": ["251 W 72nd St", "New York, NY 10023"]}, "phone": "+12124968460", "display_phone": "(212) 496-8460", "distance": 2553.7211347669167}, {"id": "t7BIiUN0tFg33kySuuQ0aQ", "alias": "masa-new-york", "name": "Masa", "image_url": "https://s3-media1.fl.yelpcdn.com/bphoto/02vP2X2dAziFukNmxrlSOQ/o.jpg", "is_closed": false, "url": "https://www.yelp.com/biz/masa-new-york?adjust_creative=9gNmiWYX8uTbFBeTTvJMdA&utm_campaign=yelp_api_v3&utm_medium=api_v3_business_search&utm_source=9gNmiWYX8uTbFBeTTvJMdA", "review_count": 397, "categories": [{"alias": "sushi", "title": "Sushi Bars"}, {"alias": "japanese", "title": "Japanese"}], "rating": 4.0, "coordinates": {"latitude": 40.7685297553528, "longitude": -73.98304619784298}, "transactions": [], "price": "$$$$", "location": {"address1": "10 Columbus Cir", "address2": "Fl 4", "address3": "Time Warner Center", "city": "New York", "zip_code": "10019", "country": "US", "state": "NY", "display_address": ["10 Columbus Cir", "Fl 4", "Time Warner Center", "New York, NY 10019"]}, "phone": "+12128239800", "display_phone": "(212) 823-9800", "distance": 1539.3060310857675}, {"id": "pSSajdYNKTyAGV8-fk7fWQ", "alias": "joya-brooklyn", "name": "Joya", "image_url": "https://s3-media2.fl.yelpcdn.com/bphoto/T0KrpvXfnjm34uKT5hf4Ww/o.jpg", "is_closed": false, "url": "https://www.yelp.com/biz/joya-brooklyn?adjust_creative=9gNmiWYX8uTbFBeTTvJMdA&utm_campaign=yelp_api_v3&utm_medium=api_v3_business_search&utm_source=9gNmiWYX8uTbFBeTTvJMdA", "review_count": 1377, "categories": [{"alias": "thai", "title": "Thai"}], "rating": 3.5, "coordinates": {"latitude": 40.686672, "longitude": -73.993544}, "transactions": ["pickup", "delivery"], "price": "$$", "location": {"address1": "215 Court St", "address2": "", "address3": "", "city": "Brooklyn", "zip_code": "11201", "country": "US", "state": "NY", "display_address": ["215 Court St", "Brooklyn, NY 11201"]}, "phone": "+17182223484", "display_phone": "(718) 222-3484", "distance": 8310.770324532496}, {"id": "yDR9eVFATpyzrz3x1DtJGg", "alias": "aroy-d-the-thai-elephant-truck-hoboken-3", "name": "Aroy-D, The Thai Elephant Truck", "image_url": "https://s3-media2.fl.yelpcdn.com/bphoto/6SJ6vPG2EGHIsSb7K30UmQ/o.jpg", "is_closed": false, "url": "https://www.yelp.com/biz/aroy-d-the-thai-elephant-truck-hoboken-3?adjust_creative=9gNmiWYX8uTbFBeTTvJMdA&utm_campaign=yelp_api_v3&utm_medium=api_v3_business_search&utm_source=9gNmiWYX8uTbFBeTTvJMdA", "review_count": 40, "categories": [{"alias": "thai", "title": "Thai"}, {"alias": "foodtrucks", "title": "Food Trucks"}], "rating": 3.5, "coordinates": {"latitude": 40.75293, "longitude": -74.02495}, "transactions": ["delivery"], "price": "$", "location": {"address1": "1 14th St Hoboken Nj", "address2": null, "address3": "", "city": "Hoboken", "zip_code": "07044", "country": "US", "state": "NJ", "display_address": ["1 14th St Hoboken Nj", "Hoboken, NJ 07044"]}, "phone": "+12014745432", "display_phone": "(201) 474-5432", "distance": 4639.777947620489}, {"id": "RwEs6AvU5Cxp_ENodsgxHw", "alias": "nana-jersey-city", "name": "Nana", "image_url": "https://s3-media4.fl.yelpcdn.com/bphoto/5G2ozJUXsPMBathynYVspw/o.jpg", "is_closed": false, "url": "https://www.yelp.com/biz/nana-jersey-city?adjust_creative=9gNmiWYX8uTbFBeTTvJMdA&utm_campaign=yelp_api_v3&utm_medium=api_v3_business_search&utm_source=9gNmiWYX8uTbFBeTTvJMdA", "review_count": 121, "categories": [{"alias": "thai", "title": "Thai"}], "rating": 3.5, "coordinates": {"latitude": 40.74852, "longitude": -74.04721}, "transactions": ["pickup", "delivery"], "price": "$$", "location": {"address1": "406 Central Ave", "address2": "", "address3": null, "city": "Jersey City", "zip_code": "07307", "country": "US", "state": "NJ", "display_address": ["406 Central Ave", "Jersey City, NJ 07307"]}, "phone": "+12013600035", "display_phone": "(201) 360-0035", "distance": 6652.307827091035}, {"id": "55jx0bYJ-odyqKKSrDXtPA", "alias": "mighty-bowl-new-york-6", "name": "MIGHTY Bowl", "image_url": "https://s3-media3.fl.yelpcdn.com/bphoto/XN5E5ZtOISZbP8nWjLeQ2Q/o.jpg", "is_closed": false, "url": "https://www.yelp.com/biz/mighty-bowl-new-york-6?adjust_creative=9gNmiWYX8uTbFBeTTvJMdA&utm_campaign=yelp_api_v3&utm_medium=api_v3_business_search&utm_source=9gNmiWYX8uTbFBeTTvJMdA", "review_count": 162, "categories": [{"alias": "asianfusion", "title": "Asian Fusion"}, {"alias": "poke", "title": "Poke"}], "rating": 4.0, "coordinates": {"latitude": 40.75099515490632, "longitude": -73.97160693756847}, "transactions": ["pickup", "delivery"], "price": "$$", "location": {"address1": "817 2nd Ave", "address2": null, "address3": "", "city": "New York", "zip_code": "10017", "country": "US", "state": "NY", "display_address": ["817 2nd Ave", "New York, NY 10017"]}, "phone": "+16466495603", "display_phone": "(646) 649-5603", "distance": 925.5029480151678}, {"id": "7pWF8zJ26goQRqdlzvW9Qw", "alias": "little-wayla-new-york-2", "name": "Little Wayla", "image_url": "https://s3-media2.fl.yelpcdn.com/bphoto/1acvYWjYUv2r2_VBs4a2tw/o.jpg", "is_closed": false, "url": "https://www.yelp.com/biz/little-wayla-new-york-2?adjust_creative=9gNmiWYX8uTbFBeTTvJMdA&utm_campaign=yelp_api_v3&utm_medium=api_v3_business_search&utm_source=9gNmiWYX8uTbFBeTTvJMdA", "review_count": 18, "categories": [{"alias": "thai", "title": "Thai"}], "rating": 4.5, "coordinates": {"latitude": 40.71828, "longitude": -73.99275}, "transactions": [], "location": {"address1": "100 Forsyth St", "address2": "", "address3": null, "city": "New York", "zip_code": "10002", "country": "US", "state": "NY", "display_address": ["100 Forsyth St", "New York, NY 10002"]}, "phone": "+16463689240", "display_phone": "(646) 368-9240", "distance": 4943.404234403549}, {"id": "1xJV03v3g3oP3G5oDlWuoQ", "alias": "di-an-di-brooklyn-2", "name": "Di An Di", "image_url": "https://s3-media2.fl.yelpcdn.com/bphoto/YMo281bv-lFchFm8jqgcAg/o.jpg", "is_closed": false, "url": "https://www.yelp.com/biz/di-an-di-brooklyn-2?adjust_creative=9gNmiWYX8uTbFBeTTvJMdA&utm_campaign=yelp_api_v3&utm_medium=api_v3_business_search&utm_source=9gNmiWYX8uTbFBeTTvJMdA", "review_count": 318, "categories": [{"alias": "vietnamese", "title": "Vietnamese"}, {"alias": "cocktailbars", "title": "Cocktail Bars"}], "rating": 4.0, "coordinates": {"latitude": 40.72969, "longitude": -73.95827}, "transactions": ["pickup", "delivery"], "price": "$$", "location": {"address1": "68 Greenpoint Ave", "address2": "Ground Fl", "address3": null, "city": "Brooklyn", "zip_code": "11222", "country": "US", "state": "NY", "display_address": ["68 Greenpoint Ave", "Ground Fl", "Brooklyn, NY 11222"]}, "phone": "+17185763914", "display_phone": "(718) 576-3914", "distance": 3413.104544126525}, {"id": "AzW9hzF16jhHrlhrOQ-UfA", "alias": "nur-thai-queens", "name": "Nur Thai", "image_url": "https://s3-media1.fl.yelpcdn.com/bphoto/fWPLps5iDErHzxrgiDjcHw/o.jpg", "is_closed": false, "url": "https://www.yelp.com/biz/nur-thai-queens?adjust_creative=9gNmiWYX8uTbFBeTTvJMdA&utm_campaign=yelp_api_v3&utm_medium=api_v3_business_search&utm_source=9gNmiWYX8uTbFBeTTvJMdA", "review_count": 3, "categories": [{"alias": "thai", "title": "Thai"}], "rating": 3.5, "coordinates": {"latitude": 40.759797777129094, "longitude": -73.9269004}, "transactions": [], "location": {"address1": "31-01 34th Ave", "address2": "", "address3": null, "city": "Queens", "zip_code": "11106", "country": "US", "state": "NY", "display_address": ["31-01 34th Ave", "Queens, NY 11106"]}, "phone": "+17188743292", "display_phone": "(718) 874-3292", "distance": 3594.861032662737}, {"id": "Irs8IQdQMXRxnWTDiQXKyA", "alias": "plum-vietnamese-restaurant-new-york", "name": "Plum Vietnamese Restaurant", "image_url": "https://s3-media3.fl.yelpcdn.com/bphoto/omaq08q5P6N7kXc0IHM3CA/o.jpg", "is_closed": false, "url": "https://www.yelp.com/biz/plum-vietnamese-restaurant-new-york?adjust_creative=9gNmiWYX8uTbFBeTTvJMdA&utm_campaign=yelp_api_v3&utm_medium=api_v3_business_search&utm_source=9gNmiWYX8uTbFBeTTvJMdA", "review_count": 77, "categories": [{"alias": "vietnamese", "title": "Vietnamese"}, {"alias": "tapasmallplates", "title": "Tapas/Small Plates"}, {"alias": "asianfusion", "title": "Asian Fusion"}], "rating": 4.5, "coordinates": {"latitude": 40.793008077554795, "longitude": -73.97215002658557}, "transactions": ["pickup", "delivery"], "price": "$$", "location": {"address1": "210 W 94th St", "address2": null, "address3": "", "city": "New York", "zip_code": "10025", "country": "US", "state": "NY", "display_address": ["210 W 94th St", "New York, NY 10025"]}, "phone": "+16468844289", "display_phone": "(646) 884-4289", "distance": 3768.343291703217}, {"id": "zENn0_yDJEdLoHyivXb2xw", "alias": "black-thai-jackson-heights-4", "name": "Black Thai", "image_url": "https://s3-media3.fl.yelpcdn.com/bphoto/kxJrShs7FqI0OaNE1d01aw/o.jpg", "is_closed": false, "url": "https://www.yelp.com/biz/black-thai-jackson-heights-4?adjust_creative=9gNmiWYX8uTbFBeTTvJMdA&utm_campaign=yelp_api_v3&utm_medium=api_v3_business_search&utm_source=9gNmiWYX8uTbFBeTTvJMdA", "review_count": 317, "categories": [{"alias": "thai", "title": "Thai"}], "rating": 4.0, "coordinates": {"latitude": 40.7553269, "longitude": -73.8860092}, "transactions": ["pickup", "delivery"], "price": "$$", "location": {"address1": "81-16 Northern Blvd", "address2": "", "address3": "", "city": "Jackson Heights", "zip_code": "11372", "country": "US", "state": "NY", "display_address": ["81-16 Northern Blvd", "Jackson Heights, NY 11372"]}, "phone": "+17187798424", "display_phone": "(718) 779-8424", "distance": 7080.835782733968}, {"id": "ltk6eEztrcwqnxlJyz09Iw", "alias": "killer-thai-new-york", "name": "Killer Thai", "image_url": "https://s3-media1.fl.yelpcdn.com/bphoto/8YwA8kE3EezoyvfbmWXv_Q/o.jpg", "is_closed": false, "url": "https://www.yelp.com/biz/killer-thai-new-york?adjust_creative=9gNmiWYX8uTbFBeTTvJMdA&utm_campaign=yelp_api_v3&utm_medium=api_v3_business_search&utm_source=9gNmiWYX8uTbFBeTTvJMdA", "review_count": 6, "categories": [{"alias": "seafood", "title": "Seafood"}, {"alias": "noodles", "title": "Noodles"}, {"alias": "thai", "title": "Thai"}], "rating": 4.0, "coordinates": {"latitude": 40.70513697091654, "longitude": -73.9234444}, "transactions": ["pickup", "delivery"], "location": {"address1": "207 Starr St", "address2": null, "address3": "", "city": "New York", "zip_code": "11237", "country": "US", "state": "NY", "display_address": ["207 Starr St", "New York, NY 11237"]}, "phone": "+17189543036", "display_phone": "(718) 954-3036", "distance": 7156.286558675883}, {"id": "OBiBi8nimTl9GF64sPQfuQ", "alias": "mother-duck-new-york-2", "name": "Mother Duck", "image_url": "https://s3-media1.fl.yelpcdn.com/bphoto/6ItTncxeuIUTTsk3VxEv-A/o.jpg", "is_closed": false, "url": "https://www.yelp.com/biz/mother-duck-new-york-2?adjust_creative=9gNmiWYX8uTbFBeTTvJMdA&utm_campaign=yelp_api_v3&utm_medium=api_v3_business_search&utm_source=9gNmiWYX8uTbFBeTTvJMdA", "review_count": 53, "categories": [{"alias": "cocktailbars", "title": "Cocktail Bars"}, {"alias": "panasian", "title": "Pan Asian"}], "rating": 4.0, "coordinates": {"latitude": 40.72139, "longitude": -73.98867}, "transactions": ["pickup", "delivery"], "location": {"address1": "167 Orchard St", "address2": null, "address3": "", "city": "New York", "zip_code": "10002", "country": "US", "state": "NY", "display_address": ["167 Orchard St", "New York, NY 10002"]}, "phone": "+16467191700", "display_phone": "(646) 719-1700", "distance": 4505.835704170721}, {"id": "ipxeCjihDqXTMkuPe-CQ4A", "alias": "arunee-thai-jackson-heights", "name": "Arunee Thai", "image_url": "https://s3-media1.fl.yelpcdn.com/bphoto/yBzXFJre13F2BtJNRiWAlA/o.jpg", "is_closed": false, "url": "https://www.yelp.com/biz/arunee-thai-jackson-heights?adjust_creative=9gNmiWYX8uTbFBeTTvJMdA&utm_campaign=yelp_api_v3&utm_medium=api_v3_business_search&utm_source=9gNmiWYX8uTbFBeTTvJMdA", "review_count": 343, "categories": [{"alias": "thai", "title": "Thai"}], "rating": 4.0, "coordinates": {"latitude": 40.7494503, "longitude": -73.8873621}, "transactions": ["pickup", "delivery"], "price": "$$", "location": {"address1": "78-23 37th Ave", "address2": "", "address3": "", "city": "Jackson Heights", "zip_code": "11372", "country": "US", "state": "NY", "display_address": ["78-23 37th Ave", "Jackson Heights, NY 11372"]}, "phone": "+17182055559", "display_phone": "(718) 205-5559", "distance": 7008.769386082258}, {"id": "HScFap2SwbUlfC-QXVkxFA", "alias": "xian-famous-foods-new-york-39", "name": "Xi'an Famous Foods", "image_url": "https://s3-media3.fl.yelpcdn.com/bphoto/CyKvNW7VtMAXPecnh9c1lA/o.jpg", "is_closed": false, "url": "https://www.yelp.com/biz/xian-famous-foods-new-york-39?adjust_creative=9gNmiWYX8uTbFBeTTvJMdA&utm_campaign=yelp_api_v3&utm_medium=api_v3_business_search&utm_source=9gNmiWYX8uTbFBeTTvJMdA", "review_count": 1685, "categories": [{"alias": "chinese", "title": "Chinese"}, {"alias": "burgers", "title": "Burgers"}, {"alias": "noodles", "title": "Noodles"}], "rating": 4.0, "coordinates": {"latitude": 40.755136, "longitude": -73.982194}, "transactions": ["delivery"], "price": "$", "location": {"address1": "37 W 43rd", "address2": "", "address3": "", "city": "New York", "zip_code": "10036", "country": "US", "state": "NY", "display_address": ["37 W 43rd", "New York, NY 10036"]}, "phone": "+12127862068", "display_phone": "(212) 786-2068", "distance": 1153.9343929335555}, {"id": "QfcobhW--x1cEbQjOWrURg", "alias": "pattanian-thai-ridgewood", "name": "Pattanian Thai", "image_url": "https://s3-media2.fl.yelpcdn.com/bphoto/P-42zYhmRLEsYEVYhNQ1aw/o.jpg", "is_closed": false, "url": "https://www.yelp.com/biz/pattanian-thai-ridgewood?adjust_creative=9gNmiWYX8uTbFBeTTvJMdA&utm_campaign=yelp_api_v3&utm_medium=api_v3_business_search&utm_source=9gNmiWYX8uTbFBeTTvJMdA", "review_count": 13, "categories": [{"alias": "thai", "title": "Thai"}], "rating": 4.5, "coordinates": {"latitude": 40.71012, "longitude": -73.89958}, "transactions": ["pickup", "delivery"], "location": {"address1": "6402 Fresh Pond Rd", "address2": null, "address3": "", "city": "Ridgewood", "zip_code": "11385", "country": "US", "state": "NY", "display_address": ["6402 Fresh Pond Rd", "Ridgewood, NY 11385"]}, "phone": "+19293878065", "display_phone": "(929) 387-8065", "distance": 8030.77137884951}, {"id": "22uB5xk1aXPwRi9mc6bmOQ", "alias": "ajisai-on-duane-new-york", "name": "Ajisai on Duane", "image_url": "https://s3-media4.fl.yelpcdn.com/bphoto/YkmcNTGNTo95GQurPswiVg/o.jpg", "is_closed": false, "url": "https://www.yelp.com/biz/ajisai-on-duane-new-york?adjust_creative=9gNmiWYX8uTbFBeTTvJMdA&utm_campaign=yelp_api_v3&utm_medium=api_v3_business_search&utm_source=9gNmiWYX8uTbFBeTTvJMdA", "review_count": 38, "categories": [{"alias": "japanese", "title": "Japanese"}, {"alias": "sushi", "title": "Sushi Bars"}, {"alias": "seafood", "title": "Seafood"}], "rating": 5.0, "coordinates": {"latitude": 40.71751, "longitude": -74.01021}, "transactions": ["restaurant_reservation", "delivery", "pickup"], "location": {"address1": "183 Duane St", "address2": null, "address3": "", "city": "New York", "zip_code": "10013", "country": "US", "state": "NY", "display_address": ["183 Duane St", "New York, NY 10013"]}, "phone": "+16464227828", "display_phone": "(646) 422-7828", "distance": 5756.942198560404}, {"id": "LjBKkUSpMwrpo99hXgtHYw", "alias": "franchia-vegan-cafe-new-york", "name": "Franchia Vegan Cafe", "image_url": "https://s3-media3.fl.yelpcdn.com/bphoto/Yd_NNOOuxA7Ir7XIZaDk8g/o.jpg", "is_closed": false, "url": "https://www.yelp.com/biz/franchia-vegan-cafe-new-york?adjust_creative=9gNmiWYX8uTbFBeTTvJMdA&utm_campaign=yelp_api_v3&utm_medium=api_v3_business_search&utm_source=9gNmiWYX8uTbFBeTTvJMdA", "review_count": 1030, "categories": [{"alias": "korean", "title": "Korean"}, {"alias": "vegan", "title": "Vegan"}, {"alias": "asianfusion", "title": "Asian Fusion"}], "rating": 4.0, "coordinates": {"latitude": 40.7474712051298, "longitude": -73.9812423408763}, "transactions": ["pickup", "delivery"], "price": "$$", "location": {"address1": "12 Park Ave", "address2": "", "address3": "", "city": "New York", "zip_code": "10016", "country": "US", "state": "NY", "display_address": ["12 Park Ave", "New York, NY 10016"]}, "phone": "+12122131001", "display_phone": "(212) 213-1001", "distance": 1623.886843615844}, {"id": "xt8AcJzq61ksZbMJ1o--7Q", "alias": "wasabi-thai-bayonne-6", "name": "Wasabi Thai", "image_url": "https://s3-media1.fl.yelpcdn.com/bphoto/UqeO1MEbziBYIx66ROSeeA/o.jpg", "is_closed": false, "url": "https://www.yelp.com/biz/wasabi-thai-bayonne-6?adjust_creative=9gNmiWYX8uTbFBeTTvJMdA&utm_campaign=yelp_api_v3&utm_medium=api_v3_business_search&utm_source=9gNmiWYX8uTbFBeTTvJMdA", "review_count": 135, "categories": [{"alias": "japanese", "title": "Japanese"}, {"alias": "thai", "title": "Thai"}, {"alias": "sushi", "title": "Sushi Bars"}], "rating": 4.0, "coordinates": {"latitude": 40.67825, "longitude": -74.10648}, "transactions": ["delivery"], "price": "$", "location": {"address1": "897 Broadway", "address2": "", "address3": null, "city": "Bayonne", "zip_code": "07002", "country": "US", "state": "NJ", "display_address": ["897 Broadway", "Bayonne, NJ 07002"]}, "phone": "+12014367722", "display_phone": "(201) 436-7722", "distance": 14625.824075365863}, {"id": "pF6DuOQMSXdZMrvzlrLdQg", "alias": "hanoi-soup-shop-new-york", "name": "Hanoi Soup Shop", "image_url": "https://s3-media4.fl.yelpcdn.com/bphoto/WenxN6BW1KUebUR94qz3Zw/o.jpg", "is_closed": false, "url": "https://www.yelp.com/biz/hanoi-soup-shop-new-york?adjust_creative=9gNmiWYX8uTbFBeTTvJMdA&utm_campaign=yelp_api_v3&utm_medium=api_v3_business_search&utm_source=9gNmiWYX8uTbFBeTTvJMdA", "review_count": 30, "categories": [{"alias": "vietnamese", "title": "Vietnamese"}], "rating": 4.5, "coordinates": {"latitude": 40.72703, "longitude": -73.98369}, "transactions": ["pickup", "delivery"], "location": {"address1": "115 St Marks Pl", "address2": "", "address3": null, "city": "New York", "zip_code": "10009", "country": "US", "state": "NY", "display_address": ["115 St Marks Pl", "New York, NY 10009"]}, "phone": "+12129955010", "display_phone": "(212) 995-5010", "distance": 3765.640135099257}, {"id": "5ZjNZd3Yg0jOkJ9WRx1r6g", "alias": "kor-tor-mor-brooklyn-2", "name": "Kor Tor Mor", "image_url": "https://s3-media3.fl.yelpcdn.com/bphoto/gIGYjzN2QYoaSseH5z2kFw/o.jpg", "is_closed": false, "url": "https://www.yelp.com/biz/kor-tor-mor-brooklyn-2?adjust_creative=9gNmiWYX8uTbFBeTTvJMdA&utm_campaign=yelp_api_v3&utm_medium=api_v3_business_search&utm_source=9gNmiWYX8uTbFBeTTvJMdA", "review_count": 283, "categories": [{"alias": "thai", "title": "Thai"}, {"alias": "noodles", "title": "Noodles"}, {"alias": "soup", "title": "Soup"}], "rating": 4.0, "coordinates": {"latitude": 40.6846634, "longitude": -73.9918633}, "transactions": ["pickup", "delivery"], "price": "$$", "location": {"address1": "204 Smith St", "address2": "", "address3": "", "city": "Brooklyn", "zip_code": "11201", "country": "US", "state": "NY", "display_address": ["204 Smith St", "Brooklyn, NY 11201"]}, "phone": "+17187975100", "display_phone": "(718) 797-5100", "distance": 8495.52991062586}, {"id": "dEp2ubj8SRGD32N3yw2h_A", "alias": "noodlelove-new-york-3", "name": "Noodlelove", "image_url": "https://s3-media2.fl.yelpcdn.com/bphoto/Y-GIbuiRNo5CBmi_3wO6Pg/o.jpg", "is_closed": false, "url": "https://www.yelp.com/biz/noodlelove-new-york-3?adjust_creative=9gNmiWYX8uTbFBeTTvJMdA&utm_campaign=yelp_api_v3&utm_medium=api_v3_business_search&utm_source=9gNmiWYX8uTbFBeTTvJMdA", "review_count": 179, "categories": [{"alias": "asianfusion", "title": "Asian Fusion"}], "rating": 4.0, "coordinates": {"latitude": 40.72097817273693, "longitude": -73.99563495671056}, "transactions": ["pickup", "delivery"], "price": "$$", "location": {"address1": "192 Mott St", "address2": "", "address3": null, "city": "New York", "zip_code": "10012", "country": "US", "state": "NY", "display_address": ["192 Mott St", "New York, NY 10012"]}, "phone": "+16468700571", "display_phone": "(646) 870-0571", "distance": 4781.212422078755}, {"id": "_7Maf5WG682E7R-EHSz18w", "alias": "bangklyn-east-harlem-new-york-2", "name": "Bangklyn East Harlem", "image_url": "https://s3-media2.fl.yelpcdn.com/bphoto/GtfRMPKHh6rSf6en7O9CYw/o.jpg", "is_closed": false, "url": "https://www.yelp.com/biz/bangklyn-east-harlem-new-york-2?adjust_creative=9gNmiWYX8uTbFBeTTvJMdA&utm_campaign=yelp_api_v3&utm_medium=api_v3_business_search&utm_source=9gNmiWYX8uTbFBeTTvJMdA", "review_count": 149, "categories": [{"alias": "thai", "title": "Thai"}, {"alias": "coffee", "title": "Coffee & Tea"}, {"alias": "noodles", "title": "Noodles"}], "rating": 4.5, "coordinates": {"latitude": 40.7903, "longitude": -73.94307}, "transactions": ["pickup", "delivery"], "price": "$$", "location": {"address1": "2051 2nd Ave", "address2": null, "address3": "", "city": "New York", "zip_code": "10029", "country": "US", "state": "NY", "display_address": ["2051 2nd Ave", "New York, NY 10029"]}, "phone": "+16464298128", "display_phone": "(646) 429-8128", "distance": 4117.550556189331}, {"id": "AkoNWXRhZWyJInoWI1AaZw", "alias": "pad-thai-kitchen-brooklyn", "name": "Pad Thai Kitchen", "image_url": "https://s3-media1.fl.yelpcdn.com/bphoto/XxmxwBYjKDAagkBKvlX5Gg/o.jpg", "is_closed": false, "url": "https://www.yelp.com/biz/pad-thai-kitchen-brooklyn?adjust_creative=9gNmiWYX8uTbFBeTTvJMdA&utm_campaign=yelp_api_v3&utm_medium=api_v3_business_search&utm_source=9gNmiWYX8uTbFBeTTvJMdA", "review_count": 162, "categories": [{"alias": "thai", "title": "Thai"}], "rating": 4.0, "coordinates": {"latitude": 40.620614, "longitude": -73.989027}, "transactions": ["pickup", "delivery"], "price": "$$", "location": {"address1": "6218 18th Ave", "address2": null, "address3": "", "city": "Brooklyn", "zip_code": "11204", "country": "US", "state": "NY", "display_address": ["6218 18th Ave", "Brooklyn, NY 11204"]}, "phone": "+17184840156", "display_phone": "(718) 484-0156", "distance": 15493.397562956945}, {"id": "DNSFvZtdsqkaidmFSpm-Jw", "alias": "soba-noodle-azuma-new-york-3", "name": "Soba Noodle Azuma", "image_url": "https://s3-media3.fl.yelpcdn.com/bphoto/NYDhgDn4a2Bb3dUNvA3fng/o.jpg", "is_closed": false, "url": "https://www.yelp.com/biz/soba-noodle-azuma-new-york-3?adjust_creative=9gNmiWYX8uTbFBeTTvJMdA&utm_campaign=yelp_api_v3&utm_medium=api_v3_business_search&utm_source=9gNmiWYX8uTbFBeTTvJMdA", "review_count": 378, "categories": [{"alias": "noodles", "title": "Noodles"}, {"alias": "izakaya", "title": "Izakaya"}], "rating": 4.0, "coordinates": {"latitude": 40.76526, "longitude": -73.9832}, "transactions": ["delivery", "pickup"], "price": "$$", "location": {"address1": "251 W 55th St", "address2": null, "address3": "", "city": "New York", "zip_code": "10019", "country": "US", "state": "NY", "display_address": ["251 W 55th St", "New York, NY 10019"]}, "phone": "+19172620540", "display_phone": "(917) 262-0540", "distance": 1330.3759123122288}, {"id": "ri2YWZ2jMuxauAUA__4uvw", "alias": "sita-thai-new-york", "name": "SITA THAI", "image_url": "https://s3-media3.fl.yelpcdn.com/bphoto/olgmyNx9JgXikO3rTcSEGQ/o.jpg", "is_closed": false, "url": "https://www.yelp.com/biz/sita-thai-new-york?adjust_creative=9gNmiWYX8uTbFBeTTvJMdA&utm_campaign=yelp_api_v3&utm_medium=api_v3_business_search&utm_source=9gNmiWYX8uTbFBeTTvJMdA", "review_count": 78, "categories": [{"alias": "thai", "title": "Thai"}], "rating": 4.0, "coordinates": {"latitude": 40.82889, "longitude": -73.94899}, "transactions": ["pickup", "delivery"], "location": {"address1": "3609 Broadway Ave", "address2": "", "address3": "", "city": "New York", "zip_code": "10031", "country": "US", "state": "NY", "display_address": ["3609 Broadway Ave", "New York, NY 10031"]}, "phone": "+16469015623", "display_phone": "(646) 901-5623", "distance": 7942.633532900234}, {"id": "TcuWyuZAORVnQBPCMNbTgw", "alias": "beyond-sushi-new-york-4", "name": "Beyond Sushi", "image_url": "https://s3-media2.fl.yelpcdn.com/bphoto/BzonFoSIbiNWfbUNOOcrkw/o.jpg", "is_closed": false, "url": "https://www.yelp.com/biz/beyond-sushi-new-york-4?adjust_creative=9gNmiWYX8uTbFBeTTvJMdA&utm_campaign=yelp_api_v3&utm_medium=api_v3_business_search&utm_source=9gNmiWYX8uTbFBeTTvJMdA", "review_count": 812, "categories": [{"alias": "vegan", "title": "Vegan"}, {"alias": "vegetarian", "title": "Vegetarian"}, {"alias": "gluten_free", "title": "Gluten-Free"}], "rating": 4.5, "coordinates": {"latitude": 40.76331, "longitude": -73.97717}, "transactions": ["pickup", "delivery"], "price": "$$", "location": {"address1": "62 W 56th St", "address2": "", "address3": "", "city": "New York", "zip_code": "10019", "country": "US", "state": "NY", "display_address": ["62 W 56th St", "New York, NY 10019"]}, "phone": "+16469645097", "display_phone": "(646) 964-5097", "distance": 796.886845746668}, {"id": "Be5anr2hGPZg8tJhbDl6fw", "alias": "thai-direct-new-york-2", "name": "Thai Direct", "image_url": "https://s3-media4.fl.yelpcdn.com/bphoto/IRV9SWav8-b66tWlgjxvGw/o.jpg", "is_closed": false, "url": "https://www.yelp.com/biz/thai-direct-new-york-2?adjust_creative=9gNmiWYX8uTbFBeTTvJMdA&utm_campaign=yelp_api_v3&utm_medium=api_v3_business_search&utm_source=9gNmiWYX8uTbFBeTTvJMdA", "review_count": 2, "categories": [{"alias": "fooddeliveryservices", "title": "Food Delivery Services"}], "rating": 5.0, "coordinates": {"latitude": 40.7282702, "longitude": -73.9506774}, "transactions": [], "location": {"address1": null, "address2": "", "address3": null, "city": "New York", "zip_code": "11222", "country": "US", "state": "NY", "display_address": ["New York, NY 11222"]}, "phone": "+18007990318", "display_phone": "(800) 799-0318", "distance": 3787.2522029998013}], "total": 1700, "region": {"center": {"longitude": -73.96957397460938, "latitude": 40.75917470627005}}}