{"businesses": [{"id": "TcuWyuZAORVnQBPCMNbTgw", "alias": "beyond-sushi-new-york-4", "name": "Beyond Sushi", "image_url": "https://s3-media2.fl.yelpcdn.com/bphoto/BzonFoSIbiNWfbUNOOcrkw/o.jpg", "is_closed": false, "url": "https://www.yelp.com/biz/beyond-sushi-new-york-4?adjust_creative=9gNmiWYX8uTbFBeTTvJMdA&utm_campaign=yelp_api_v3&utm_medium=api_v3_business_search&utm_source=9gNmiWYX8uTbFBeTTvJMdA", "review_count": 812, "categories": [{"alias": "vegan", "title": "Vegan"}, {"alias": "vegetarian", "title": "Vegetarian"}, {"alias": "gluten_free", "title": "Gluten-Free"}], "rating": 4.5, "coordinates": {"latitude": 40.76331, "longitude": -73.97717}, "transactions": ["delivery", "pickup"], "price": "$$", "location": {"address1": "62 W 56th St", "address2": "", "address3": "", "city": "New York", "zip_code": "10019", "country": "US", "state": "NY", "display_address": ["62 W 56th St", "New York, NY 10019"]}, "phone": "+16469645097", "display_phone": "(646) 964-5097", "distance": 796.886845746668}, {"id": "AkoNWXRhZWyJInoWI1AaZw", "alias": "pad-thai-kitchen-brooklyn", "name": "Pad Thai Kitchen", "image_url": "https://s3-media1.fl.yelpcdn.com/bphoto/XxmxwBYjKDAagkBKvlX5Gg/o.jpg", "is_closed": false, "url": "https://www.yelp.com/biz/pad-thai-kitchen-brooklyn?adjust_creative=9gNmiWYX8uTbFBeTTvJMdA&utm_campaign=yelp_api_v3&utm_medium=api_v3_business_search&utm_source=9gNmiWYX8uTbFBeTTvJMdA", "review_count": 162, "categories": [{"alias": "thai", "title": "Thai"}], "rating": 4.0, "coordinates": {"latitude": 40.620614, "longitude": -73.989027}, "transactions": ["delivery", "pickup"], "price": "$$", "location": {"address1": "6218 18th Ave", "address2": null, "address3": "", "city": "Brooklyn", "zip_code": "11204", "country": "US", "state": "NY", "display_address": ["6218 18th Ave", "Brooklyn, NY 11204"]}, "phone": "+17184840156", "display_phone": "(718) 484-0156", "distance": 15493.397562956945}, {"id": "v3qL3KqFJYuS_3rCsgpuXQ", "alias": "rain-ii-new-york", "name": "Rain II", "image_url": "https://s3-media2.fl.yelpcdn.com/bphoto/zQi650uWrJT7L09Kk_d6og/o.jpg", "is_closed": false, "url": "https://www.yelp.com/biz/rain-ii-new-york?adjust_creative=9gNmiWYX8uTbFBeTTvJMdA&utm_campaign=yelp_api_v3&utm_medium=api_v3_business_search&utm_source=9gNmiWYX8uTbFBeTTvJMdA", "review_count": 193, "categories": [{"alias": "thai", "title": "Thai"}], "rating": 3.5, "coordinates": {"latitude": 40.838382, "longitude": -73.940054}, "transactions": ["delivery", "pickup"], "price": "$$", "location": {"address1": "1095 St Nicholas Ave", "address2": "", "address3": "", "city": "New York", "zip_code": "10032", "country": "US", "state": "NY", "display_address": ["1095 St Nicholas Ave", "New York, NY 10032"]}, "phone": "+16467670014", "display_phone": "(646) 767-0014", "distance": 9151.256946223824}, {"id": "PRQyJoum--REZ-yeEidyBg", "alias": "soba-noodle-azuma-fort-lee-2", "name": "Soba Noodle Azuma", "image_url": "https://s3-media1.fl.yelpcdn.com/bphoto/rEgKpGCMusAPLtPFhTeV5g/o.jpg", "is_closed": false, "url": "https://www.yelp.com/biz/soba-noodle-azuma-fort-lee-2?adjust_creative=9gNmiWYX8uTbFBeTTvJMdA&utm_campaign=yelp_api_v3&utm_medium=api_v3_business_search&utm_source=9gNmiWYX8uTbFBeTTvJMdA", "review_count": 417, "categories": [{"alias": "japanese", "title": "Japanese"}, {"alias": "noodles", "title": "Noodles"}], "rating": 4.0, "coordinates": {"latitude": 40.85172, "longitude": -73.97219}, "transactions": ["delivery", "pickup"], "price": "$$", "location": {"address1": "246 Main St", "address2": "", "address3": "", "city": "Fort Lee", "zip_code": "07024", "country": "US", "state": "NJ", "display_address": ["246 Main St", "Fort Lee, NJ 07024"]}, "phone": "+12015851319", "display_phone": "(201) 585-1319", "distance": 10290.91825118861}, {"id": "DNSFvZtdsqkaidmFSpm-Jw", "alias": "soba-noodle-azuma-new-york-3", "name": "Soba Noodle Azuma", "image_url": "https://s3-media3.fl.yelpcdn.com/bphoto/NYDhgDn4a2Bb3dUNvA3fng/o.jpg", "is_closed": false, "url": "https://www.yelp.com/biz/soba-noodle-azuma-new-york-3?adjust_creative=9gNmiWYX8uTbFBeTTvJMdA&utm_campaign=yelp_api_v3&utm_medium=api_v3_business_search&utm_source=9gNmiWYX8uTbFBeTTvJMdA", "review_count": 378, "categories": [{"alias": "noodles", "title": "Noodles"}, {"alias": "izakaya", "title": "Izakaya"}], "rating": 4.0, "coordinates": {"latitude": 40.76526, "longitude": -73.9832}, "transactions": ["delivery", "pickup"], "price": "$$", "location": {"address1": "251 W 55th St", "address2": null, "address3": "", "city": "New York", "zip_code": "10019", "country": "US", "state": "NY", "display_address": ["251 W 55th St", "New York, NY 10019"]}, "phone": "+19172620540", "display_phone": "(917) 262-0540", "distance": 1330.3759123122288}, {"id": "PYN67roncq-uYxKWPd7ukQ", "alias": "dumpling-dojo-rutherford-3", "name": "Dumpling Dojo", "image_url": "https://s3-media3.fl.yelpcdn.com/bphoto/-iFoFdVikh6cK3uhtQiVZg/o.jpg", "is_closed": false, "url": "https://www.yelp.com/biz/dumpling-dojo-rutherford-3?adjust_creative=9gNmiWYX8uTbFBeTTvJMdA&utm_campaign=yelp_api_v3&utm_medium=api_v3_business_search&utm_source=9gNmiWYX8uTbFBeTTvJMdA", "review_count": 326, "categories": [{"alias": "ramen", "title": "Ramen"}, {"alias": "asianfusion", "title": "Asian Fusion"}, {"alias": "noodles", "title": "Noodles"}], "rating": 4.0, "coordinates": {"latitude": 40.82738778671193, "longitude": -74.1026645}, "transactions": ["delivery", "pickup"], "price": "$$", "location": {"address1": "16 Glen Rd", "address2": "", "address3": "", "city": "Rutherford", "zip_code": "07070", "country": "US", "state": "NJ", "display_address": ["16 Glen Rd", "Rutherford, NJ 07070"]}, "phone": "+12015144163", "display_phone": "(201) 514-4163", "distance": 13529.90296067934}, {"id": "Be5anr2hGPZg8tJhbDl6fw", "alias": "thai-direct-new-york-2", "name": "Thai Direct", "image_url": "https://s3-media4.fl.yelpcdn.com/bphoto/IRV9SWav8-b66tWlgjxvGw/o.jpg", "is_closed": false, "url": "https://www.yelp.com/biz/thai-direct-new-york-2?adjust_creative=9gNmiWYX8uTbFBeTTvJMdA&utm_campaign=yelp_api_v3&utm_medium=api_v3_business_search&utm_source=9gNmiWYX8uTbFBeTTvJMdA", "review_count": 2, "categories": [{"alias": "fooddeliveryservices", "title": "Food Delivery Services"}], "rating": 5.0, "coordinates": {"latitude": 40.7282702, "longitude": -73.9506774}, "transactions": [], "location": {"address1": null, "address2": "", "address3": null, "city": "New York", "zip_code": "11222", "country": "US", "state": "NY", "display_address": ["New York, NY 11222"]}, "phone": "+18007990318", "display_phone": "(800) 799-0318", "distance": 3787.2522029998013}, {"id": "YatDZB1Lhth3z3pfWCNPGA", "alias": "gub-khao-thai-restaurant-paterson-3", "name": "Gub Khao Thai Restaurant", "image_url": "https://s3-media2.fl.yelpcdn.com/bphoto/wC5GdvtvN0fC-olyq-Wbgw/o.jpg", "is_closed": false, "url": "https://www.yelp.com/biz/gub-khao-thai-restaurant-paterson-3?adjust_creative=9gNmiWYX8uTbFBeTTvJMdA&utm_campaign=yelp_api_v3&utm_medium=api_v3_business_search&utm_source=9gNmiWYX8uTbFBeTTvJMdA", "review_count": 63, "categories": [{"alias": "thai", "title": "Thai"}, {"alias": "desserts", "title": "Desserts"}, {"alias": "noodles", "title": "Noodles"}], "rating": 4.5, "coordinates": {"latitude": 40.89535, "longitude": -74.15975}, "transactions": ["delivery", "pickup"], "price": "$$", "location": {"address1": "951 Main St", "address2": null, "address3": "", "city": "Paterson", "zip_code": "07503", "country": "US", "state": "NJ", "display_address": ["951 Main St", "Paterson, NJ 07503"]}, "phone": "+19739259595", "display_phone": "(973) 925-9595", "distance": 22034.27782925994}, {"id": "gr3wUszE1972q0GBkmwEXQ", "alias": "bangkok-cuisine-forest-hills", "name": "Bangkok Cuisine", "image_url": "https://s3-media3.fl.yelpcdn.com/bphoto/TsJNJcoF-4fx03_7iflLDg/o.jpg", "is_closed": false, "url": "https://www.yelp.com/biz/bangkok-cuisine-forest-hills?adjust_creative=9gNmiWYX8uTbFBeTTvJMdA&utm_campaign=yelp_api_v3&utm_medium=api_v3_business_search&utm_source=9gNmiWYX8uTbFBeTTvJMdA", "review_count": 485, "categories": [{"alias": "thai", "title": "Thai"}], "rating": 4.0, "coordinates": {"latitude": 40.720954, "longitude": -73.845238}, "transactions": ["delivery", "pickup"], "price": "$$", "location": {"address1": "10718 70th Rd", "address2": "", "address3": "", "city": "Forest Hills", "zip_code": "11375", "country": "US", "state": "NY", "display_address": ["10718 70th Rd", "Forest Hills, NY 11375"]}, "phone": "+17182614005", "display_phone": "(718) 261-4005", "distance": 11298.66962413298}, {"id": "2pJ782hnKTK0MWbc0H7EDw", "alias": "ditmars-thai-astoria", "name": "Ditmars Thai", "image_url": "https://s3-media4.fl.yelpcdn.com/bphoto/fwQ-GMkVKVmfCZuCRoryBg/o.jpg", "is_closed": false, "url": "https://www.yelp.com/biz/ditmars-thai-astoria?adjust_creative=9gNmiWYX8uTbFBeTTvJMdA&utm_campaign=yelp_api_v3&utm_medium=api_v3_business_search&utm_source=9gNmiWYX8uTbFBeTTvJMdA", "review_count": 51, "categories": [{"alias": "thai", "title": "Thai"}, {"alias": "salad", "title": "Salad"}, {"alias": "noodles", "title": "Noodles"}], "rating": 4.5, "coordinates": {"latitude": 40.774694, "longitude": -73.908293}, "transactions": ["delivery", "pickup"], "location": {"address1": "35-13 Ditmars Blvd", "address2": "", "address3": null, "city": "Astoria", "zip_code": "11105", "country": "US", "state": "NY", "display_address": ["35-13 Ditmars Blvd", "Astoria, NY 11105"]}, "phone": "+17182694549", "display_phone": "(718) 269-4549", "distance": 5441.585940101586}, {"id": "nu239sXQUGjcGFhZ3AdJmQ", "alias": "erawan-thai-cuisine-bayside", "name": "Erawan Thai Cuisine", "image_url": "https://s3-media1.fl.yelpcdn.com/bphoto/8wxF0Zd7nFgJk6MvJlqhHw/o.jpg", "is_closed": false, "url": "https://www.yelp.com/biz/erawan-thai-cuisine-bayside?adjust_creative=9gNmiWYX8uTbFBeTTvJMdA&utm_campaign=yelp_api_v3&utm_medium=api_v3_business_search&utm_source=9gNmiWYX8uTbFBeTTvJMdA", "review_count": 374, "categories": [{"alias": "thai", "title": "Thai"}], "rating": 3.5, "coordinates": {"latitude": 40.761821, "longitude": -73.769775}, "transactions": ["delivery", "pickup"], "price": "$$", "location": {"address1": "4231 Bell Blvd", "address2": "", "address3": "", "city": "Bayside", "zip_code": "11361", "country": "US", "state": "NY", "display_address": ["4231 Bell Blvd", "Bayside, NY 11361"]}, "phone": "+17184282112", "display_phone": "(718) 428-2112", "distance": 16826.154551282532}, {"id": "jOGL9SOeMH2F6HO5qxbDHw", "alias": "boon-thai-greenpoint", "name": "Boon Thai", "image_url": "https://s3-media1.fl.yelpcdn.com/bphoto/8IWhtJY27IlA0X5lLmVm9g/o.jpg", "is_closed": false, "url": "https://www.yelp.com/biz/boon-thai-greenpoint?adjust_creative=9gNmiWYX8uTbFBeTTvJMdA&utm_campaign=yelp_api_v3&utm_medium=api_v3_business_search&utm_source=9gNmiWYX8uTbFBeTTvJMdA", "review_count": 90, "categories": [{"alias": "thai", "title": "Thai"}], "rating": 3.0, "coordinates": {"latitude": 40.72499, "longitude": -73.95162}, "transactions": ["delivery", "pickup"], "price": "$$", "location": {"address1": "681 Manhattan Ave", "address2": "", "address3": "", "city": "Greenpoint", "zip_code": "11222", "country": "US", "state": "NY", "display_address": ["681 Manhattan Ave", "Greenpoint, NY 11222"]}, "phone": "+17183498215", "display_phone": "(718) 349-8215", "distance": 4091.8436337240455}, {"id": "oTkzgr7hzOAdlP99Auj3GQ", "alias": "momosan-ramen-and-sake-new-york-new-york", "name": "Momosan Ramen & Sake - New York", "image_url": "https://s3-media3.fl.yelpcdn.com/bphoto/y1zFJ01-X-A9vaCmH1if7g/o.jpg", "is_closed": false, "url": "https://www.yelp.com/biz/momosan-ramen-and-sake-new-york-new-york?adjust_creative=9gNmiWYX8uTbFBeTTvJMdA&utm_campaign=yelp_api_v3&utm_medium=api_v3_business_search&utm_source=9gNmiWYX8uTbFBeTTvJMdA", "review_count": 1799, "categories": [{"alias": "ramen", "title": "Ramen"}, {"alias": "asianfusion", "title": "Asian Fusion"}], "rating": 4.0, "coordinates": {"latitude": 40.74993, "longitude": -73.97746}, "transactions": ["delivery", "pickup"], "price": "$$", "location": {"address1": "342 Lexington Ave", "address2": "", "address3": "", "city": "New York", "zip_code": "10016", "country": "US", "state": "NY", "display_address": ["342 Lexington Ave", "New York, NY 10016"]}, "phone": "+16462015529", "display_phone": "(646) 201-5529", "distance": 1224.7837342614102}, {"id": "_2V0as8DZDwVxAi3ZJ0JkA", "alias": "raku-its-japanese-ii-new-york-2", "name": "Raku - It's Japanese II", "image_url": "https://s3-media1.fl.yelpcdn.com/bphoto/5S2dXwXXQOTCXNNrbcr9QA/o.jpg", "is_closed": false, "url": "https://www.yelp.com/biz/raku-its-japanese-ii-new-york-2?adjust_creative=9gNmiWYX8uTbFBeTTvJMdA&utm_campaign=yelp_api_v3&utm_medium=api_v3_business_search&utm_source=9gNmiWYX8uTbFBeTTvJMdA", "review_count": 397, "categories": [{"alias": "japanese", "title": "Japanese"}, {"alias": "sushi", "title": "Sushi Bars"}], "rating": 4.0, "coordinates": {"latitude": 40.779997, "longitude": -73.976516}, "transactions": ["delivery", "pickup"], "price": "$$", "location": {"address1": "57 W 76th St", "address2": "", "address3": "", "city": "New York", "zip_code": "10023", "country": "US", "state": "NY", "display_address": ["57 W 76th St", "New York, NY 10023"]}, "phone": "+12128731220", "display_phone": "(212) 873-1220", "distance": 2387.9949981454183}, {"id": "DDrLKyZodnd9KbOWq4F5nw", "alias": "thai-palace-ridgefield-park", "name": "Thai Palace", "image_url": "https://s3-media3.fl.yelpcdn.com/bphoto/1S5Bzc7tBXaUYM7WM54Aaw/o.jpg", "is_closed": false, "url": "https://www.yelp.com/biz/thai-palace-ridgefield-park?adjust_creative=9gNmiWYX8uTbFBeTTvJMdA&utm_campaign=yelp_api_v3&utm_medium=api_v3_business_search&utm_source=9gNmiWYX8uTbFBeTTvJMdA", "review_count": 177, "categories": [{"alias": "thai", "title": "Thai"}], "rating": 4.0, "coordinates": {"latitude": 40.857302, "longitude": -74.02525}, "transactions": ["delivery", "pickup"], "price": "$$", "location": {"address1": "218 Main St", "address2": null, "address3": "", "city": "Ridgefield Park", "zip_code": "07660", "country": "US", "state": "NJ", "display_address": ["218 Main St", "Ridgefield Park, NJ 07660"]}, "phone": "+12014419119", "display_phone": "(201) 441-9119", "distance": 11874.880750790813}, {"id": "Ri0hq80RV6yrPDHmW4Gu3g", "alias": "spice-thai-brooklyn-3", "name": "Spice Thai", "image_url": "https://s3-media2.fl.yelpcdn.com/bphoto/8-jyD2DfuSLkGxWW3u6ABA/o.jpg", "is_closed": false, "url": "https://www.yelp.com/biz/spice-thai-brooklyn-3?adjust_creative=9gNmiWYX8uTbFBeTTvJMdA&utm_campaign=yelp_api_v3&utm_medium=api_v3_business_search&utm_source=9gNmiWYX8uTbFBeTTvJMdA", "review_count": 32, "categories": [{"alias": "thai", "title": "Thai"}], "rating": 4.0, "coordinates": {"latitude": 40.710786, "longitude": -73.963886}, "transactions": ["delivery", "pickup"], "location": {"address1": "394 Bedford Ave", "address2": "", "address3": null, "city": "Brooklyn", "zip_code": "11249", "country": "US", "state": "NY", "display_address": ["394 Bedford Ave", "Brooklyn, NY 11249"]}, "phone": "+17185763571", "display_phone": "(718) 576-3571", "distance": 5404.352021493075}, {"id": "LpVbI-E9C-CSp7WhU5h2Iw", "alias": "fishmarket-restaurant-new-york", "name": "Fishmarket Restaurant", "image_url": "https://s3-media1.fl.yelpcdn.com/bphoto/-rU1vuRmHkzA6nhmoVRHnQ/o.jpg", "is_closed": false, "url": "https://www.yelp.com/biz/fishmarket-restaurant-new-york?adjust_creative=9gNmiWYX8uTbFBeTTvJMdA&utm_campaign=yelp_api_v3&utm_medium=api_v3_business_search&utm_source=9gNmiWYX8uTbFBeTTvJMdA", "review_count": 626, "categories": [{"alias": "seafood", "title": "Seafood"}, {"alias": "divebars", "title": "Dive Bars"}, {"alias": "malaysian", "title": "Malaysian"}], "rating": 4.5, "coordinates": {"latitude": 40.70717, "longitude": -74.00192}, "transactions": ["delivery"], "price": "$$", "location": {"address1": "111 South St", "address2": "", "address3": "", "city": "New York", "zip_code": "10038", "country": "US", "state": "NY", "display_address": ["111 South St", "New York, NY 10038"]}, "phone": "+19173638101", "display_phone": "(917) 363-8101", "distance": 6394.885509189692}, {"id": "Wbmqg0TkOVkzNh3HrJ9DIQ", "alias": "vietnaam-new-york", "name": "Vietnaam", "image_url": "https://s3-media3.fl.yelpcdn.com/bphoto/jlYG972yITxGmczz-7m6sg/o.jpg", "is_closed": false, "url": "https://www.yelp.com/biz/vietnaam-new-york?adjust_creative=9gNmiWYX8uTbFBeTTvJMdA&utm_campaign=yelp_api_v3&utm_medium=api_v3_business_search&utm_source=9gNmiWYX8uTbFBeTTvJMdA", "review_count": 886, "categories": [{"alias": "vietnamese", "title": "Vietnamese"}, {"alias": "sandwiches", "title": "Sandwiches"}, {"alias": "soup", "title": "Soup"}], "rating": 4.0, "coordinates": {"latitude": 40.7791481018066, "longitude": -73.9504165649414}, "transactions": ["delivery"], "price": "$$", "location": {"address1": "1700 2nd Ave", "address2": "", "address3": "", "city": "New York", "zip_code": "10128", "country": "US", "state": "NY", "display_address": ["1700 2nd Ave", "New York, NY 10128"]}, "phone": "+12127220558", "display_phone": "(212) 722-0558", "distance": 2747.689502652153}, {"id": "1XIHwTfpNms9IX-fRG-kIA", "alias": "theo-thai-bistro-brooklyn", "name": "Theo Thai Bistro", "image_url": "https://s3-media1.fl.yelpcdn.com/bphoto/Ny9nDb4HfUU8b5IhtYnweg/o.jpg", "is_closed": false, "url": "https://www.yelp.com/biz/theo-thai-bistro-brooklyn?adjust_creative=9gNmiWYX8uTbFBeTTvJMdA&utm_campaign=yelp_api_v3&utm_medium=api_v3_business_search&utm_source=9gNmiWYX8uTbFBeTTvJMdA", "review_count": 13, "categories": [{"alias": "thai", "title": "Thai"}], "rating": 5.0, "coordinates": {"latitude": 40.681159, "longitude": -73.97421}, "transactions": ["delivery", "pickup"], "location": {"address1": "53 6th Ave", "address2": null, "address3": "", "city": "Brooklyn", "zip_code": "11217", "country": "US", "state": "NY", "display_address": ["53 6th Ave", "Brooklyn, NY 11217"]}, "phone": "+17186235455", "display_phone": "(718) 623-5455", "distance": 8685.073538661183}, {"id": "C_nZXc4hJK7jYRxdJnF89g", "alias": "zoni-restaurant-west-new-york", "name": "Zoni Restaurant", "image_url": "https://s3-media1.fl.yelpcdn.com/bphoto/jnRIW8M_rYcf0O8Wb3Nsog/o.jpg", "is_closed": false, "url": "https://www.yelp.com/biz/zoni-restaurant-west-new-york?adjust_creative=9gNmiWYX8uTbFBeTTvJMdA&utm_campaign=yelp_api_v3&utm_medium=api_v3_business_search&utm_source=9gNmiWYX8uTbFBeTTvJMdA", "review_count": 15, "categories": [{"alias": "vegan", "title": "Vegan"}], "rating": 4.5, "coordinates": {"latitude": 40.787124222545025, "longitude": -74.01799599834479}, "transactions": ["delivery", "pickup"], "location": {"address1": "5617 Bergenline Ave", "address2": "", "address3": null, "city": "West New York", "zip_code": "07093", "country": "US", "state": "NJ", "display_address": ["5617 Bergenline Ave", "West New York, NJ 07093"]}, "phone": "+12013199865", "display_phone": "(201) 319-9865", "distance": 5126.8743459107955}, {"id": "SkD3MrsLIT1Wq-7eTIE-mQ", "alias": "ros-niyom-thai-restaurant-new-york", "name": "Ros Niyom Thai Restaurant", "image_url": "https://s3-media4.fl.yelpcdn.com/bphoto/p1JsjPUbKlEVLAEhzjxLsw/o.jpg", "is_closed": false, "url": "https://www.yelp.com/biz/ros-niyom-thai-restaurant-new-york?adjust_creative=9gNmiWYX8uTbFBeTTvJMdA&utm_campaign=yelp_api_v3&utm_medium=api_v3_business_search&utm_source=9gNmiWYX8uTbFBeTTvJMdA", "review_count": 19, "categories": [{"alias": "thai", "title": "Thai"}], "rating": 4.5, "coordinates": {"latitude": 40.7432122, "longitude": -73.951706}, "transactions": ["delivery", "pickup"], "location": {"address1": "10-91 Jackson Ave", "address2": null, "address3": "", "city": "New York", "zip_code": "11101", "country": "US", "state": "NY", "display_address": ["10-91 Jackson Ave", "New York, NY 11101"]}, "phone": "+17184409752", "display_phone": "(718) 440-9752", "distance": 2326.1920719674445}, {"id": "R7EGjHWw0tNheY6-ahH8fQ", "alias": "tuome-new-york-2", "name": "Tuome", "image_url": "https://s3-media3.fl.yelpcdn.com/bphoto/4WtBFfLVrgLsjgkMVUy_jw/o.jpg", "is_closed": false, "url": "https://www.yelp.com/biz/tuome-new-york-2?adjust_creative=9gNmiWYX8uTbFBeTTvJMdA&utm_campaign=yelp_api_v3&utm_medium=api_v3_business_search&utm_source=9gNmiWYX8uTbFBeTTvJMdA", "review_count": 647, "categories": [{"alias": "newamerican", "title": "American (New)"}, {"alias": "asianfusion", "title": "Asian Fusion"}], "rating": 4.5, "coordinates": {"latitude": 40.72412482724, "longitude": -73.9828906263924}, "transactions": ["delivery"], "price": "$$$", "location": {"address1": "536 E 5th St", "address2": "", "address3": null, "city": "New York", "zip_code": "10009", "country": "US", "state": "NY", "display_address": ["536 E 5th St", "New York, NY 10009"]}, "phone": "+16468337811", "display_phone": "(646) 833-7811", "distance": 4055.6266689010827}, {"id": "wfhMIiMh2A2psCGONOVSlg", "alias": "han-dynasty-new-york", "name": "Han Dynasty", "image_url": "https://s3-media3.fl.yelpcdn.com/bphoto/G5jm9G3m_tquqwDm_qHoVQ/o.jpg", "is_closed": false, "url": "https://www.yelp.com/biz/han-dynasty-new-york?adjust_creative=9gNmiWYX8uTbFBeTTvJMdA&utm_campaign=yelp_api_v3&utm_medium=api_v3_business_search&utm_source=9gNmiWYX8uTbFBeTTvJMdA", "review_count": 1348, "categories": [{"alias": "szechuan", "title": "Szechuan"}, {"alias": "noodles", "title": "Noodles"}, {"alias": "beerbar", "title": "Beer Bar"}], "rating": 4.0, "coordinates": {"latitude": 40.732072, "longitude": -73.988074}, "transactions": ["delivery", "pickup"], "price": "$$", "location": {"address1": "90 3rd Ave", "address2": "", "address3": "", "city": "New York", "zip_code": "10003", "country": "US", "state": "NY", "display_address": ["90 3rd Ave", "New York, NY 10003"]}, "phone": "+12123908685", "display_phone": "(212) 390-8685", "distance": 3392.811937750481}, {"id": "_7Maf5WG682E7R-EHSz18w", "alias": "bangklyn-east-harlem-new-york-2", "name": "Bangklyn East Harlem", "image_url": "https://s3-media2.fl.yelpcdn.com/bphoto/GtfRMPKHh6rSf6en7O9CYw/o.jpg", "is_closed": false, "url": "https://www.yelp.com/biz/bangklyn-east-harlem-new-york-2?adjust_creative=9gNmiWYX8uTbFBeTTvJMdA&utm_campaign=yelp_api_v3&utm_medium=api_v3_business_search&utm_source=9gNmiWYX8uTbFBeTTvJMdA", "review_count": 149, "categories": [{"alias": "thai", "title": "Thai"}, {"alias": "coffee", "title": "Coffee & Tea"}, {"alias": "noodles", "title": "Noodles"}], "rating": 4.5, "coordinates": {"latitude": 40.7903, "longitude": -73.94307}, "transactions": ["delivery", "pickup"], "price": "$$", "location": {"address1": "2051 2nd Ave", "address2": null, "address3": "", "city": "New York", "zip_code": "10029", "country": "US", "state": "NY", "display_address": ["2051 2nd Ave", "New York, NY 10029"]}, "phone": "+16464298128", "display_phone": "(646) 429-8128", "distance": 4117.550556189331}, {"id": "ntiDPLkWm6GDLkYh0d2tBw", "alias": "5ive-spice-new-york-4", "name": "5ive Spice", "image_url": "https://s3-media1.fl.yelpcdn.com/bphoto/zIZyMsfmPv1ThzujcOZWzw/o.jpg", "is_closed": false, "url": "https://www.yelp.com/biz/5ive-spice-new-york-4?adjust_creative=9gNmiWYX8uTbFBeTTvJMdA&utm_campaign=yelp_api_v3&utm_medium=api_v3_business_search&utm_source=9gNmiWYX8uTbFBeTTvJMdA", "review_count": 2, "categories": [{"alias": "vietnamese", "title": "Vietnamese"}], "rating": 4.5, "coordinates": {"latitude": 40.74084302672611, "longitude": -73.9812869}, "transactions": ["delivery", "pickup"], "location": {"address1": "363 3rd Ave", "address2": null, "address3": "", "city": "New York", "zip_code": "10016", "country": "US", "state": "NY", "display_address": ["363 3rd Ave", "New York, NY 10016"]}, "phone": "", "display_phone": "", "distance": 2264.626086238654}, {"id": "Aw69I2eD-lYffytWGGYM8A", "alias": "pinwheel-garden-dumpling-and-noodle-bar-jersey-city", "name": "Pinwheel Garden Dumpling & Noodle Bar", "image_url": "https://s3-media4.fl.yelpcdn.com/bphoto/29p1rvLgWWfRbE9DrhlgBw/o.jpg", "is_closed": false, "url": "https://www.yelp.com/biz/pinwheel-garden-dumpling-and-noodle-bar-jersey-city?adjust_creative=9gNmiWYX8uTbFBeTTvJMdA&utm_campaign=yelp_api_v3&utm_medium=api_v3_business_search&utm_source=9gNmiWYX8uTbFBeTTvJMdA", "review_count": 400, "categories": [{"alias": "noodles", "title": "Noodles"}, {"alias": "asianfusion", "title": "Asian Fusion"}], "rating": 4.5, "coordinates": {"latitude": 40.71039, "longitude": -74.06102}, "transactions": ["delivery", "pickup"], "price": "$$", "location": {"address1": "318 Communipaw Ave", "address2": null, "address3": "", "city": "Jersey City", "zip_code": "07304", "country": "US", "state": "NJ", "display_address": ["318 Communipaw Ave", "Jersey City, NJ 07304"]}, "phone": "+12014135333", "display_phone": "(201) 413-5333", "distance": 9422.427099499946}, {"id": "5SNS8Gro3FyAjHfejcXkXQ", "alias": "gai-kitchen-new-york", "name": "Gai Kitchen", "image_url": "https://s3-media1.fl.yelpcdn.com/bphoto/DDmz8mxN8qZ_u-oMOTnTZw/o.jpg", "is_closed": false, "url": "https://www.yelp.com/biz/gai-kitchen-new-york?adjust_creative=9gNmiWYX8uTbFBeTTvJMdA&utm_campaign=yelp_api_v3&utm_medium=api_v3_business_search&utm_source=9gNmiWYX8uTbFBeTTvJMdA", "review_count": 30, "categories": [{"alias": "thai", "title": "Thai"}, {"alias": "chickenshop", "title": "Chicken Shop"}], "rating": 4.5, "coordinates": {"latitude": 40.717189594947605, "longitude": -73.9972861}, "transactions": ["delivery", "pickup"], "location": {"address1": "98 Mott St", "address2": "", "address3": null, "city": "New York", "zip_code": "10013", "country": "US", "state": "NY", "display_address": ["98 Mott St", "New York, NY 10013"]}, "phone": "", "display_phone": "", "distance": 5219.815113283056}, {"id": "CqQ2Og9kf-LhlUWtODalCQ", "alias": "blue-ribbon-sushi-bar-and-grill-columbus-circle-new-york-3", "name": "Blue Ribbon Sushi Bar & Grill - Columbus Circle", "image_url": "https://s3-media4.fl.yelpcdn.com/bphoto/u96LmtBxfIrkGnhp2mJmBQ/o.jpg", "is_closed": false, "url": "https://www.yelp.com/biz/blue-ribbon-sushi-bar-and-grill-columbus-circle-new-york-3?adjust_creative=9gNmiWYX8uTbFBeTTvJMdA&utm_campaign=yelp_api_v3&utm_medium=api_v3_business_search&utm_source=9gNmiWYX8uTbFBeTTvJMdA", "review_count": 835, "categories": [{"alias": "sushi", "title": "Sushi Bars"}, {"alias": "japanese", "title": "Japanese"}, {"alias": "cocktailbars", "title": "Cocktail Bars"}], "rating": 4.0, "coordinates": {"latitude": 40.7674948014194, "longitude": -73.9831978922043}, "transactions": ["delivery", "pickup"], "price": "$$$", "location": {"address1": "308 W 58th St", "address2": "6 Columbus Hotel", "address3": "", "city": "New York", "zip_code": "10019", "country": "US", "state": "NY", "display_address": ["308 W 58th St", "6 Columbus Hotel", "New York, NY 10019"]}, "phone": "+12123970404", "display_phone": "(212) 397-0404", "distance": 1473.9262662958372}, {"id": "PHMkwS5nmo4IUXbcg0OcAg", "alias": "jajaja-mexicana-new-york-3", "name": "Jajaja Mexicana", "image_url": "https://s3-media2.fl.yelpcdn.com/bphoto/uWbBN6yZcR5TMFY0W0RmYQ/o.jpg", "is_closed": false, "url": "https://www.yelp.com/biz/jajaja-mexicana-new-york-3?adjust_creative=9gNmiWYX8uTbFBeTTvJMdA&utm_campaign=yelp_api_v3&utm_medium=api_v3_business_search&utm_source=9gNmiWYX8uTbFBeTTvJMdA", "review_count": 569, "categories": [{"alias": "mexican", "title": "Mexican"}, {"alias": "vegan", "title": "Vegan"}, {"alias": "cocktailbars", "title": "Cocktail Bars"}], "rating": 4.5, "coordinates": {"latitude": 40.72979, "longitude": -74.00455}, "transactions": ["delivery", "pickup"], "price": "$$", "location": {"address1": "63 Carmine St", "address2": "", "address3": null, "city": "New York", "zip_code": "10014", "country": "US", "state": "NY", "display_address": ["63 Carmine St", "New York, NY 10014"]}, "phone": "+19172620184", "display_phone": "(917) 262-0184", "distance": 4395.0094481215365}, {"id": "Q23LvHPuC9ajSbMEt8xoUw", "alias": "lucky-cat-new-york-2", "name": "Lucky Cat", "image_url": "https://s3-media2.fl.yelpcdn.com/bphoto/rhjqhuGMrP8bp3sIpkw_tg/o.jpg", "is_closed": false, "url": "https://www.yelp.com/biz/lucky-cat-new-york-2?adjust_creative=9gNmiWYX8uTbFBeTTvJMdA&utm_campaign=yelp_api_v3&utm_medium=api_v3_business_search&utm_source=9gNmiWYX8uTbFBeTTvJMdA", "review_count": 415, "categories": [{"alias": "ramen", "title": "Ramen"}, {"alias": "izakaya", "title": "Izakaya"}, {"alias": "sushi", "title": "Sushi Bars"}], "rating": 4.0, "coordinates": {"latitude": 40.7570162692229, "longitude": -73.9681779883895}, "transactions": ["delivery", "pickup"], "price": "$$", "location": {"address1": "232 E 53rd St", "address2": "", "address3": "", "city": "New York", "zip_code": "10022", "country": "US", "state": "NY", "display_address": ["232 E 53rd St", "New York, NY 10022"]}, "phone": "+12128385333", "display_phone": "(212) 838-5333", "distance": 267.2608387473723}, {"id": "gJMMX5Ip4AsulbzxMZgdYg", "alias": "thai-bird-new-york", "name": "Thai Bird", "image_url": "https://s3-media2.fl.yelpcdn.com/bphoto/c8nc9GOU8k8ToLbJgXiFig/o.jpg", "is_closed": false, "url": "https://www.yelp.com/biz/thai-bird-new-york?adjust_creative=9gNmiWYX8uTbFBeTTvJMdA&utm_campaign=yelp_api_v3&utm_medium=api_v3_business_search&utm_source=9gNmiWYX8uTbFBeTTvJMdA", "review_count": 4, "categories": [{"alias": "thai", "title": "Thai"}, {"alias": "chicken_wings", "title": "Chicken Wings"}], "rating": 5.0, "coordinates": {"latitude": 40.7395853, "longitude": -73.9469816}, "transactions": ["delivery", "pickup"], "location": {"address1": "2330 Borden Ave", "address2": null, "address3": "", "city": "New york", "zip_code": "11101", "country": "US", "state": "NY", "display_address": ["2330 Borden Ave", "New york, NY 11101"]}, "phone": "+18567456041", "display_phone": "(856) 745-6041", "distance": 2892.51878642796}, {"id": "9HwsZNvviqdJYzFICHlDcQ", "alias": "don-chingri-astoria", "name": "Don Chingri", "image_url": "https://s3-media2.fl.yelpcdn.com/bphoto/7QL03uTrU2u8_Bw1Pt29OA/o.jpg", "is_closed": false, "url": "https://www.yelp.com/biz/don-chingri-astoria?adjust_creative=9gNmiWYX8uTbFBeTTvJMdA&utm_campaign=yelp_api_v3&utm_medium=api_v3_business_search&utm_source=9gNmiWYX8uTbFBeTTvJMdA", "review_count": 114, "categories": [{"alias": "halal", "title": "Halal"}, {"alias": "thai", "title": "Thai"}], "rating": 4.0, "coordinates": {"latitude": 40.76201, "longitude": -73.91682}, "transactions": ["delivery", "pickup"], "price": "$$", "location": {"address1": "30-78 Steinway St", "address2": null, "address3": "", "city": "Astoria", "zip_code": "11103", "country": "US", "state": "NY", "display_address": ["30-78 Steinway St", "Astoria, NY 11103"]}, "phone": "+17169023430", "display_phone": "(716) 902-3430", "distance": 4455.738992768373}, {"id": "xyBTcpnkIxV2h0AKU0pP0Q", "alias": "th\u00e1i-son-new-york-3", "name": "Th\u00e1i Son", "image_url": "https://s3-media3.fl.yelpcdn.com/bphoto/izlcciO1EfcLspPxwBJRLQ/o.jpg", "is_closed": false, "url": "https://www.yelp.com/biz/th%C3%A1i-son-new-york-3?adjust_creative=9gNmiWYX8uTbFBeTTvJMdA&utm_campaign=yelp_api_v3&utm_medium=api_v3_business_search&utm_source=9gNmiWYX8uTbFBeTTvJMdA", "review_count": 955, "categories": [{"alias": "vietnamese", "title": "Vietnamese"}], "rating": 3.5, "coordinates": {"latitude": 40.71677, "longitude": -73.9995}, "transactions": ["delivery", "pickup"], "price": "$$", "location": {"address1": "89 Baxter St", "address2": "", "address3": "", "city": "New York", "zip_code": "10013", "country": "US", "state": "NY", "display_address": ["89 Baxter St", "New York, NY 10013"]}, "phone": "+12127322822", "display_phone": "(212) 732-2822", "distance": 5345.820095869627}, {"id": "zBf-m72ATTPTey-_9vu3Yw", "alias": "peacefood-cafe-new-york-5", "name": "Peacefood Cafe", "image_url": "https://s3-media1.fl.yelpcdn.com/bphoto/jNJtmQ8p0JKQUTb0A2DPbw/o.jpg", "is_closed": false, "url": "https://www.yelp.com/biz/peacefood-cafe-new-york-5?adjust_creative=9gNmiWYX8uTbFBeTTvJMdA&utm_campaign=yelp_api_v3&utm_medium=api_v3_business_search&utm_source=9gNmiWYX8uTbFBeTTvJMdA", "review_count": 1427, "categories": [{"alias": "vegan", "title": "Vegan"}, {"alias": "cafes", "title": "Cafes"}], "rating": 4.0, "coordinates": {"latitude": 40.785326, "longitude": -73.97713}, "transactions": ["delivery", "pickup"], "price": "$$", "location": {"address1": "460 Amsterdam Ave", "address2": "", "address3": "", "city": "New York", "zip_code": "10024", "country": "US", "state": "NY", "display_address": ["460 Amsterdam Ave", "New York, NY 10024"]}, "phone": "+12123622266", "display_phone": "(212) 362-2266", "distance": 2976.6881495778566}, {"id": "m4_k7yyNyU3yuUtb9CbpmQ", "alias": "thai-evolution-new-york", "name": "Thai Evolution", "image_url": "https://s3-media1.fl.yelpcdn.com/bphoto/Dz34JUfbTYl38b84NqJGig/o.jpg", "is_closed": false, "url": "https://www.yelp.com/biz/thai-evolution-new-york?adjust_creative=9gNmiWYX8uTbFBeTTvJMdA&utm_campaign=yelp_api_v3&utm_medium=api_v3_business_search&utm_source=9gNmiWYX8uTbFBeTTvJMdA", "review_count": 3, "categories": [{"alias": "thai", "title": "Thai"}], "rating": 2.5, "coordinates": {"latitude": 40.746921, "longitude": -73.977661}, "transactions": ["delivery", "pickup"], "location": {"address1": "536 3rd Ave", "address2": "", "address3": "", "city": "New York", "zip_code": "10016", "country": "US", "state": "NY", "display_address": ["536 3rd Ave", "New York, NY 10016"]}, "phone": "+12125826180", "display_phone": "(212) 582-6180", "distance": 1522.628863231999}, {"id": "cugwo9ncnGnH_Chu-P-iAw", "alias": "am-thai-bistro-brooklyn", "name": "Am Thai Bistro", "image_url": "https://s3-media4.fl.yelpcdn.com/bphoto/IoRoSUSNqi0Se2uoRL2FCA/o.jpg", "is_closed": false, "url": "https://www.yelp.com/biz/am-thai-bistro-brooklyn?adjust_creative=9gNmiWYX8uTbFBeTTvJMdA&utm_campaign=yelp_api_v3&utm_medium=api_v3_business_search&utm_source=9gNmiWYX8uTbFBeTTvJMdA", "review_count": 620, "categories": [{"alias": "thai", "title": "Thai"}], "rating": 4.0, "coordinates": {"latitude": 40.646825, "longitude": -73.970082}, "transactions": ["delivery", "pickup"], "price": "$$", "location": {"address1": "1003 Church Ave", "address2": "", "address3": "", "city": "Brooklyn", "zip_code": "11218", "country": "US", "state": "NY", "display_address": ["1003 Church Ave", "Brooklyn, NY 11218"]}, "phone": "+17182878888", "display_phone": "(718) 287-8888", "distance": 12492.77689304949}, {"id": "l5kvoGj9t3ZcR0Y3nQWcNw", "alias": "lula-mae-brooklyn", "name": "Lula Mae", "image_url": "https://s3-media1.fl.yelpcdn.com/bphoto/3TBsJk4p345D9Qwf2qxYMQ/o.jpg", "is_closed": false, "url": "https://www.yelp.com/biz/lula-mae-brooklyn?adjust_creative=9gNmiWYX8uTbFBeTTvJMdA&utm_campaign=yelp_api_v3&utm_medium=api_v3_business_search&utm_source=9gNmiWYX8uTbFBeTTvJMdA", "review_count": 4, "categories": [{"alias": "cambodian", "title": "Cambodian"}], "rating": 5.0, "coordinates": {"latitude": 40.69329, "longitude": -73.96639}, "transactions": ["delivery", "pickup"], "location": {"address1": "472 Myrtle Ave", "address2": "", "address3": null, "city": "Brooklyn", "zip_code": "11205", "country": "US", "state": "NY", "display_address": ["472 Myrtle Ave", "Brooklyn, NY 11205"]}, "phone": "", "display_phone": "", "distance": 7333.689900888972}, {"id": "dL6_XUUr_INX10IOMtSM0w", "alias": "oishi-bay-new-york-2", "name": "Oishi Bay", "image_url": "https://s3-media2.fl.yelpcdn.com/bphoto/1UUxjPeRjHZI5RZmlLptQQ/o.jpg", "is_closed": false, "url": "https://www.yelp.com/biz/oishi-bay-new-york-2?adjust_creative=9gNmiWYX8uTbFBeTTvJMdA&utm_campaign=yelp_api_v3&utm_medium=api_v3_business_search&utm_source=9gNmiWYX8uTbFBeTTvJMdA", "review_count": 215, "categories": [{"alias": "japanese", "title": "Japanese"}, {"alias": "sushi", "title": "Sushi Bars"}], "rating": 4.0, "coordinates": {"latitude": 40.74187, "longitude": -73.97895}, "transactions": ["delivery", "pickup"], "price": "$$", "location": {"address1": "230 E 29th St", "address2": "", "address3": "", "city": "New York", "zip_code": "10016", "country": "US", "state": "NY", "display_address": ["230 E 29th St", "New York, NY 10016"]}, "phone": "+12126832283", "display_phone": "(212) 683-2283", "distance": 2086.8313837330766}, {"id": "NebgteFykeM1gwiVgPcCHw", "alias": "the-handpulled-noodle-new-york", "name": "The Handpulled Noodle", "image_url": "https://s3-media2.fl.yelpcdn.com/bphoto/zk3hE3qrROv4_UAekmmzlQ/o.jpg", "is_closed": false, "url": "https://www.yelp.com/biz/the-handpulled-noodle-new-york?adjust_creative=9gNmiWYX8uTbFBeTTvJMdA&utm_campaign=yelp_api_v3&utm_medium=api_v3_business_search&utm_source=9gNmiWYX8uTbFBeTTvJMdA", "review_count": 1105, "categories": [{"alias": "chinese", "title": "Chinese"}, {"alias": "noodles", "title": "Noodles"}], "rating": 4.0, "coordinates": {"latitude": 40.828384, "longitude": -73.948674}, "transactions": ["delivery", "pickup"], "price": "$$", "location": {"address1": "3600 Broadway", "address2": "Ste 3", "address3": "", "city": "New York", "zip_code": "10031", "country": "US", "state": "NY", "display_address": ["3600 Broadway", "Ste 3", "New York, NY 10031"]}, "phone": "+19172620213", "display_phone": "(917) 262-0213", "distance": 7894.269411229259}, {"id": "zRQNaDUoWTInc2tqndSJVA", "alias": "thai-101-bayside", "name": "Thai 101", "image_url": "https://s3-media3.fl.yelpcdn.com/bphoto/dNvlhJp2095x_q0X_AENMg/o.jpg", "is_closed": false, "url": "https://www.yelp.com/biz/thai-101-bayside?adjust_creative=9gNmiWYX8uTbFBeTTvJMdA&utm_campaign=yelp_api_v3&utm_medium=api_v3_business_search&utm_source=9gNmiWYX8uTbFBeTTvJMdA", "review_count": 336, "categories": [{"alias": "thai", "title": "Thai"}], "rating": 3.5, "coordinates": {"latitude": 40.76488, "longitude": -73.77133}, "transactions": ["delivery", "pickup"], "price": "$$", "location": {"address1": "39-15 Bell Blvd", "address2": "", "address3": "", "city": "Bayside", "zip_code": "11361", "country": "US", "state": "NY", "display_address": ["39-15 Bell Blvd", "Bayside, NY 11361"]}, "phone": "+17186318600", "display_phone": "(718) 631-8600", "distance": 16703.795773189468}, {"id": "sKIYGvENchifk1YwFe77pA", "alias": "saiguette-new-york-2", "name": "Saiguette", "image_url": "https://s3-media2.fl.yelpcdn.com/bphoto/c97nRQeVe7SpbbRzUMiltQ/o.jpg", "is_closed": false, "url": "https://www.yelp.com/biz/saiguette-new-york-2?adjust_creative=9gNmiWYX8uTbFBeTTvJMdA&utm_campaign=yelp_api_v3&utm_medium=api_v3_business_search&utm_source=9gNmiWYX8uTbFBeTTvJMdA", "review_count": 706, "categories": [{"alias": "vietnamese", "title": "Vietnamese"}], "rating": 4.5, "coordinates": {"latitude": 40.79905296910165, "longitude": -73.96281955317802}, "transactions": [], "price": "$$", "location": {"address1": "935 Columbus Ave", "address2": "", "address3": "", "city": "New York", "zip_code": "10025", "country": "US", "state": "NY", "display_address": ["935 Columbus Ave", "New York, NY 10025"]}, "phone": "+12128666888", "display_phone": "(212) 866-6888", "distance": 4470.578340481429}, {"id": "Va_mnsEvBghHXvc7uZIWJQ", "alias": "spice-symphony-new-york", "name": "Spice Symphony", "image_url": "https://s3-media1.fl.yelpcdn.com/bphoto/8WJ_wbFgsIvySxSruesmEg/o.jpg", "is_closed": false, "url": "https://www.yelp.com/biz/spice-symphony-new-york?adjust_creative=9gNmiWYX8uTbFBeTTvJMdA&utm_campaign=yelp_api_v3&utm_medium=api_v3_business_search&utm_source=9gNmiWYX8uTbFBeTTvJMdA", "review_count": 667, "categories": [{"alias": "indpak", "title": "Indian"}, {"alias": "vegetarian", "title": "Vegetarian"}, {"alias": "chinese", "title": "Chinese"}], "rating": 4.0, "coordinates": {"latitude": 40.744722, "longitude": -73.981202}, "transactions": ["delivery", "pickup"], "price": "$$", "location": {"address1": "182 Lexington Ave", "address2": null, "address3": "", "city": "New York", "zip_code": "10016", "country": "US", "state": "NY", "display_address": ["182 Lexington Ave", "New York, NY 10016"]}, "phone": "+12125457742", "display_phone": "(212) 545-7742", "distance": 1882.033667752332}, {"id": "-5npn9NRmOun7VUVLZpjyw", "alias": "eat-gai-new-york-3", "name": "Eat Gai", "image_url": "https://s3-media2.fl.yelpcdn.com/bphoto/WUzqH7XcRy1GiD3jAL1CfQ/o.jpg", "is_closed": false, "url": "https://www.yelp.com/biz/eat-gai-new-york-3?adjust_creative=9gNmiWYX8uTbFBeTTvJMdA&utm_campaign=yelp_api_v3&utm_medium=api_v3_business_search&utm_source=9gNmiWYX8uTbFBeTTvJMdA", "review_count": 87, "categories": [{"alias": "thai", "title": "Thai"}, {"alias": "chickenshop", "title": "Chicken Shop"}, {"alias": "chicken_wings", "title": "Chicken Wings"}], "rating": 4.0, "coordinates": {"latitude": 40.7180351, "longitude": -73.9882738}, "transactions": ["delivery", "pickup"], "price": "$", "location": {"address1": "88 Essex St", "address2": "Booth 46", "address3": null, "city": "New York", "zip_code": "10002", "country": "US", "state": "NY", "display_address": ["88 Essex St", "Booth 46", "New York, NY 10002"]}, "phone": "+19172658631", "display_phone": "(917) 265-8631", "distance": 4835.592701492878}, {"id": "tEZTZG55c3TfeF-vbYOjog", "alias": "pad-thai-new-york-8", "name": "Pad Thai", "image_url": "https://s3-media2.fl.yelpcdn.com/bphoto/oI18OaezpVK3CNmYNZkXVw/o.jpg", "is_closed": false, "url": "https://www.yelp.com/biz/pad-thai-new-york-8?adjust_creative=9gNmiWYX8uTbFBeTTvJMdA&utm_campaign=yelp_api_v3&utm_medium=api_v3_business_search&utm_source=9gNmiWYX8uTbFBeTTvJMdA", "review_count": 3, "categories": [{"alias": "thai", "title": "Thai"}], "rating": 3.0, "coordinates": {"latitude": 40.75898, "longitude": -73.96215}, "transactions": ["delivery", "pickup"], "location": {"address1": "401 E 58th St", "address2": null, "address3": null, "city": "New York", "zip_code": "10022", "country": "US", "state": "NY", "display_address": ["401 E 58th St", "New York, NY 10022"]}, "phone": "+12126888835", "display_phone": "(212) 688-8835", "distance": 637.8959444164884}, {"id": "PyaeHq_UAu6nazGiy0XAnw", "alias": "ginger-and-lemongrass-whitestone", "name": "Ginger and Lemongrass", "image_url": "https://s3-media3.fl.yelpcdn.com/bphoto/EmpNBHcj18g5udecMo8NuQ/o.jpg", "is_closed": false, "url": "https://www.yelp.com/biz/ginger-and-lemongrass-whitestone?adjust_creative=9gNmiWYX8uTbFBeTTvJMdA&utm_campaign=yelp_api_v3&utm_medium=api_v3_business_search&utm_source=9gNmiWYX8uTbFBeTTvJMdA", "review_count": 931, "categories": [{"alias": "vietnamese", "title": "Vietnamese"}, {"alias": "thai", "title": "Thai"}, {"alias": "noodles", "title": "Noodles"}], "rating": 4.0, "coordinates": {"latitude": 40.78929, "longitude": -73.81369}, "transactions": ["delivery", "pickup"], "price": "$$", "location": {"address1": "1253 150th St", "address2": null, "address3": "", "city": "Whitestone", "zip_code": "11357", "country": "US", "state": "NY", "display_address": ["1253 150th St", "Whitestone, NY 11357"]}, "phone": "+13477324720", "display_phone": "(347) 732-4720", "distance": 13544.062528661418}, {"id": "Z7uV9jqrj9GkSws1cz06cg", "alias": "grub-thai-new-york", "name": "Grub Thai", "image_url": "https://s3-media4.fl.yelpcdn.com/bphoto/ip0jXYgP58cygBASJVwJAQ/o.jpg", "is_closed": false, "url": "https://www.yelp.com/biz/grub-thai-new-york?adjust_creative=9gNmiWYX8uTbFBeTTvJMdA&utm_campaign=yelp_api_v3&utm_medium=api_v3_business_search&utm_source=9gNmiWYX8uTbFBeTTvJMdA", "review_count": 5, "categories": [{"alias": "thai", "title": "Thai"}, {"alias": "salad", "title": "Salad"}, {"alias": "soup", "title": "Soup"}], "rating": 4.0, "coordinates": {"latitude": 40.740072, "longitude": -73.98461}, "transactions": ["delivery", "pickup"], "location": {"address1": "34 Lexington Ave", "address2": "", "address3": null, "city": "New York", "zip_code": "10010", "country": "US", "state": "NY", "display_address": ["34 Lexington Ave", "New York, NY 10010"]}, "phone": "", "display_phone": "", "distance": 2473.8218178512166}, {"id": "q_UIu1o9chUXMCLU-jTPxg", "alias": "honeys-thai-pavilion-bronx", "name": "Honey's Thai Pavilion", "image_url": "https://s3-media1.fl.yelpcdn.com/bphoto/TL4dta0NXjroeZx8JB9d6w/o.jpg", "is_closed": false, "url": "https://www.yelp.com/biz/honeys-thai-pavilion-bronx?adjust_creative=9gNmiWYX8uTbFBeTTvJMdA&utm_campaign=yelp_api_v3&utm_medium=api_v3_business_search&utm_source=9gNmiWYX8uTbFBeTTvJMdA", "review_count": 290, "categories": [{"alias": "thai", "title": "Thai"}, {"alias": "noodles", "title": "Noodles"}, {"alias": "beerbar", "title": "Beer Bar"}], "rating": 3.5, "coordinates": {"latitude": 40.84787092391438, "longitude": -73.83118508992126}, "transactions": ["delivery", "pickup"], "price": "$$", "location": {"address1": "3036 Westchester Ave", "address2": "", "address3": "", "city": "Bronx", "zip_code": "10461", "country": "US", "state": "NY", "display_address": ["3036 Westchester Ave", "Bronx, NY 10461"]}, "phone": "+17187922803", "display_phone": "(718) 792-2803", "distance": 15262.652253033086}, {"id": "xRvMOTMzDrMfyAWbYhkA8A", "alias": "terra-thai-new-york", "name": "Terra Thai", "image_url": "https://s3-media4.fl.yelpcdn.com/bphoto/WJvFxBYsZjSWXxqlUN2uzg/o.jpg", "is_closed": false, "url": "https://www.yelp.com/biz/terra-thai-new-york?adjust_creative=9gNmiWYX8uTbFBeTTvJMdA&utm_campaign=yelp_api_v3&utm_medium=api_v3_business_search&utm_source=9gNmiWYX8uTbFBeTTvJMdA", "review_count": 73, "categories": [{"alias": "thai", "title": "Thai"}], "rating": 5.0, "coordinates": {"latitude": 40.724896, "longitude": -73.983031}, "transactions": ["delivery", "pickup"], "location": {"address1": "518 E 6th St", "address2": null, "address3": "", "city": "New York", "zip_code": "10009", "country": "US", "state": "NY", "display_address": ["518 E 6th St", "New York, NY 10009"]}, "phone": "+16464787415", "display_phone": "(646) 478-7415", "distance": 3976.780187025295}, {"id": "A5MHd0GjEb4P86UsNzUnig", "alias": "sesamo-new-york", "name": "SESAMO - Italian Asian Restaurant Hell's Kitchen NYC", "image_url": "https://s3-media4.fl.yelpcdn.com/bphoto/6T0XU_48g3rmdnMDp-dP7w/o.jpg", "is_closed": false, "url": "https://www.yelp.com/biz/sesamo-new-york?adjust_creative=9gNmiWYX8uTbFBeTTvJMdA&utm_campaign=yelp_api_v3&utm_medium=api_v3_business_search&utm_source=9gNmiWYX8uTbFBeTTvJMdA", "review_count": 288, "categories": [{"alias": "italian", "title": "Italian"}, {"alias": "cocktailbars", "title": "Cocktail Bars"}, {"alias": "asianfusion", "title": "Asian Fusion"}], "rating": 4.0, "coordinates": {"latitude": 40.765726, "longitude": -73.990678}, "transactions": ["delivery", "pickup"], "price": "$$", "location": {"address1": "764 10th Ave", "address2": "", "address3": null, "city": "New York", "zip_code": "10019", "country": "US", "state": "NY", "display_address": ["764 10th Ave", "New York, NY 10019"]}, "phone": "+12122652755", "display_phone": "(212) 265-2755", "distance": 1923.368668252784}, {"id": "RmQOUUkwHDhuuh9Y6XzLsQ", "alias": "hungry-brooklyn", "name": "Hungry?", "image_url": "https://s3-media1.fl.yelpcdn.com/bphoto/GbPFIPrG5SLjk7_R4pGY0A/o.jpg", "is_closed": false, "url": "https://www.yelp.com/biz/hungry-brooklyn?adjust_creative=9gNmiWYX8uTbFBeTTvJMdA&utm_campaign=yelp_api_v3&utm_medium=api_v3_business_search&utm_source=9gNmiWYX8uTbFBeTTvJMdA", "review_count": 143, "categories": [{"alias": "thai", "title": "Thai"}, {"alias": "comfortfood", "title": "Comfort Food"}], "rating": 4.0, "coordinates": {"latitude": 40.7253533, "longitude": -73.952406}, "transactions": ["delivery", "pickup"], "price": "$$", "location": {"address1": "77 Norman Ave", "address2": "", "address3": "Store 1", "city": "Brooklyn", "zip_code": "11222", "country": "US", "state": "NY", "display_address": ["77 Norman Ave", "Store 1", "Brooklyn, NY 11222"]}, "phone": "+13479873893", "display_phone": "(347) 987-3893", "distance": 4029.637896206672}], "total": 1700, "region": {"center": {"longitude": -73.96957397460938, "latitude": 40.75917470627005}}}