{"businesses": [{"id": "utg1E8cea7vY5VuDyoOthA", "alias": "sompong-thai-jackson-heights", "name": "Sompong Thai", "image_url": "https://s3-media4.fl.yelpcdn.com/bphoto/K8hzJBLEKan2n1KdevVPJg/o.jpg", "is_closed": false, "url": "https://www.yelp.com/biz/sompong-thai-jackson-heights?adjust_creative=9gNmiWYX8uTbFBeTTvJMdA&utm_campaign=yelp_api_v3&utm_medium=api_v3_business_search&utm_source=9gNmiWYX8uTbFBeTTvJMdA", "review_count": 138, "categories": [{"alias": "thai", "title": "Thai"}], "rating": 4.0, "coordinates": {"latitude": 40.74952452397624, "longitude": -73.8831180000046}, "transactions": ["pickup", "delivery"], "price": "$$", "location": {"address1": "3709 83rd St", "address2": "", "address3": "", "city": "Jackson Heights", "zip_code": "11372", "country": "US", "state": "NY", "display_address": ["3709 83rd St", "Jackson Heights, NY 11372"]}, "phone": "+17188998424", "display_phone": "(718) 899-8424", "distance": 7360.972470954157}, {"id": "ubCFsHLAG_xZupEbCny7vA", "alias": "beat-mazesoba-flushing", "name": "Beat Mazesoba", "image_url": "https://s3-media1.fl.yelpcdn.com/bphoto/Q5gSbrk3NcJLcTTqenfRzQ/o.jpg", "is_closed": false, "url": "https://www.yelp.com/biz/beat-mazesoba-flushing?adjust_creative=9gNmiWYX8uTbFBeTTvJMdA&utm_campaign=yelp_api_v3&utm_medium=api_v3_business_search&utm_source=9gNmiWYX8uTbFBeTTvJMdA", "review_count": 341, "categories": [{"alias": "ramen", "title": "Ramen"}, {"alias": "noodles", "title": "Noodles"}, {"alias": "beerbar", "title": "Beer Bar"}], "rating": 4.5, "coordinates": {"latitude": 40.7626925, "longitude": -73.8042346}, "transactions": ["pickup", "delivery"], "price": "$$", "location": {"address1": "161-23 Crocheron Ave", "address2": null, "address3": "", "city": "Flushing", "zip_code": "11358", "country": "US", "state": "NY", "display_address": ["161-23 Crocheron Ave", "Flushing, NY 11358"]}, "phone": "+17187990251", "display_phone": "(718) 799-0251", "distance": 13946.257650293663}, {"id": "PBTt3VjrFnbYpFIUcWXzOA", "alias": "brodo-broth-new-york", "name": "Brodo Broth", "image_url": "https://s3-media1.fl.yelpcdn.com/bphoto/y1BHt4r7zVbgCwVflSZ3Jw/o.jpg", "is_closed": false, "url": "https://www.yelp.com/biz/brodo-broth-new-york?adjust_creative=9gNmiWYX8uTbFBeTTvJMdA&utm_campaign=yelp_api_v3&utm_medium=api_v3_business_search&utm_source=9gNmiWYX8uTbFBeTTvJMdA", "review_count": 2, "categories": [{"alias": "soup", "title": "Soup"}], "rating": 5.0, "coordinates": {"latitude": 40.7783834, "longitude": -73.9565786}, "transactions": [], "location": {"address1": "1246 Lexington Ave", "address2": null, "address3": "", "city": "New York", "zip_code": "10028", "country": "US", "state": "NY", "display_address": ["1246 Lexington Ave", "New York, NY 10028"]}, "phone": "", "display_phone": "", "distance": 2370.8640849632243}, {"id": "8Oo2AtQEPDfxIOnA8wfXoQ", "alias": "886-new-york", "name": "886", "image_url": "https://s3-media3.fl.yelpcdn.com/bphoto/N-V-Dl4nrmMhN1TcVt6a8g/o.jpg", "is_closed": false, "url": "https://www.yelp.com/biz/886-new-york?adjust_creative=9gNmiWYX8uTbFBeTTvJMdA&utm_campaign=yelp_api_v3&utm_medium=api_v3_business_search&utm_source=9gNmiWYX8uTbFBeTTvJMdA", "review_count": 639, "categories": [{"alias": "taiwanese", "title": "Taiwanese"}, {"alias": "asianfusion", "title": "Asian Fusion"}], "rating": 4.0, "coordinates": {"latitude": 40.72877, "longitude": -73.98873}, "transactions": ["pickup", "delivery"], "price": "$$", "location": {"address1": "26 Saint Marks Pl", "address2": "", "address3": null, "city": "New York", "zip_code": "10003", "country": "US", "state": "NY", "display_address": ["26 Saint Marks Pl", "New York, NY 10003"]}, "phone": "+16468820231", "display_phone": "(646) 882-0231", "distance": 3743.802842221469}, {"id": "QZgPeT9JGGvNgSr9i4m29Q", "alias": "kuba-restaurant-fort-lee", "name": "KUBA RESTAURANT", "image_url": "https://s3-media3.fl.yelpcdn.com/bphoto/1oZPL8jMvXogWLl82Plx0A/o.jpg", "is_closed": false, "url": "https://www.yelp.com/biz/kuba-restaurant-fort-lee?adjust_creative=9gNmiWYX8uTbFBeTTvJMdA&utm_campaign=yelp_api_v3&utm_medium=api_v3_business_search&utm_source=9gNmiWYX8uTbFBeTTvJMdA", "review_count": 136, "categories": [{"alias": "cuban", "title": "Cuban"}, {"alias": "asianfusion", "title": "Asian Fusion"}], "rating": 4.0, "coordinates": {"latitude": 40.85492, "longitude": -73.96347}, "transactions": ["pickup", "delivery"], "price": "$$", "location": {"address1": "2139 Hudson Ter", "address2": "", "address3": null, "city": "Fort Lee", "zip_code": "07024", "country": "US", "state": "NJ", "display_address": ["2139 Hudson Ter", "Fort Lee, NJ 07024"]}, "phone": "+12015851601", "display_phone": "(201) 585-1601", "distance": 10657.701093767075}, {"id": "eYcEbX3uZayc0jzd-Hjfqg", "alias": "moon-thai-kitchen-bronx", "name": "Moon Thai Kitchen", "image_url": "https://s3-media1.fl.yelpcdn.com/bphoto/Xn_cxpSVsB7SF_JtZ4-gig/o.jpg", "is_closed": false, "url": "https://www.yelp.com/biz/moon-thai-kitchen-bronx?adjust_creative=9gNmiWYX8uTbFBeTTvJMdA&utm_campaign=yelp_api_v3&utm_medium=api_v3_business_search&utm_source=9gNmiWYX8uTbFBeTTvJMdA", "review_count": 60, "categories": [{"alias": "thai", "title": "Thai"}, {"alias": "salad", "title": "Salad"}, {"alias": "soup", "title": "Soup"}], "rating": 4.0, "coordinates": {"latitude": 40.88711, "longitude": -73.90471}, "transactions": ["pickup", "delivery"], "location": {"address1": "438 W 238th St", "address2": "", "address3": null, "city": "Bronx", "zip_code": "10463", "country": "US", "state": "NY", "display_address": ["438 W 238th St", "Bronx, NY 10463"]}, "phone": "+17189753606", "display_phone": "(718) 975-3606", "distance": 15234.3518524069}, {"id": "Eyn7hQENF8R9DrBwBHO6lQ", "alias": "pata-cafe-elmhurst", "name": "Pata Cafe", "image_url": "https://s3-media3.fl.yelpcdn.com/bphoto/Vs6OM_unR5xmaqZVPKthpg/o.jpg", "is_closed": false, "url": "https://www.yelp.com/biz/pata-cafe-elmhurst?adjust_creative=9gNmiWYX8uTbFBeTTvJMdA&utm_campaign=yelp_api_v3&utm_medium=api_v3_business_search&utm_source=9gNmiWYX8uTbFBeTTvJMdA", "review_count": 92, "categories": [{"alias": "bubbletea", "title": "Bubble Tea"}, {"alias": "cafes", "title": "Cafes"}, {"alias": "thai", "title": "Thai"}], "rating": 4.5, "coordinates": {"latitude": 40.7326341, "longitude": -73.8769762}, "transactions": ["pickup", "delivery"], "price": "$$", "location": {"address1": "5614 Van Horn St", "address2": null, "address3": "", "city": "Elmhurst", "zip_code": "11373", "country": "US", "state": "NY", "display_address": ["5614 Van Horn St", "Elmhurst, NY 11373"]}, "phone": "+13474697142", "display_phone": "(347) 469-7142", "distance": 8368.698051171272}, {"id": "_du3ilTsbLqBmEY-ZyfqxA", "alias": "van-\u0111a-new-york-3", "name": "Van \u0110a", "image_url": "https://s3-media3.fl.yelpcdn.com/bphoto/Sda89Zmqz8qaxbIcghmjRg/o.jpg", "is_closed": false, "url": "https://www.yelp.com/biz/van-%C4%91a-new-york-3?adjust_creative=9gNmiWYX8uTbFBeTTvJMdA&utm_campaign=yelp_api_v3&utm_medium=api_v3_business_search&utm_source=9gNmiWYX8uTbFBeTTvJMdA", "review_count": 160, "categories": [{"alias": "vietnamese", "title": "Vietnamese"}], "rating": 4.0, "coordinates": {"latitude": 40.72341, "longitude": -73.98307}, "transactions": ["delivery"], "location": {"address1": "234 E 4th St", "address2": "", "address3": null, "city": "New York", "zip_code": "10009", "country": "US", "state": "NY", "display_address": ["234 E 4th St", "New York, NY 10009"]}, "phone": "", "display_phone": "", "distance": 4142.425325577598}, {"id": "IYwz7ck1OZCoZqW0F31pLg", "alias": "misc-brooklyn", "name": "MISC", "image_url": "https://s3-media2.fl.yelpcdn.com/bphoto/QoJB37JPOScvfwWEmZzW6Q/o.jpg", "is_closed": false, "url": "https://www.yelp.com/biz/misc-brooklyn?adjust_creative=9gNmiWYX8uTbFBeTTvJMdA&utm_campaign=yelp_api_v3&utm_medium=api_v3_business_search&utm_source=9gNmiWYX8uTbFBeTTvJMdA", "review_count": 213, "categories": [{"alias": "thai", "title": "Thai"}, {"alias": "ramen", "title": "Ramen"}, {"alias": "asianfusion", "title": "Asian Fusion"}], "rating": 4.0, "coordinates": {"latitude": 40.672706, "longitude": -73.95753}, "transactions": ["pickup", "delivery"], "price": "$$", "location": {"address1": "758 Franklin Ave", "address2": null, "address3": "", "city": "Brooklyn", "zip_code": "11238", "country": "US", "state": "NY", "display_address": ["758 Franklin Ave", "Brooklyn, NY 11238"]}, "phone": "+13476634021", "display_phone": "(347) 663-4021", "distance": 9669.046072685294}, {"id": "PGTXtUEt73UrwPvc8bhFvA", "alias": "wayla-brooklyn", "name": "Wayla", "image_url": "https://s3-media2.fl.yelpcdn.com/bphoto/aN_eHqr3bEOYzn93L6BYzQ/o.jpg", "is_closed": false, "url": "https://www.yelp.com/biz/wayla-brooklyn?adjust_creative=9gNmiWYX8uTbFBeTTvJMdA&utm_campaign=yelp_api_v3&utm_medium=api_v3_business_search&utm_source=9gNmiWYX8uTbFBeTTvJMdA", "review_count": 3, "categories": [{"alias": "thai", "title": "Thai"}, {"alias": "food_court", "title": "Food Court"}], "rating": 4.0, "coordinates": {"latitude": 40.703430783425134, "longitude": -73.99160719999999}, "transactions": [], "location": {"address1": "55 Water St", "address2": "", "address3": "TimeOut Market", "city": "Brooklyn", "zip_code": "11201", "country": "US", "state": "NY", "display_address": ["55 Water St", "TimeOut Market", "Brooklyn, NY 11201"]}, "phone": "+19178104855", "display_phone": "(917) 810-4855", "distance": 6470.497212218716}, {"id": "BJn68qCExYQrPCT7CeOpzw", "alias": "moon-star-grill-riverdale", "name": "Moon Star Grill", "image_url": "https://s3-media1.fl.yelpcdn.com/bphoto/mbHCN5CL1hH1X2cf56I0cg/o.jpg", "is_closed": false, "url": "https://www.yelp.com/biz/moon-star-grill-riverdale?adjust_creative=9gNmiWYX8uTbFBeTTvJMdA&utm_campaign=yelp_api_v3&utm_medium=api_v3_business_search&utm_source=9gNmiWYX8uTbFBeTTvJMdA", "review_count": 133, "categories": [{"alias": "asianfusion", "title": "Asian Fusion"}, {"alias": "vietnamese", "title": "Vietnamese"}], "rating": 4.0, "coordinates": {"latitude": 40.8861089331436, "longitude": -73.909908766271}, "transactions": ["pickup", "delivery"], "price": "$$", "location": {"address1": "3519-25 Johnson Ave", "address2": "", "address3": "", "city": "Riverdale", "zip_code": "10463", "country": "US", "state": "NY", "display_address": ["3519-25 Johnson Ave", "Riverdale, NY 10463"]}, "phone": "+17184322570", "display_phone": "(718) 432-2570", "distance": 14980.74855830378}, {"id": "WpfuHkTsiRN2EerQ8ZaG4g", "alias": "saigon-cafe-jersey-city", "name": "Saigon Cafe", "image_url": "https://s3-media2.fl.yelpcdn.com/bphoto/PAZE2Kb8NIFFA1ec8U-k4w/o.jpg", "is_closed": false, "url": "https://www.yelp.com/biz/saigon-cafe-jersey-city?adjust_creative=9gNmiWYX8uTbFBeTTvJMdA&utm_campaign=yelp_api_v3&utm_medium=api_v3_business_search&utm_source=9gNmiWYX8uTbFBeTTvJMdA", "review_count": 395, "categories": [{"alias": "vietnamese", "title": "Vietnamese"}, {"alias": "noodles", "title": "Noodles"}, {"alias": "soup", "title": "Soup"}], "rating": 4.0, "coordinates": {"latitude": 40.72164, "longitude": -74.04574}, "transactions": ["pickup", "delivery"], "price": "$$", "location": {"address1": "188 Newark Ave", "address2": "", "address3": "", "city": "Jersey City", "zip_code": "07302", "country": "US", "state": "NJ", "display_address": ["188 Newark Ave", "Jersey City, NJ 07302"]}, "phone": "+12013328711", "display_phone": "(201) 332-8711", "distance": 7645.737769632133}, {"id": "0nvJPFqv5VD-Bf2WtzD0rA", "alias": "one-more-charm-brooklyn", "name": "One More Charm", "image_url": "https://s3-media2.fl.yelpcdn.com/bphoto/M5SHYu9B7S9DW7_XOd4LFA/o.jpg", "is_closed": false, "url": "https://www.yelp.com/biz/one-more-charm-brooklyn?adjust_creative=9gNmiWYX8uTbFBeTTvJMdA&utm_campaign=yelp_api_v3&utm_medium=api_v3_business_search&utm_source=9gNmiWYX8uTbFBeTTvJMdA", "review_count": 139, "categories": [{"alias": "thai", "title": "Thai"}, {"alias": "coffee", "title": "Coffee & Tea"}, {"alias": "bubbletea", "title": "Bubble Tea"}], "rating": 4.5, "coordinates": {"latitude": 40.669892, "longitude": -73.979454}, "transactions": ["pickup", "delivery"], "price": "$$", "location": {"address1": "236 7th Ave", "address2": null, "address3": "", "city": "Brooklyn", "zip_code": "11215", "country": "US", "state": "NY", "display_address": ["236 7th Ave", "Brooklyn, NY 11215"]}, "phone": "+19292502052", "display_phone": "(929) 250-2052", "distance": 9962.989413867625}, {"id": "B7bxdtvLYR7Nmex4AIFd4w", "alias": "redfarm-new-york-2", "name": "RedFarm", "image_url": "https://s3-media2.fl.yelpcdn.com/bphoto/l_UaBxOoUZT_reC1blsMaA/o.jpg", "is_closed": false, "url": "https://www.yelp.com/biz/redfarm-new-york-2?adjust_creative=9gNmiWYX8uTbFBeTTvJMdA&utm_campaign=yelp_api_v3&utm_medium=api_v3_business_search&utm_source=9gNmiWYX8uTbFBeTTvJMdA", "review_count": 727, "categories": [{"alias": "dimsum", "title": "Dim Sum"}, {"alias": "cantonese", "title": "Cantonese"}, {"alias": "asianfusion", "title": "Asian Fusion"}], "rating": 3.5, "coordinates": {"latitude": 40.782051, "longitude": -73.980415}, "transactions": ["delivery"], "price": "$$$", "location": {"address1": "2170 Broadway", "address2": "", "address3": "", "city": "New York", "zip_code": "10024", "country": "US", "state": "NY", "display_address": ["2170 Broadway", "New York, NY 10024"]}, "phone": "+12127249700", "display_phone": "(212) 724-9700", "distance": 2718.78370385367}, {"id": "8SbvBebzRYaZuyxF-GEIDQ", "alias": "glin-thai-bistro-brooklyn-3", "name": "Glin Thai Bistro", "image_url": "https://s3-media2.fl.yelpcdn.com/bphoto/LxEdPQfXhqw2qQI7havYgg/o.jpg", "is_closed": false, "url": "https://www.yelp.com/biz/glin-thai-bistro-brooklyn-3?adjust_creative=9gNmiWYX8uTbFBeTTvJMdA&utm_campaign=yelp_api_v3&utm_medium=api_v3_business_search&utm_source=9gNmiWYX8uTbFBeTTvJMdA", "review_count": 59, "categories": [{"alias": "thai", "title": "Thai"}, {"alias": "asianfusion", "title": "Asian Fusion"}], "rating": 5.0, "coordinates": {"latitude": 40.69315, "longitude": -73.97328}, "transactions": ["pickup", "delivery"], "location": {"address1": "330 Myrtle Ave", "address2": null, "address3": "", "city": "Brooklyn", "zip_code": "11205", "country": "US", "state": "NY", "display_address": ["330 Myrtle Ave", "Brooklyn, NY 11205"]}, "phone": "+13479874100", "display_phone": "(347) 987-4100", "distance": 7354.642461570574}, {"id": "m_PhHkyN-630ucF7r2F8EQ", "alias": "pho-shop-new-york", "name": "Pho Shop", "image_url": "https://s3-media1.fl.yelpcdn.com/bphoto/N28mNKpRtIhVDMed-E1UNA/o.jpg", "is_closed": false, "url": "https://www.yelp.com/biz/pho-shop-new-york?adjust_creative=9gNmiWYX8uTbFBeTTvJMdA&utm_campaign=yelp_api_v3&utm_medium=api_v3_business_search&utm_source=9gNmiWYX8uTbFBeTTvJMdA", "review_count": 397, "categories": [{"alias": "vietnamese", "title": "Vietnamese"}, {"alias": "soup", "title": "Soup"}, {"alias": "sandwiches", "title": "Sandwiches"}], "rating": 4.0, "coordinates": {"latitude": 40.77854288396, "longitude": -73.9477937668562}, "transactions": ["pickup", "delivery"], "price": "$$", "location": {"address1": "1716 1st Ave", "address2": "", "address3": null, "city": "New York", "zip_code": "10128", "country": "US", "state": "NY", "display_address": ["1716 1st Ave", "New York, NY 10128"]}, "phone": "+12123699888", "display_phone": "(212) 369-9888", "distance": 2828.851994169175}, {"id": "cmssS5DPbF6Yv-EJdKVm_w", "alias": "khantong-thai-kitchen-woodside", "name": "Khantong Thai Kitchen", "image_url": "https://s3-media2.fl.yelpcdn.com/bphoto/06wLolZTQl9LvVG5YicSJQ/o.jpg", "is_closed": false, "url": "https://www.yelp.com/biz/khantong-thai-kitchen-woodside?adjust_creative=9gNmiWYX8uTbFBeTTvJMdA&utm_campaign=yelp_api_v3&utm_medium=api_v3_business_search&utm_source=9gNmiWYX8uTbFBeTTvJMdA", "review_count": 25, "categories": [{"alias": "thai", "title": "Thai"}], "rating": 4.0, "coordinates": {"latitude": 40.745584, "longitude": -73.906885}, "transactions": ["pickup", "delivery"], "location": {"address1": "57-17 Roosevelt Ave", "address2": "", "address3": null, "city": "Woodside", "zip_code": "11377", "country": "US", "state": "NY", "display_address": ["57-17 Roosevelt Ave", "Woodside, NY 11377"]}, "phone": "+17185249437", "display_phone": "(718) 524-9437", "distance": 5492.548532891286}, {"id": "g4EXxoV0z_TnyWF8h9xMKQ", "alias": "may-kaidee-east-broadway-new-york", "name": "May Kaidee East Broadway", "image_url": "https://s3-media1.fl.yelpcdn.com/bphoto/Vvz9KNqWNgINLzpPzTf9pw/o.jpg", "is_closed": false, "url": "https://www.yelp.com/biz/may-kaidee-east-broadway-new-york?adjust_creative=9gNmiWYX8uTbFBeTTvJMdA&utm_campaign=yelp_api_v3&utm_medium=api_v3_business_search&utm_source=9gNmiWYX8uTbFBeTTvJMdA", "review_count": 107, "categories": [{"alias": "thai", "title": "Thai"}, {"alias": "vegan", "title": "Vegan"}, {"alias": "vegetarian", "title": "Vegetarian"}], "rating": 4.5, "coordinates": {"latitude": 40.7140637, "longitude": -73.987464979291}, "transactions": ["pickup", "delivery"], "location": {"address1": "215 E Broadway", "address2": "", "address3": null, "city": "New York", "zip_code": "10002", "country": "US", "state": "NY", "display_address": ["215 E Broadway", "New York, NY 10002"]}, "phone": "+19174437885", "display_phone": "(917) 443-7885", "distance": 5237.708219490752}, {"id": "S2aDRC4FfKQkFOFcVF0O9w", "alias": "bangkok-station-nj-maywood", "name": "Bangkok Station NJ", "image_url": "https://s3-media2.fl.yelpcdn.com/bphoto/Fb7ZoACHKP-iM1pwKDmvcg/o.jpg", "is_closed": false, "url": "https://www.yelp.com/biz/bangkok-station-nj-maywood?adjust_creative=9gNmiWYX8uTbFBeTTvJMdA&utm_campaign=yelp_api_v3&utm_medium=api_v3_business_search&utm_source=9gNmiWYX8uTbFBeTTvJMdA", "review_count": 18, "categories": [{"alias": "thai", "title": "Thai"}], "rating": 4.5, "coordinates": {"latitude": 40.89556, "longitude": -74.06549}, "transactions": ["pickup", "delivery"], "location": {"address1": "234 Maywood Ave", "address2": "Unit A", "address3": null, "city": "Maywood", "zip_code": "07607", "country": "US", "state": "NJ", "display_address": ["234 Maywood Ave", "Unit A", "Maywood, NJ 07607"]}, "phone": "+12012508166", "display_phone": "(201) 250-8166", "distance": 17181.77501709914}, {"id": "QGEsxvYE16UzpjJPa-6qXA", "alias": "num-pang-kitchen-new-york-3", "name": "Num Pang Kitchen", "image_url": "https://s3-media2.fl.yelpcdn.com/bphoto/7KTQ9_24T8A-nMVDAlsDTA/o.jpg", "is_closed": false, "url": "https://www.yelp.com/biz/num-pang-kitchen-new-york-3?adjust_creative=9gNmiWYX8uTbFBeTTvJMdA&utm_campaign=yelp_api_v3&utm_medium=api_v3_business_search&utm_source=9gNmiWYX8uTbFBeTTvJMdA", "review_count": 342, "categories": [{"alias": "cambodian", "title": "Cambodian"}, {"alias": "sandwiches", "title": "Sandwiches"}], "rating": 4.0, "coordinates": {"latitude": 40.7424, "longitude": -74.00592}, "transactions": ["pickup", "delivery"], "price": "$$", "location": {"address1": "75 9th Ave", "address2": "", "address3": "Chelsea Market", "city": "New York", "zip_code": "10011", "country": "US", "state": "NY", "display_address": ["75 9th Ave", "Chelsea Market", "New York, NY 10011"]}, "phone": "+12129334276", "display_phone": "(212) 933-4276", "distance": 3585.0973268657694}, {"id": "1KoKR9fug8VXZr5tqqtimQ", "alias": "rim-nam-thai-brooklyn", "name": "Rim Nam Thai", "image_url": "https://s3-media2.fl.yelpcdn.com/bphoto/7PLGNMeERGw67tQHA06lxg/o.jpg", "is_closed": false, "url": "https://www.yelp.com/biz/rim-nam-thai-brooklyn?adjust_creative=9gNmiWYX8uTbFBeTTvJMdA&utm_campaign=yelp_api_v3&utm_medium=api_v3_business_search&utm_source=9gNmiWYX8uTbFBeTTvJMdA", "review_count": 25, "categories": [{"alias": "thai", "title": "Thai"}, {"alias": "salad", "title": "Salad"}, {"alias": "noodles", "title": "Noodles"}], "rating": 4.0, "coordinates": {"latitude": 40.7033674860089, "longitude": -73.9868891}, "transactions": ["pickup", "delivery"], "location": {"address1": "52 Jay St", "address2": null, "address3": "", "city": "Brooklyn", "zip_code": "11201", "country": "US", "state": "NY", "display_address": ["52 Jay St", "Brooklyn, NY 11201"]}, "phone": "+13474220404", "display_phone": "(347) 422-0404", "distance": 6374.679981309412}, {"id": "OvdCm3j_5HzItolfvwrEUA", "alias": "lilli-and-loo-new-york", "name": "Lilli & Loo", "image_url": "https://s3-media1.fl.yelpcdn.com/bphoto/ZEfpK25GqJ_1CQJBTJlzOQ/o.jpg", "is_closed": false, "url": "https://www.yelp.com/biz/lilli-and-loo-new-york?adjust_creative=9gNmiWYX8uTbFBeTTvJMdA&utm_campaign=yelp_api_v3&utm_medium=api_v3_business_search&utm_source=9gNmiWYX8uTbFBeTTvJMdA", "review_count": 459, "categories": [{"alias": "chinese", "title": "Chinese"}, {"alias": "sushi", "title": "Sushi Bars"}], "rating": 3.5, "coordinates": {"latitude": 40.76357, "longitude": -73.96703}, "transactions": ["pickup", "delivery"], "price": "$$", "location": {"address1": "785 Lexington Ave", "address2": "", "address3": "", "city": "New York", "zip_code": "10065", "country": "US", "state": "NY", "display_address": ["785 Lexington Ave", "New York, NY 10065"]}, "phone": "+12124217800", "display_phone": "(212) 421-7800", "distance": 532.0768572437443}, {"id": "0fjab0vzFgIQ-FKzjFR7JQ", "alias": "dannee-thai-brooklyn", "name": "Dannee Thai", "image_url": "https://s3-media1.fl.yelpcdn.com/bphoto/lRR4N2ZW2cMbcc9RsBBdKw/o.jpg", "is_closed": false, "url": "https://www.yelp.com/biz/dannee-thai-brooklyn?adjust_creative=9gNmiWYX8uTbFBeTTvJMdA&utm_campaign=yelp_api_v3&utm_medium=api_v3_business_search&utm_source=9gNmiWYX8uTbFBeTTvJMdA", "review_count": 177, "categories": [{"alias": "thai", "title": "Thai"}], "rating": 4.0, "coordinates": {"latitude": 40.690601348877, "longitude": -73.9600830078125}, "transactions": ["pickup", "delivery"], "price": "$$", "location": {"address1": "433 Dekalb Ave", "address2": null, "address3": "", "city": "Brooklyn", "zip_code": "11205", "country": "US", "state": "NY", "display_address": ["433 Dekalb Ave", "Brooklyn, NY 11205"]}, "phone": "+17186224422", "display_phone": "(718) 622-4422", "distance": 7669.415400939353}, {"id": "g7LLglNkZODPM6VyIqiEAQ", "alias": "chick-it-out-new-york-3", "name": "Chick It Out", "image_url": "https://s3-media1.fl.yelpcdn.com/bphoto/4cr1kqqrIqgGyDsyI14jig/o.jpg", "is_closed": false, "url": "https://www.yelp.com/biz/chick-it-out-new-york-3?adjust_creative=9gNmiWYX8uTbFBeTTvJMdA&utm_campaign=yelp_api_v3&utm_medium=api_v3_business_search&utm_source=9gNmiWYX8uTbFBeTTvJMdA", "review_count": 36, "categories": [{"alias": "thai", "title": "Thai"}, {"alias": "hainan", "title": "Hainan"}, {"alias": "hotdogs", "title": "Fast Food"}], "rating": 4.5, "coordinates": {"latitude": 40.758389, "longitude": -73.9240812}, "transactions": ["pickup", "delivery"], "location": {"address1": "32-06 35th St", "address2": null, "address3": "", "city": "New York", "zip_code": "11106", "country": "US", "state": "NY", "display_address": ["32-06 35th St", "New York, NY 11106"]}, "phone": "+19178326013", "display_phone": "(917) 832-6013", "distance": 3965.500685596062}, {"id": "rN347NNwQ0hDSlbedzI9BQ", "alias": "kai-sushi-asian-fusion-bronx", "name": "Kai Sushi Asian Fusion", "image_url": "https://s3-media1.fl.yelpcdn.com/bphoto/AzaPWMiMIlyEl_4H2h46rg/o.jpg", "is_closed": false, "url": "https://www.yelp.com/biz/kai-sushi-asian-fusion-bronx?adjust_creative=9gNmiWYX8uTbFBeTTvJMdA&utm_campaign=yelp_api_v3&utm_medium=api_v3_business_search&utm_source=9gNmiWYX8uTbFBeTTvJMdA", "review_count": 300, "categories": [{"alias": "asianfusion", "title": "Asian Fusion"}, {"alias": "chinese", "title": "Chinese"}, {"alias": "japanese", "title": "Japanese"}], "rating": 4.0, "coordinates": {"latitude": 40.84362, "longitude": -73.84565}, "transactions": ["pickup", "delivery"], "price": "$$", "location": {"address1": "1475 Williamsbridge Rd", "address2": null, "address3": "", "city": "Bronx", "zip_code": "10461", "country": "US", "state": "NY", "display_address": ["1475 Williamsbridge Rd", "Bronx, NY 10461"]}, "phone": "+17188637900", "display_phone": "(718) 863-7900", "distance": 14013.421860579729}, {"id": "d8zSYpArh4oXpxeJWNA4Pg", "alias": "nish-nush-new-york", "name": "Nish Nush", "image_url": "https://s3-media2.fl.yelpcdn.com/bphoto/ECzZbBEkuuzRpmZZYxg1lg/o.jpg", "is_closed": false, "url": "https://www.yelp.com/biz/nish-nush-new-york?adjust_creative=9gNmiWYX8uTbFBeTTvJMdA&utm_campaign=yelp_api_v3&utm_medium=api_v3_business_search&utm_source=9gNmiWYX8uTbFBeTTvJMdA", "review_count": 796, "categories": [{"alias": "vegetarian", "title": "Vegetarian"}, {"alias": "moroccan", "title": "Moroccan"}, {"alias": "greek", "title": "Greek"}], "rating": 4.5, "coordinates": {"latitude": 40.715688, "longitude": -74.007695}, "transactions": ["pickup", "delivery"], "price": "$$", "location": {"address1": "88 Reade St", "address2": "", "address3": "", "city": "New York", "zip_code": "10013", "country": "US", "state": "NY", "display_address": ["88 Reade St", "New York, NY 10013"]}, "phone": "+12129641318", "display_phone": "(212) 964-1318", "distance": 5804.98036503875}, {"id": "8-dc942sz-prIeepAkHLJA", "alias": "zenith-thai-restaurant-ridgewood", "name": "Zenith Thai Restaurant", "image_url": "https://s3-media4.fl.yelpcdn.com/bphoto/P5WjD6_4bZyV6AVgkeceaw/o.jpg", "is_closed": false, "url": "https://www.yelp.com/biz/zenith-thai-restaurant-ridgewood?adjust_creative=9gNmiWYX8uTbFBeTTvJMdA&utm_campaign=yelp_api_v3&utm_medium=api_v3_business_search&utm_source=9gNmiWYX8uTbFBeTTvJMdA", "review_count": 133, "categories": [{"alias": "thai", "title": "Thai"}], "rating": 4.5, "coordinates": {"latitude": 40.7023726, "longitude": -73.8952926}, "transactions": ["pickup", "delivery"], "price": "$$", "location": {"address1": "7002 Fresh Pond Rd", "address2": "", "address3": "", "city": "Ridgewood", "zip_code": "11385", "country": "US", "state": "NY", "display_address": ["7002 Fresh Pond Rd", "Ridgewood, NY 11385"]}, "phone": "+17184978899", "display_phone": "(718) 497-8899", "distance": 8903.669232897995}, {"id": "3pOAiE7W7nDEeVFNy_vmfw", "alias": "a-la-mode-oriental-new-york", "name": "A La Mode Oriental", "image_url": "https://s3-media1.fl.yelpcdn.com/bphoto/wPdEdhx8YkB4BcWu8BpO0Q/o.jpg", "is_closed": false, "url": "https://www.yelp.com/biz/a-la-mode-oriental-new-york?adjust_creative=9gNmiWYX8uTbFBeTTvJMdA&utm_campaign=yelp_api_v3&utm_medium=api_v3_business_search&utm_source=9gNmiWYX8uTbFBeTTvJMdA", "review_count": 34, "categories": [{"alias": "thai", "title": "Thai"}], "rating": 2.0, "coordinates": {"latitude": 40.7621, "longitude": -73.97732}, "transactions": ["pickup", "delivery"], "price": "$$", "location": {"address1": "37 W 54th St", "address2": "", "address3": "", "city": "New York", "zip_code": "10019", "country": "US", "state": "NY", "display_address": ["37 W 54th St", "New York, NY 10019"]}, "phone": "+19173455511", "display_phone": "(917) 345-5511", "distance": 728.4410407867432}, {"id": "YjkEjOJ05z4MVDmbrWvWdQ", "alias": "district-saigon-astoria", "name": "District Saigon", "image_url": "https://s3-media3.fl.yelpcdn.com/bphoto/Sbdh3KnkXuLRkHlc3nyXtA/o.jpg", "is_closed": false, "url": "https://www.yelp.com/biz/district-saigon-astoria?adjust_creative=9gNmiWYX8uTbFBeTTvJMdA&utm_campaign=yelp_api_v3&utm_medium=api_v3_business_search&utm_source=9gNmiWYX8uTbFBeTTvJMdA", "review_count": 733, "categories": [{"alias": "vietnamese", "title": "Vietnamese"}, {"alias": "cocktailbars", "title": "Cocktail Bars"}], "rating": 4.5, "coordinates": {"latitude": 40.7596365, "longitude": -73.9199343}, "transactions": ["pickup", "delivery"], "price": "$$", "location": {"address1": "37-15 Broadway", "address2": "", "address3": "", "city": "Astoria", "zip_code": "11103", "country": "US", "state": "NY", "display_address": ["37-15 Broadway", "Astoria, NY 11103"]}, "phone": "+17189560007", "display_phone": "(718) 956-0007", "distance": 4181.23537482702}, {"id": "Xx2qNh0pfoDlXloiv_hRDA", "alias": "khao-thai-cuisine-englewood-2", "name": "Khao Thai Cuisine", "image_url": "https://s3-media2.fl.yelpcdn.com/bphoto/TQ32XnxL7sR5C38aVcSqLA/o.jpg", "is_closed": false, "url": "https://www.yelp.com/biz/khao-thai-cuisine-englewood-2?adjust_creative=9gNmiWYX8uTbFBeTTvJMdA&utm_campaign=yelp_api_v3&utm_medium=api_v3_business_search&utm_source=9gNmiWYX8uTbFBeTTvJMdA", "review_count": 8, "categories": [{"alias": "thai", "title": "Thai"}], "rating": 4.5, "coordinates": {"latitude": 40.893829, "longitude": -73.975063}, "transactions": [], "location": {"address1": "4 E Palisade Ave", "address2": "", "address3": null, "city": "Englewood", "zip_code": "07631", "country": "US", "state": "NJ", "display_address": ["4 E Palisade Ave", "Englewood, NJ 07631"]}, "phone": "+12018940344", "display_phone": "(201) 894-0344", "distance": 14984.945073131465}, {"id": "Hix3IMyb57KLGTqrcDrX8g", "alias": "avocaderia-new-york-3", "name": "Avocaderia", "image_url": "https://s3-media1.fl.yelpcdn.com/bphoto/E8U1tAsjzaEPtISghi48NA/o.jpg", "is_closed": false, "url": "https://www.yelp.com/biz/avocaderia-new-york-3?adjust_creative=9gNmiWYX8uTbFBeTTvJMdA&utm_campaign=yelp_api_v3&utm_medium=api_v3_business_search&utm_source=9gNmiWYX8uTbFBeTTvJMdA", "review_count": 5, "categories": [{"alias": "salad", "title": "Salad"}, {"alias": "juicebars", "title": "Juice Bars & Smoothies"}, {"alias": "breakfast_brunch", "title": "Breakfast & Brunch"}], "rating": 3.0, "coordinates": {"latitude": 40.75878, "longitude": -73.97048}, "transactions": ["pickup", "delivery"], "location": {"address1": "601 Lexington Ave", "address2": "The Hugh, Plaza Level", "address3": null, "city": "New York", "zip_code": "10022", "country": "US", "state": "NY", "display_address": ["601 Lexington Ave", "The Hugh, Plaza Level", "New York, NY 10022"]}, "phone": "+13475966967", "display_phone": "(347) 596-6967", "distance": 94.68843484085015}, {"id": "BiFBVQwkCIurPP-ytstGwQ", "alias": "shima-sushi-new-york-2", "name": "Shima Sushi", "image_url": "https://s3-media3.fl.yelpcdn.com/bphoto/4X4WaQAIXDYH7uz7N23JFw/o.jpg", "is_closed": false, "url": "https://www.yelp.com/biz/shima-sushi-new-york-2?adjust_creative=9gNmiWYX8uTbFBeTTvJMdA&utm_campaign=yelp_api_v3&utm_medium=api_v3_business_search&utm_source=9gNmiWYX8uTbFBeTTvJMdA", "review_count": 76, "categories": [{"alias": "sushi", "title": "Sushi Bars"}, {"alias": "japanese", "title": "Japanese"}], "rating": 4.0, "coordinates": {"latitude": 40.75588, "longitude": -73.96926}, "transactions": ["pickup", "delivery"], "location": {"address1": "226 E 51st St", "address2": "", "address3": null, "city": "New York", "zip_code": "10022", "country": "US", "state": "NY", "display_address": ["226 E 51st St", "New York, NY 10022"]}, "phone": "+12128298000", "display_phone": "(212) 829-8000", "distance": 370.97459928135066}, {"id": "6CutdyyNi-wjh5QXMOielw", "alias": "atit-thai-restaurant-new-rochelle-2", "name": "Atit Thai Restaurant", "image_url": "https://s3-media2.fl.yelpcdn.com/bphoto/Rd6Cf3yqzf9x0rPi5nUWig/o.jpg", "is_closed": false, "url": "https://www.yelp.com/biz/atit-thai-restaurant-new-rochelle-2?adjust_creative=9gNmiWYX8uTbFBeTTvJMdA&utm_campaign=yelp_api_v3&utm_medium=api_v3_business_search&utm_source=9gNmiWYX8uTbFBeTTvJMdA", "review_count": 64, "categories": [{"alias": "thai", "title": "Thai"}, {"alias": "asianfusion", "title": "Asian Fusion"}], "rating": 4.0, "coordinates": {"latitude": 40.907512, "longitude": -73.779167}, "transactions": ["pickup", "delivery"], "price": "$$", "location": {"address1": "134 North Ave", "address2": null, "address3": "", "city": "New Rochelle", "zip_code": "10801", "country": "US", "state": "NY", "display_address": ["134 North Ave", "New Rochelle, NY 10801"]}, "phone": "+19143552437", "display_phone": "(914) 355-2437", "distance": 23013.350223482128}, {"id": "kCpKwCW49k3ImuI5cK6LSw", "alias": "gu-japanese-fusion-sushi-and-bar-new-york", "name": "Gu Japanese Fusion Sushi & Bar", "image_url": "https://s3-media3.fl.yelpcdn.com/bphoto/mnyoUX81O86hhgM0sktClQ/o.jpg", "is_closed": false, "url": "https://www.yelp.com/biz/gu-japanese-fusion-sushi-and-bar-new-york?adjust_creative=9gNmiWYX8uTbFBeTTvJMdA&utm_campaign=yelp_api_v3&utm_medium=api_v3_business_search&utm_source=9gNmiWYX8uTbFBeTTvJMdA", "review_count": 235, "categories": [{"alias": "japanese", "title": "Japanese"}, {"alias": "sushi", "title": "Sushi Bars"}, {"alias": "bars", "title": "Bars"}], "rating": 4.0, "coordinates": {"latitude": 40.75743, "longitude": -73.97042}, "transactions": ["pickup", "restaurant_reservation", "delivery"], "price": "$$", "location": {"address1": "155 E 52nd St", "address2": "", "address3": null, "city": "New York", "zip_code": "10022", "country": "US", "state": "NY", "display_address": ["155 E 52nd St", "New York, NY 10022"]}, "phone": "+12124212294", "display_phone": "(212) 421-2294", "distance": 205.0493688111425}, {"id": "-Rat_jVuOv_HTYjHqooGzw", "alias": "malay-restaurant-flushing", "name": "Malay Restaurant", "image_url": "https://s3-media2.fl.yelpcdn.com/bphoto/stMZtSVWAE9OM92bwm3sqg/o.jpg", "is_closed": false, "url": "https://www.yelp.com/biz/malay-restaurant-flushing?adjust_creative=9gNmiWYX8uTbFBeTTvJMdA&utm_campaign=yelp_api_v3&utm_medium=api_v3_business_search&utm_source=9gNmiWYX8uTbFBeTTvJMdA", "review_count": 357, "categories": [{"alias": "malaysian", "title": "Malaysian"}, {"alias": "noodles", "title": "Noodles"}, {"alias": "soup", "title": "Soup"}], "rating": 4.0, "coordinates": {"latitude": 40.75870332981883, "longitude": -73.83089121990626}, "transactions": ["pickup", "delivery"], "price": "$$", "location": {"address1": "13517 40th Rd", "address2": "", "address3": "", "city": "Flushing", "zip_code": "11354", "country": "US", "state": "NY", "display_address": ["13517 40th Rd", "Flushing, NY 11354"]}, "phone": "+17183532901", "display_phone": "(718) 353-2901", "distance": 11680.8051273857}, {"id": "teuwAtlOMQq7pEl1oQtXVg", "alias": "banh-new-york-3", "name": "Banh", "image_url": "https://s3-media2.fl.yelpcdn.com/bphoto/VwcLAr-EzhDN7-wMQxHE1g/o.jpg", "is_closed": false, "url": "https://www.yelp.com/biz/banh-new-york-3?adjust_creative=9gNmiWYX8uTbFBeTTvJMdA&utm_campaign=yelp_api_v3&utm_medium=api_v3_business_search&utm_source=9gNmiWYX8uTbFBeTTvJMdA", "review_count": 193, "categories": [{"alias": "vietnamese", "title": "Vietnamese"}, {"alias": "coffee", "title": "Coffee & Tea"}, {"alias": "sandwiches", "title": "Sandwiches"}], "rating": 4.5, "coordinates": {"latitude": 40.80085, "longitude": -73.96562}, "transactions": ["delivery"], "price": "$$", "location": {"address1": "942 Amsterdam Ave", "address2": null, "address3": "", "city": "New York", "zip_code": "10025", "country": "US", "state": "NY", "display_address": ["942 Amsterdam Ave", "New York, NY 10025"]}, "phone": "+19176393151", "display_phone": "(917) 639-3151", "distance": 4648.536245982215}, {"id": "pjCLHrmXcfb2BLaZS1fXsA", "alias": "thai-v-express-new-york", "name": "Thai V Express", "image_url": "https://s3-media4.fl.yelpcdn.com/bphoto/RzPSzfbenSMkwUMta_aN3w/o.jpg", "is_closed": false, "url": "https://www.yelp.com/biz/thai-v-express-new-york?adjust_creative=9gNmiWYX8uTbFBeTTvJMdA&utm_campaign=yelp_api_v3&utm_medium=api_v3_business_search&utm_source=9gNmiWYX8uTbFBeTTvJMdA", "review_count": 35, "categories": [{"alias": "thai", "title": "Thai"}], "rating": 3.5, "coordinates": {"latitude": 40.7406835242277, "longitude": -73.9813961461186}, "transactions": ["pickup", "delivery"], "location": {"address1": "203 E 26th St", "address2": "Basement", "address3": null, "city": "New York", "zip_code": "10010", "country": "US", "state": "NY", "display_address": ["203 E 26th St", "Basement", "New York, NY 10010"]}, "phone": "+16468705200", "display_phone": "(646) 870-5200", "distance": 2284.6001311810455}, {"id": "pb_cHcy8D8UC-jQ-Q524ug", "alias": "som-bo-new-york-2", "name": "Som Bo", "image_url": "https://s3-media2.fl.yelpcdn.com/bphoto/usAdZvJQKR90DnlJszwM5w/o.jpg", "is_closed": false, "url": "https://www.yelp.com/biz/som-bo-new-york-2?adjust_creative=9gNmiWYX8uTbFBeTTvJMdA&utm_campaign=yelp_api_v3&utm_medium=api_v3_business_search&utm_source=9gNmiWYX8uTbFBeTTvJMdA", "review_count": 267, "categories": [{"alias": "asianfusion", "title": "Asian Fusion"}, {"alias": "korean", "title": "Korean"}, {"alias": "chinese", "title": "Chinese"}], "rating": 4.0, "coordinates": {"latitude": 40.74192, "longitude": -74.00136}, "transactions": ["pickup", "delivery"], "price": "$$", "location": {"address1": "143 8th Ave", "address2": null, "address3": "", "city": "New York", "zip_code": "10011", "country": "US", "state": "NY", "display_address": ["143 8th Ave", "New York, NY 10011"]}, "phone": "+19172617947", "display_phone": "(917) 261-7947", "distance": 3293.550016153124}, {"id": "kwqOmEwWJ0D9PyCdFGE3-g", "alias": "xian-famous-foods-new-york-36", "name": "Xian Famous Foods", "image_url": "https://s3-media2.fl.yelpcdn.com/bphoto/ohRaHkx-T8vwahzAuBd8-w/o.jpg", "is_closed": false, "url": "https://www.yelp.com/biz/xian-famous-foods-new-york-36?adjust_creative=9gNmiWYX8uTbFBeTTvJMdA&utm_campaign=yelp_api_v3&utm_medium=api_v3_business_search&utm_source=9gNmiWYX8uTbFBeTTvJMdA", "review_count": 740, "categories": [{"alias": "chinese", "title": "Chinese"}, {"alias": "noodles", "title": "Noodles"}, {"alias": "burgers", "title": "Burgers"}], "rating": 4.0, "coordinates": {"latitude": 40.747844, "longitude": -73.983901}, "transactions": ["delivery"], "price": "$$", "location": {"address1": "14 E 34th St", "address2": "", "address3": "", "city": "New York", "zip_code": "10016", "country": "US", "state": "NY", "display_address": ["14 E 34th St", "New York, NY 10016"]}, "phone": "+12127862068", "display_phone": "(212) 786-2068", "distance": 1742.455389101335}, {"id": "ba-MPbYnM6T30RNgPdUvtQ", "alias": "shanghai-red-asian-latin-bistro-bronx-2", "name": "Shanghai Red Asian Latin Bistro", "image_url": "https://s3-media3.fl.yelpcdn.com/bphoto/V2uJArhmjrFs9Mi1xSVpMw/o.jpg", "is_closed": false, "url": "https://www.yelp.com/biz/shanghai-red-asian-latin-bistro-bronx-2?adjust_creative=9gNmiWYX8uTbFBeTTvJMdA&utm_campaign=yelp_api_v3&utm_medium=api_v3_business_search&utm_source=9gNmiWYX8uTbFBeTTvJMdA", "review_count": 160, "categories": [{"alias": "asianfusion", "title": "Asian Fusion"}, {"alias": "cocktailbars", "title": "Cocktail Bars"}], "rating": 3.5, "coordinates": {"latitude": 40.8401620296024, "longitude": -73.8425095552948}, "transactions": ["pickup", "delivery"], "price": "$$", "location": {"address1": "127 Westchester Sq", "address2": "", "address3": null, "city": "Bronx", "zip_code": "10461", "country": "US", "state": "NY", "display_address": ["127 Westchester Sq", "Bronx, NY 10461"]}, "phone": "+17186846262", "display_phone": "(718) 684-6262", "distance": 13981.833603752251}, {"id": "i6H4hcjBSarJRVaieOZ2fw", "alias": "come-on-thai-cuisine-brooklyn", "name": "Come On Thai Cuisine", "image_url": "https://s3-media1.fl.yelpcdn.com/bphoto/ejYsaoakBgZpSsjet7LNaA/o.jpg", "is_closed": false, "url": "https://www.yelp.com/biz/come-on-thai-cuisine-brooklyn?adjust_creative=9gNmiWYX8uTbFBeTTvJMdA&utm_campaign=yelp_api_v3&utm_medium=api_v3_business_search&utm_source=9gNmiWYX8uTbFBeTTvJMdA", "review_count": 78, "categories": [{"alias": "thai", "title": "Thai"}, {"alias": "desserts", "title": "Desserts"}, {"alias": "salad", "title": "Salad"}], "rating": 4.0, "coordinates": {"latitude": 40.629117, "longitude": -74.028483}, "transactions": ["pickup", "delivery"], "price": "$$", "location": {"address1": "7803 3th Ave", "address2": "", "address3": "", "city": "Brooklyn", "zip_code": "11209", "country": "US", "state": "NY", "display_address": ["7803 3th Ave", "Brooklyn, NY 11209"]}, "phone": "+13475606666", "display_phone": "(347) 560-6666", "distance": 15290.783721747935}, {"id": "UFMXc5B0i_IetI-f8Dpb5A", "alias": "coco-thai-brooklyn-2", "name": "Coco Thai", "image_url": "https://s3-media3.fl.yelpcdn.com/bphoto/uj-ew4sQ41mUVGtTmnfW-Q/o.jpg", "is_closed": false, "url": "https://www.yelp.com/biz/coco-thai-brooklyn-2?adjust_creative=9gNmiWYX8uTbFBeTTvJMdA&utm_campaign=yelp_api_v3&utm_medium=api_v3_business_search&utm_source=9gNmiWYX8uTbFBeTTvJMdA", "review_count": 91, "categories": [{"alias": "thai", "title": "Thai"}], "rating": 3.5, "coordinates": {"latitude": 40.6585694, "longitude": -73.9822303}, "transactions": ["pickup", "delivery"], "price": "$$", "location": {"address1": "268 Prospect Park W", "address2": "", "address3": null, "city": "Brooklyn", "zip_code": "11215", "country": "US", "state": "NY", "display_address": ["268 Prospect Park W", "Brooklyn, NY 11215"]}, "phone": "+17183692472", "display_phone": "(718) 369-2472", "distance": 11237.537837873017}, {"id": "eLnlAoAo7axwjJWtW6iEGg", "alias": "avocaderia-new-york-4", "name": "Avocaderia", "image_url": "https://s3-media1.fl.yelpcdn.com/bphoto/_cSTqeccpSXyu8Z75HEEZg/o.jpg", "is_closed": false, "url": "https://www.yelp.com/biz/avocaderia-new-york-4?adjust_creative=9gNmiWYX8uTbFBeTTvJMdA&utm_campaign=yelp_api_v3&utm_medium=api_v3_business_search&utm_source=9gNmiWYX8uTbFBeTTvJMdA", "review_count": 1, "categories": [{"alias": "salad", "title": "Salad"}, {"alias": "juicebars", "title": "Juice Bars & Smoothies"}], "rating": 4.0, "coordinates": {"latitude": 40.74440236037355, "longitude": -73.9870662}, "transactions": ["pickup", "delivery"], "location": {"address1": "245 5th Ave", "address2": "", "address3": null, "city": "New York", "zip_code": "10016", "country": "US", "state": "NY", "display_address": ["245 5th Ave", "New York, NY 10016"]}, "phone": "", "display_phone": "", "distance": 2206.6354134063754}, {"id": "YIYetgfNE34G8JhQu98XQw", "alias": "ozen-new-york-3", "name": "Ozen", "image_url": "https://s3-media1.fl.yelpcdn.com/bphoto/vLjo213qoXjMF3iRK82WvQ/o.jpg", "is_closed": false, "url": "https://www.yelp.com/biz/ozen-new-york-3?adjust_creative=9gNmiWYX8uTbFBeTTvJMdA&utm_campaign=yelp_api_v3&utm_medium=api_v3_business_search&utm_source=9gNmiWYX8uTbFBeTTvJMdA", "review_count": 210, "categories": [{"alias": "asianfusion", "title": "Asian Fusion"}, {"alias": "sushi", "title": "Sushi Bars"}], "rating": 3.0, "coordinates": {"latitude": 40.7948819801249, "longitude": -73.9700052707462}, "transactions": ["pickup", "delivery"], "price": "$$", "location": {"address1": "760 Amsterdam Ave", "address2": "", "address3": "", "city": "New York", "zip_code": "10025", "country": "US", "state": "NY", "display_address": ["760 Amsterdam Ave", "New York, NY 10025"]}, "phone": "+12126780300", "display_phone": "(212) 678-0300", "distance": 3970.629376773403}, {"id": "CEEUDBFxvUPKGlA65qJ8JQ", "alias": "beatnic-flatiron-new-york-2", "name": "Beatnic - Flatiron", "image_url": "https://s3-media4.fl.yelpcdn.com/bphoto/c5BxSYJ5Ytpf3nOenT2yeg/o.jpg", "is_closed": false, "url": "https://www.yelp.com/biz/beatnic-flatiron-new-york-2?adjust_creative=9gNmiWYX8uTbFBeTTvJMdA&utm_campaign=yelp_api_v3&utm_medium=api_v3_business_search&utm_source=9gNmiWYX8uTbFBeTTvJMdA", "review_count": 830, "categories": [{"alias": "vegan", "title": "Vegan"}, {"alias": "gluten_free", "title": "Gluten-Free"}, {"alias": "vegetarian", "title": "Vegetarian"}], "rating": 4.0, "coordinates": {"latitude": 40.7418636, "longitude": -73.9929947}, "transactions": ["pickup", "delivery"], "price": "$$", "location": {"address1": "60 W 22nd St", "address2": null, "address3": null, "city": "New York", "zip_code": "10010", "country": "US", "state": "NY", "display_address": ["60 W 22nd St", "New York, NY 10010"]}, "phone": "+12122908000", "display_phone": "(212) 290-8000", "distance": 2756.3611467627147}, {"id": "ynIx549QFj29o84y1RSGyw", "alias": "bao-bao-cafe-new-york-2", "name": "Bao Bao Cafe", "image_url": "https://s3-media3.fl.yelpcdn.com/bphoto/O3PgrgAsM63bnzkcNVCIEQ/o.jpg", "is_closed": false, "url": "https://www.yelp.com/biz/bao-bao-cafe-new-york-2?adjust_creative=9gNmiWYX8uTbFBeTTvJMdA&utm_campaign=yelp_api_v3&utm_medium=api_v3_business_search&utm_source=9gNmiWYX8uTbFBeTTvJMdA", "review_count": 509, "categories": [{"alias": "ramen", "title": "Ramen"}, {"alias": "chinese", "title": "Chinese"}, {"alias": "noodles", "title": "Noodles"}], "rating": 4.0, "coordinates": {"latitude": 40.740829, "longitude": -73.983474}, "transactions": ["pickup", "delivery"], "price": "$$", "location": {"address1": "61 Lexington Ave", "address2": "Unit B", "address3": "", "city": "New York", "zip_code": "10010", "country": "US", "state": "NY", "display_address": ["61 Lexington Ave", "Unit B", "New York, NY 10010"]}, "phone": "+19173882479", "display_phone": "(917) 388-2479", "distance": 2351.709127404519}, {"id": "Ci8ZAbhfNc0sj3kwj6XRmw", "alias": "beatnic-rock-center-new-york-3", "name": "Beatnic - Rock Center", "image_url": "https://s3-media4.fl.yelpcdn.com/bphoto/DJ-HupflF0TPATfuFApDmg/o.jpg", "is_closed": false, "url": "https://www.yelp.com/biz/beatnic-rock-center-new-york-3?adjust_creative=9gNmiWYX8uTbFBeTTvJMdA&utm_campaign=yelp_api_v3&utm_medium=api_v3_business_search&utm_source=9gNmiWYX8uTbFBeTTvJMdA", "review_count": 510, "categories": [{"alias": "vegan", "title": "Vegan"}, {"alias": "gluten_free", "title": "Gluten-Free"}, {"alias": "vegetarian", "title": "Vegetarian"}], "rating": 4.0, "coordinates": {"latitude": 40.757733, "longitude": -73.97889}, "transactions": ["pickup", "delivery"], "price": "$$", "location": {"address1": "1 Rockefeller Plz", "address2": null, "address3": null, "city": "New York", "zip_code": "10020", "country": "US", "state": "NY", "display_address": ["1 Rockefeller Plz", "New York, NY 10020"]}, "phone": "+12122908000", "display_phone": "(212) 290-8000", "distance": 800.8657196776279}, {"id": "-KahGyU9G7JT0JmoC_Yc0Q", "alias": "garden-court-cafe-new-york-5", "name": "Garden Court Cafe", "image_url": "https://s3-media3.fl.yelpcdn.com/bphoto/DF995Ky1nyUF4hbarSIe_g/o.jpg", "is_closed": false, "url": "https://www.yelp.com/biz/garden-court-cafe-new-york-5?adjust_creative=9gNmiWYX8uTbFBeTTvJMdA&utm_campaign=yelp_api_v3&utm_medium=api_v3_business_search&utm_source=9gNmiWYX8uTbFBeTTvJMdA", "review_count": 12, "categories": [{"alias": "cafes", "title": "Cafes"}, {"alias": "asianfusion", "title": "Asian Fusion"}, {"alias": "venues", "title": "Venues & Event Spaces"}], "rating": 3.5, "coordinates": {"latitude": 40.7698599, "longitude": -73.9643117}, "transactions": [], "price": "$$", "location": {"address1": "725 Park Ave", "address2": "Lobby of Asia Society Museum", "address3": "The Asia Society", "city": "New York", "zip_code": "10021", "country": "US", "state": "NY", "display_address": ["725 Park Ave", "Lobby of Asia Society Museum", "The Asia Society", "New York, NY 10021"]}, "phone": "+12125705202", "display_phone": "(212) 570-5202", "distance": 1268.102154878003}, {"id": "zqyGYIiCXL1Hz8KVZxbylQ", "alias": "hello-saigon-new-york", "name": "Hello Saigon", "image_url": "https://s3-media2.fl.yelpcdn.com/bphoto/LYw6wPijKa6o2hxZXshVdA/o.jpg", "is_closed": false, "url": "https://www.yelp.com/biz/hello-saigon-new-york?adjust_creative=9gNmiWYX8uTbFBeTTvJMdA&utm_campaign=yelp_api_v3&utm_medium=api_v3_business_search&utm_source=9gNmiWYX8uTbFBeTTvJMdA", "review_count": 384, "categories": [{"alias": "vietnamese", "title": "Vietnamese"}, {"alias": "sandwiches", "title": "Sandwiches"}, {"alias": "noodles", "title": "Noodles"}], "rating": 4.0, "coordinates": {"latitude": 40.7289399955423, "longitude": -74.0009501203895}, "transactions": ["pickup", "delivery"], "price": "$$", "location": {"address1": "180 Bleecker St", "address2": "", "address3": null, "city": "New York", "zip_code": "10012", "country": "US", "state": "NY", "display_address": ["180 Bleecker St", "New York, NY 10012"]}, "phone": "+12122542088", "display_phone": "(212) 254-2088", "distance": 4276.631271688685}, {"id": "nd0uXNXaeaDMuMk4C1GusA", "alias": "bukhara-grill-indian-spice-rave-new-york", "name": "Bukhara Grill:Indian Spice Rave", "image_url": "https://s3-media3.fl.yelpcdn.com/bphoto/FaoeJhzOZB-BcIRlx0etzA/o.jpg", "is_closed": false, "url": "https://www.yelp.com/biz/bukhara-grill-indian-spice-rave-new-york?adjust_creative=9gNmiWYX8uTbFBeTTvJMdA&utm_campaign=yelp_api_v3&utm_medium=api_v3_business_search&utm_source=9gNmiWYX8uTbFBeTTvJMdA", "review_count": 555, "categories": [{"alias": "indpak", "title": "Indian"}, {"alias": "buffets", "title": "Buffets"}, {"alias": "vegetarian", "title": "Vegetarian"}], "rating": 3.5, "coordinates": {"latitude": 40.75501, "longitude": -73.97028}, "transactions": ["pickup", "delivery"], "price": "$$", "location": {"address1": "217 E 49th St", "address2": "", "address3": "", "city": "New York", "zip_code": "10017", "country": "US", "state": "NY", "display_address": ["217 E 49th St", "New York, NY 10017"]}, "phone": "+12128882839", "display_phone": "(212) 888-2839", "distance": 467.5040626400062}], "total": 1700, "region": {"center": {"longitude": -73.96957397460938, "latitude": 40.75917470627005}}}