{"businesses": [{"id": "E9NMNWvV70HV5gB369N0EA", "alias": "nerai-new-york", "name": "Nerai", "image_url": "https://s3-media1.fl.yelpcdn.com/bphoto/OtnDm6INo-qFcuvU-mjBPw/o.jpg", "is_closed": false, "url": "https://www.yelp.com/biz/nerai-new-york?adjust_creative=9gNmiWYX8uTbFBeTTvJMdA&utm_campaign=yelp_api_v3&utm_medium=api_v3_business_search&utm_source=9gNmiWYX8uTbFBeTTvJMdA", "review_count": 669, "categories": [{"alias": "greek", "title": "Greek"}, {"alias": "seafood", "title": "Seafood"}, {"alias": "mediterranean", "title": "Mediterranean"}], "rating": 4.5, "coordinates": {"latitude": 40.760313566070415, "longitude": -73.97302370552254}, "transactions": ["pickup", "delivery"], "price": "$$$", "location": {"address1": "55 E 54th St", "address2": null, "address3": "", "city": "New York", "zip_code": "10022", "country": "US", "state": "NY", "display_address": ["55 E 54th St", "New York, NY 10022"]}, "phone": "+12127595554", "display_phone": "(212) 759-5554", "distance": 316.9507398589654}, {"id": "F89nDDlYZ7wbRe8EpLCqBw", "alias": "avra-48th-street-new-york", "name": "Avra 48th Street", "image_url": "https://s3-media4.fl.yelpcdn.com/bphoto/TvLumNxdcWX2ZX9MWUwMJw/o.jpg", "is_closed": false, "url": "https://www.yelp.com/biz/avra-48th-street-new-york?adjust_creative=9gNmiWYX8uTbFBeTTvJMdA&utm_campaign=yelp_api_v3&utm_medium=api_v3_business_search&utm_source=9gNmiWYX8uTbFBeTTvJMdA", "review_count": 999, "categories": [{"alias": "seafood", "title": "Seafood"}, {"alias": "greek", "title": "Greek"}, {"alias": "mediterranean", "title": "Mediterranean"}], "rating": 4.0, "coordinates": {"latitude": 40.755048569901554, "longitude": -73.97243859999999}, "transactions": ["pickup", "delivery"], "price": "$$$", "location": {"address1": "141 E 48th St", "address2": "", "address3": "", "city": "New York", "zip_code": "10017", "country": "US", "state": "NY", "display_address": ["141 E 48th St", "New York, NY 10017"]}, "phone": "+12127598550", "display_phone": "(212) 759-8550", "distance": 518.3813132110787}, {"id": "pGByzum9iOjdnXj8VhQomA", "alias": "molyvos-restaurant-new-york-2", "name": "Molyvos Restaurant", "image_url": "https://s3-media1.fl.yelpcdn.com/bphoto/5TjsdBYTvvBS4SCZk-VH1Q/o.jpg", "is_closed": false, "url": "https://www.yelp.com/biz/molyvos-restaurant-new-york-2?adjust_creative=9gNmiWYX8uTbFBeTTvJMdA&utm_campaign=yelp_api_v3&utm_medium=api_v3_business_search&utm_source=9gNmiWYX8uTbFBeTTvJMdA", "review_count": 29, "categories": [{"alias": "wine_bars", "title": "Wine Bars"}, {"alias": "seafood", "title": "Seafood"}, {"alias": "greek", "title": "Greek"}], "rating": 4.5, "coordinates": {"latitude": 40.759231, "longitude": -73.992676}, "transactions": ["pickup", "delivery"], "location": {"address1": "402 West 43rd St", "address2": null, "address3": "", "city": "New York", "zip_code": "10036", "country": "US", "state": "NY", "display_address": ["402 West 43rd St", "New York, NY 10036"]}, "phone": "+12125827500", "display_phone": "(212) 582-7500", "distance": 1951.6573548680517}, {"id": "ZD9OPTKRx-BWqXgfqwCy7w", "alias": "souvlaki-gr-new-york-9", "name": "Souvlaki GR", "image_url": "https://s3-media1.fl.yelpcdn.com/bphoto/z1a5JslyfWEpM7SRfYsWuQ/o.jpg", "is_closed": false, "url": "https://www.yelp.com/biz/souvlaki-gr-new-york-9?adjust_creative=9gNmiWYX8uTbFBeTTvJMdA&utm_campaign=yelp_api_v3&utm_medium=api_v3_business_search&utm_source=9gNmiWYX8uTbFBeTTvJMdA", "review_count": 202, "categories": [{"alias": "greek", "title": "Greek"}], "rating": 4.5, "coordinates": {"latitude": 40.75725, "longitude": -73.96808}, "transactions": ["pickup", "delivery"], "price": "$$", "location": {"address1": "231 E 53rd St", "address2": "", "address3": null, "city": "New York", "zip_code": "10022", "country": "US", "state": "NY", "display_address": ["231 E 53rd St", "New York, NY 10022"]}, "phone": "+12128320395", "display_phone": "(212) 832-0395", "distance": 246.5808068342438}, {"id": "H87m0azdhuw5uo6Y166uUg", "alias": "loi-estiatorio-new-york", "name": "Loi Estiatorio", "image_url": "https://s3-media1.fl.yelpcdn.com/bphoto/biLWKMw1L-tszDRq4dwONg/o.jpg", "is_closed": false, "url": "https://www.yelp.com/biz/loi-estiatorio-new-york?adjust_creative=9gNmiWYX8uTbFBeTTvJMdA&utm_campaign=yelp_api_v3&utm_medium=api_v3_business_search&utm_source=9gNmiWYX8uTbFBeTTvJMdA", "review_count": 437, "categories": [{"alias": "greek", "title": "Greek"}, {"alias": "mediterranean", "title": "Mediterranean"}], "rating": 4.5, "coordinates": {"latitude": 40.765385, "longitude": -73.978002}, "transactions": ["pickup", "delivery"], "price": "$$$", "location": {"address1": "132 W 58th St", "address2": "", "address3": "", "city": "New York", "zip_code": "10019", "country": "US", "state": "NY", "display_address": ["132 W 58th St", "New York, NY 10019"]}, "phone": "+12127130015", "display_phone": "(212) 713-0015", "distance": 990.3086054617163}, {"id": "7xV4gzrgaOgQYtPC3FBZig", "alias": "pylos-new-york", "name": "Pylos", "image_url": "https://s3-media4.fl.yelpcdn.com/bphoto/b01yDw6TOEzrufQu31dECA/o.jpg", "is_closed": false, "url": "https://www.yelp.com/biz/pylos-new-york?adjust_creative=9gNmiWYX8uTbFBeTTvJMdA&utm_campaign=yelp_api_v3&utm_medium=api_v3_business_search&utm_source=9gNmiWYX8uTbFBeTTvJMdA", "review_count": 1212, "categories": [{"alias": "greek", "title": "Greek"}], "rating": 4.5, "coordinates": {"latitude": 40.72608, "longitude": -73.98415}, "transactions": ["pickup", "delivery"], "price": "$$$", "location": {"address1": "128 E 7th St", "address2": null, "address3": "", "city": "New York", "zip_code": "10009", "country": "US", "state": "NY", "display_address": ["128 E 7th St", "New York, NY 10009"]}, "phone": "+12124730220", "display_phone": "(212) 473-0220", "distance": 3876.208941779616}, {"id": "oY-tooKEm8F-6Il1JOQzKg", "alias": "souvlaki-gr-new-york-6", "name": "Souvlaki GR", "image_url": "https://s3-media2.fl.yelpcdn.com/bphoto/BG__zZzOk-AHnj7IsHDk6Q/o.jpg", "is_closed": false, "url": "https://www.yelp.com/biz/souvlaki-gr-new-york-6?adjust_creative=9gNmiWYX8uTbFBeTTvJMdA&utm_campaign=yelp_api_v3&utm_medium=api_v3_business_search&utm_source=9gNmiWYX8uTbFBeTTvJMdA", "review_count": 768, "categories": [{"alias": "greek", "title": "Greek"}], "rating": 4.0, "coordinates": {"latitude": 40.76465, "longitude": -73.98029}, "transactions": ["pickup", "delivery"], "price": "$$", "location": {"address1": "162 W 56th St", "address2": null, "address3": "", "city": "New York", "zip_code": "10019", "country": "US", "state": "NY", "display_address": ["162 W 56th St", "New York, NY 10019"]}, "phone": "+12129747482", "display_phone": "(212) 974-7482", "distance": 1088.3726521242543}, {"id": "4KzqwQus39gXgrwrDXAjWA", "alias": "el\u00e9a-new-york", "name": "El\u00e9a", "image_url": "https://s3-media4.fl.yelpcdn.com/bphoto/cFF7gz4D1OQn-kdWh6qZdQ/o.jpg", "is_closed": false, "url": "https://www.yelp.com/biz/el%C3%A9a-new-york?adjust_creative=9gNmiWYX8uTbFBeTTvJMdA&utm_campaign=yelp_api_v3&utm_medium=api_v3_business_search&utm_source=9gNmiWYX8uTbFBeTTvJMdA", "review_count": 247, "categories": [{"alias": "mediterranean", "title": "Mediterranean"}, {"alias": "greek", "title": "Greek"}, {"alias": "tapasmallplates", "title": "Tapas/Small Plates"}], "rating": 4.5, "coordinates": {"latitude": 40.78754, "longitude": -73.9765199}, "transactions": ["pickup", "delivery"], "location": {"address1": "217 W 85th St", "address2": "", "address3": null, "city": "New York", "zip_code": "10024", "country": "US", "state": "NY", "display_address": ["217 W 85th St", "New York, NY 10024"]}, "phone": "+12123699800", "display_phone": "(212) 369-9800", "distance": 3210.6276025466736}, {"id": "niODyKeyStKEut1b6FNlhQ", "alias": "elenis-new-york-3", "name": "Eleni's", "image_url": "https://s3-media3.fl.yelpcdn.com/bphoto/2eugiJ0-tsrgwOAQyfFcVw/o.jpg", "is_closed": false, "url": "https://www.yelp.com/biz/elenis-new-york-3?adjust_creative=9gNmiWYX8uTbFBeTTvJMdA&utm_campaign=yelp_api_v3&utm_medium=api_v3_business_search&utm_source=9gNmiWYX8uTbFBeTTvJMdA", "review_count": 162, "categories": [{"alias": "greek", "title": "Greek"}], "rating": 4.5, "coordinates": {"latitude": 40.736601, "longitude": -73.985085}, "transactions": ["pickup", "delivery"], "price": "$$$", "location": {"address1": "226 3rd Ave", "address2": "", "address3": null, "city": "New York", "zip_code": "10003", "country": "US", "state": "NY", "display_address": ["226 3rd Ave", "New York, NY 10003"]}, "phone": "+12129829030", "display_phone": "(212) 982-9030", "distance": 2829.275006013988}, {"id": "mhhTORjUdXj-UIDjyGmhBg", "alias": "estiatorio-milos-midtown-new-york-new-york", "name": "Estiatorio Milos - Midtown New York", "image_url": "https://s3-media1.fl.yelpcdn.com/bphoto/osgwbo_Kxergv6E-PLMi0w/o.jpg", "is_closed": false, "url": "https://www.yelp.com/biz/estiatorio-milos-midtown-new-york-new-york?adjust_creative=9gNmiWYX8uTbFBeTTvJMdA&utm_campaign=yelp_api_v3&utm_medium=api_v3_business_search&utm_source=9gNmiWYX8uTbFBeTTvJMdA", "review_count": 1046, "categories": [{"alias": "seafood", "title": "Seafood"}, {"alias": "greek", "title": "Greek"}, {"alias": "mediterranean", "title": "Mediterranean"}], "rating": 4.0, "coordinates": {"latitude": 40.763541894630784, "longitude": -73.97902511983438}, "transactions": ["delivery"], "price": "$$$$", "location": {"address1": "125 W 55th St", "address2": "", "address3": "", "city": "New York", "zip_code": "10019", "country": "US", "state": "NY", "display_address": ["125 W 55th St", "New York, NY 10019"]}, "phone": "+12122457400", "display_phone": "(212) 245-7400", "distance": 932.4356785757907}, {"id": "blXVGUTB-4epYW9KFsQJ_g", "alias": "the-greek-kitchen-new-york", "name": "The Greek Kitchen", "image_url": "https://s3-media4.fl.yelpcdn.com/bphoto/3uPy7hIL0svia-tshTuO9g/o.jpg", "is_closed": false, "url": "https://www.yelp.com/biz/the-greek-kitchen-new-york?adjust_creative=9gNmiWYX8uTbFBeTTvJMdA&utm_campaign=yelp_api_v3&utm_medium=api_v3_business_search&utm_source=9gNmiWYX8uTbFBeTTvJMdA", "review_count": 599, "categories": [{"alias": "greek", "title": "Greek"}, {"alias": "mediterranean", "title": "Mediterranean"}], "rating": 4.0, "coordinates": {"latitude": 40.7697614, "longitude": -73.9881055}, "transactions": ["pickup", "delivery"], "price": "$$", "location": {"address1": "889 10th Ave", "address2": "", "address3": "", "city": "New York", "zip_code": "10019", "country": "US", "state": "NY", "display_address": ["889 10th Ave", "New York, NY 10019"]}, "phone": "+12125814303", "display_phone": "(212) 581-4303", "distance": 1954.8830518090438}, {"id": "apykLG7DTZ-7xnOcZGDZZA", "alias": "taverna-kyclades-east-village-new-york-2", "name": "Taverna Kyclades - East Village", "image_url": "https://s3-media2.fl.yelpcdn.com/bphoto/IqbEtXWWcb096GtYgg6o6g/o.jpg", "is_closed": false, "url": "https://www.yelp.com/biz/taverna-kyclades-east-village-new-york-2?adjust_creative=9gNmiWYX8uTbFBeTTvJMdA&utm_campaign=yelp_api_v3&utm_medium=api_v3_business_search&utm_source=9gNmiWYX8uTbFBeTTvJMdA", "review_count": 930, "categories": [{"alias": "greek", "title": "Greek"}, {"alias": "seafood", "title": "Seafood"}, {"alias": "mediterranean", "title": "Mediterranean"}], "rating": 4.0, "coordinates": {"latitude": 40.731019969685164, "longitude": -73.98260448877211}, "transactions": ["pickup", "delivery"], "price": "$$$", "location": {"address1": "228 1st Ave", "address2": "", "address3": "", "city": "New York", "zip_code": "10009", "country": "US", "state": "NY", "display_address": ["228 1st Ave", "New York, NY 10009"]}, "phone": "+12124320011", "display_phone": "(212) 432-0011", "distance": 3317.5380974214763}, {"id": "7ZecxKox2SiVtsNDWphJZQ", "alias": "limani-new-york", "name": "Limani", "image_url": "https://s3-media2.fl.yelpcdn.com/bphoto/XeCx1fz0_LEfl4_jdTo9Og/o.jpg", "is_closed": false, "url": "https://www.yelp.com/biz/limani-new-york?adjust_creative=9gNmiWYX8uTbFBeTTvJMdA&utm_campaign=yelp_api_v3&utm_medium=api_v3_business_search&utm_source=9gNmiWYX8uTbFBeTTvJMdA", "review_count": 510, "categories": [{"alias": "mediterranean", "title": "Mediterranean"}, {"alias": "seafood", "title": "Seafood"}], "rating": 4.0, "coordinates": {"latitude": 40.7593809598193, "longitude": -73.9778140767212}, "transactions": ["pickup", "delivery"], "price": "$$$", "location": {"address1": "45 Rockerfeller Plz", "address2": "", "address3": "", "city": "New York", "zip_code": "10111", "country": "US", "state": "NY", "display_address": ["45 Rockerfeller Plz", "New York, NY 10111"]}, "phone": "+12128589200", "display_phone": "(212) 858-9200", "distance": 694.4058406856423}, {"id": "GeoR6dpTUEpdIoyAd68Irg", "alias": "kyma-new-york", "name": "Kyma", "image_url": "https://s3-media4.fl.yelpcdn.com/bphoto/uaPFsvk7E6J_SZeYnxDNAQ/o.jpg", "is_closed": false, "url": "https://www.yelp.com/biz/kyma-new-york?adjust_creative=9gNmiWYX8uTbFBeTTvJMdA&utm_campaign=yelp_api_v3&utm_medium=api_v3_business_search&utm_source=9gNmiWYX8uTbFBeTTvJMdA", "review_count": 313, "categories": [{"alias": "greek", "title": "Greek"}, {"alias": "mediterranean", "title": "Mediterranean"}], "rating": 4.0, "coordinates": {"latitude": 40.73904, "longitude": -73.99283}, "transactions": ["pickup", "delivery"], "price": "$$$", "location": {"address1": "15 W 18th St", "address2": "", "address3": null, "city": "New York", "zip_code": "10011", "country": "US", "state": "NY", "display_address": ["15 W 18th St", "New York, NY 10011"]}, "phone": "+12122685555", "display_phone": "(212) 268-5555", "distance": 2965.374441230551}, {"id": "dtcV8BLJ-0yVdYi0rwlLog", "alias": "ali-baba-mediterranean-cuisine-new-york-2", "name": "Ali Baba Mediterranean Cuisine", "image_url": "https://s3-media3.fl.yelpcdn.com/bphoto/Y0r-z7RygHgVbZrgYIlqMA/o.jpg", "is_closed": false, "url": "https://www.yelp.com/biz/ali-baba-mediterranean-cuisine-new-york-2?adjust_creative=9gNmiWYX8uTbFBeTTvJMdA&utm_campaign=yelp_api_v3&utm_medium=api_v3_business_search&utm_source=9gNmiWYX8uTbFBeTTvJMdA", "review_count": 1, "categories": [{"alias": "mediterranean", "title": "Mediterranean"}, {"alias": "halal", "title": "Halal"}, {"alias": "turkish", "title": "Turkish"}], "rating": 5.0, "coordinates": {"latitude": 40.757165, "longitude": -73.968479}, "transactions": ["pickup", "delivery"], "location": {"address1": "224 E 53rd St", "address2": null, "address3": "", "city": "New York", "zip_code": "10022", "country": "US", "state": "NY", "display_address": ["224 E 53rd St", "New York, NY 10022"]}, "phone": "+12129802900", "display_phone": "(212) 980-2900", "distance": 243.83962407613785}, {"id": "YNROFa4J25EujA2g6hl9mw", "alias": "sea-salt-new-york-5", "name": "Sea Salt", "image_url": "https://s3-media3.fl.yelpcdn.com/bphoto/ZkCJammu6mnw5dOBqerPfA/o.jpg", "is_closed": false, "url": "https://www.yelp.com/biz/sea-salt-new-york-5?adjust_creative=9gNmiWYX8uTbFBeTTvJMdA&utm_campaign=yelp_api_v3&utm_medium=api_v3_business_search&utm_source=9gNmiWYX8uTbFBeTTvJMdA", "review_count": 83, "categories": [{"alias": "mediterranean", "title": "Mediterranean"}, {"alias": "cocktailbars", "title": "Cocktail Bars"}, {"alias": "seafood", "title": "Seafood"}], "rating": 4.5, "coordinates": {"latitude": 40.76128, "longitude": -73.96099}, "transactions": ["restaurant_reservation", "delivery", "pickup"], "location": {"address1": "1123 1st Ave", "address2": "", "address3": null, "city": "New York", "zip_code": "10065", "country": "US", "state": "NY", "display_address": ["1123 1st Ave", "New York, NY 10065"]}, "phone": "+19172614443", "display_phone": "(917) 261-4443", "distance": 758.3085427960574}, {"id": "u2Uw0v1Rqepv0X6nOyICxA", "alias": "anassa-taverna-nyc-new-york", "name": "Anassa Taverna NYC", "image_url": "https://s3-media4.fl.yelpcdn.com/bphoto/sSjfAfVu4JA0Dd2L4KHlLg/o.jpg", "is_closed": false, "url": "https://www.yelp.com/biz/anassa-taverna-nyc-new-york?adjust_creative=9gNmiWYX8uTbFBeTTvJMdA&utm_campaign=yelp_api_v3&utm_medium=api_v3_business_search&utm_source=9gNmiWYX8uTbFBeTTvJMdA", "review_count": 390, "categories": [{"alias": "greek", "title": "Greek"}, {"alias": "seafood", "title": "Seafood"}, {"alias": "mediterranean", "title": "Mediterranean"}], "rating": 3.5, "coordinates": {"latitude": 40.762037, "longitude": -73.9660633}, "transactions": ["pickup", "delivery"], "price": "$$$", "location": {"address1": "200 E 60th St", "address2": "", "address3": "", "city": "New York", "zip_code": "10022", "country": "US", "state": "NY", "display_address": ["200 E 60th St", "New York, NY 10022"]}, "phone": "+12123715200", "display_phone": "(212) 371-5200", "distance": 434.42531013372684}, {"id": "m8Ytb_3eYIiWla68Lk2fFA", "alias": "under-the-bridge-new-york", "name": "Under The Bridge", "image_url": "https://s3-media1.fl.yelpcdn.com/bphoto/35-CKOU0Su9FKbNVu1n3FA/o.jpg", "is_closed": false, "url": "https://www.yelp.com/biz/under-the-bridge-new-york?adjust_creative=9gNmiWYX8uTbFBeTTvJMdA&utm_campaign=yelp_api_v3&utm_medium=api_v3_business_search&utm_source=9gNmiWYX8uTbFBeTTvJMdA", "review_count": 232, "categories": [{"alias": "greek", "title": "Greek"}, {"alias": "mediterranean", "title": "Mediterranean"}, {"alias": "breakfast_brunch", "title": "Breakfast & Brunch"}], "rating": 4.0, "coordinates": {"latitude": 40.7596400253254, "longitude": -73.9623098820448}, "transactions": ["pickup", "delivery"], "price": "$$", "location": {"address1": "1079 1st Ave", "address2": "", "address3": "", "city": "New York", "zip_code": "10022", "country": "US", "state": "NY", "display_address": ["1079 1st Ave", "New York, NY 10022"]}, "phone": "+12125830695", "display_phone": "(212) 583-0695", "distance": 614.004836155384}, {"id": "lxHKbp0hReRBPZcq4fUUow", "alias": "naya-mezze-and-grill-new-york", "name": "NAYA - Mezze & Grill", "image_url": "https://s3-media3.fl.yelpcdn.com/bphoto/28mdHhunn7Yb1rl4Qse0Tw/o.jpg", "is_closed": false, "url": "https://www.yelp.com/biz/naya-mezze-and-grill-new-york?adjust_creative=9gNmiWYX8uTbFBeTTvJMdA&utm_campaign=yelp_api_v3&utm_medium=api_v3_business_search&utm_source=9gNmiWYX8uTbFBeTTvJMdA", "review_count": 538, "categories": [{"alias": "mediterranean", "title": "Mediterranean"}, {"alias": "lebanese", "title": "Lebanese"}], "rating": 4.0, "coordinates": {"latitude": 40.75848, "longitude": -73.96612}, "transactions": ["pickup", "delivery"], "price": "$$", "location": {"address1": "1057 2nd Ave", "address2": "", "address3": "", "city": "New York", "zip_code": "10022", "country": "US", "state": "NY", "display_address": ["1057 2nd Ave", "New York, NY 10022"]}, "phone": "+12123197777", "display_phone": "(212) 319-7777", "distance": 302.14143675345645}, {"id": "Bn1mZhb501Tvf7_-Pfi9_g", "alias": "korali-estiatorio-new-york", "name": "Korali Estiatorio", "image_url": "https://s3-media3.fl.yelpcdn.com/bphoto/F3KX4qfwDMGur1_EXPA7OQ/o.jpg", "is_closed": false, "url": "https://www.yelp.com/biz/korali-estiatorio-new-york?adjust_creative=9gNmiWYX8uTbFBeTTvJMdA&utm_campaign=yelp_api_v3&utm_medium=api_v3_business_search&utm_source=9gNmiWYX8uTbFBeTTvJMdA", "review_count": 249, "categories": [{"alias": "greek", "title": "Greek"}, {"alias": "seafood", "title": "Seafood"}], "rating": 4.0, "coordinates": {"latitude": 40.78349, "longitude": -73.95098}, "transactions": ["pickup", "delivery"], "price": "$$$", "location": {"address1": "1662 3rd Ave", "address2": "", "address3": "", "city": "New York", "zip_code": "10128", "country": "US", "state": "NY", "display_address": ["1662 3rd Ave", "New York, NY 10128"]}, "phone": "+16469645470", "display_phone": "(646) 964-5470", "distance": 3124.726094355696}, {"id": "RgEtvACRayQhRPnEs_kkIw", "alias": "ethos-gallery-51st-new-york", "name": "Ethos Gallery 51st", "image_url": "https://s3-media2.fl.yelpcdn.com/bphoto/1El_ciekZdPVg-wHc6ZDSA/o.jpg", "is_closed": false, "url": "https://www.yelp.com/biz/ethos-gallery-51st-new-york?adjust_creative=9gNmiWYX8uTbFBeTTvJMdA&utm_campaign=yelp_api_v3&utm_medium=api_v3_business_search&utm_source=9gNmiWYX8uTbFBeTTvJMdA", "review_count": 461, "categories": [{"alias": "greek", "title": "Greek"}], "rating": 3.5, "coordinates": {"latitude": 40.7545262, "longitude": -73.9660484}, "transactions": ["pickup", "delivery"], "price": "$$$", "location": {"address1": "905 1st Ave", "address2": "", "address3": "", "city": "New York", "zip_code": "10022", "country": "US", "state": "NY", "display_address": ["905 1st Ave", "New York, NY 10022"]}, "phone": "+12128884060", "display_phone": "(212) 888-4060", "distance": 596.1181347649612}, {"id": "wPx4aNffBizdYmCG-WLKpQ", "alias": "loukoumi-taverna-astoria-2", "name": "Loukoumi Taverna", "image_url": "https://s3-media1.fl.yelpcdn.com/bphoto/VZ8qUTwyOmCAfRF_EqPYaA/o.jpg", "is_closed": false, "url": "https://www.yelp.com/biz/loukoumi-taverna-astoria-2?adjust_creative=9gNmiWYX8uTbFBeTTvJMdA&utm_campaign=yelp_api_v3&utm_medium=api_v3_business_search&utm_source=9gNmiWYX8uTbFBeTTvJMdA", "review_count": 529, "categories": [{"alias": "greek", "title": "Greek"}], "rating": 4.5, "coordinates": {"latitude": 40.77079, "longitude": -73.90268}, "transactions": ["delivery", "pickup"], "price": "$$", "location": {"address1": "45-07 Ditmars Blvd", "address2": "", "address3": "", "city": "Astoria", "zip_code": "11105", "country": "US", "state": "NY", "display_address": ["45-07 Ditmars Blvd", "Astoria, NY 11105"]}, "phone": "+17186263200", "display_phone": "(718) 626-3200", "distance": 5772.187893137513}, {"id": "Nzalb1MxWXe0LC41POy4Qw", "alias": "yia-yias-homemade-greek-food-new-york", "name": "Yia Yia's- Homemade Greek Food", "image_url": "https://s3-media1.fl.yelpcdn.com/bphoto/SDv1CknkfQaFHgF0QBe9Sw/o.jpg", "is_closed": false, "url": "https://www.yelp.com/biz/yia-yias-homemade-greek-food-new-york?adjust_creative=9gNmiWYX8uTbFBeTTvJMdA&utm_campaign=yelp_api_v3&utm_medium=api_v3_business_search&utm_source=9gNmiWYX8uTbFBeTTvJMdA", "review_count": 237, "categories": [{"alias": "greek", "title": "Greek"}, {"alias": "hotdogs", "title": "Fast Food"}, {"alias": "burgers", "title": "Burgers"}], "rating": 4.0, "coordinates": {"latitude": 40.76563, "longitude": -73.95711}, "transactions": ["pickup", "delivery"], "price": "$$", "location": {"address1": "404 E 69th St", "address2": "", "address3": null, "city": "New York", "zip_code": "10021", "country": "US", "state": "NY", "display_address": ["404 E 69th St", "New York, NY 10021"]}, "phone": "+12124521210", "display_phone": "(212) 452-1210", "distance": 1275.904613358768}, {"id": "gG0pitVnSaUMGbEL3boF0g", "alias": "souvlaki-gr-new-york-3", "name": "Souvlaki GR", "image_url": "https://s3-media1.fl.yelpcdn.com/bphoto/njImnPn6c2SwpIjlUP_aXg/o.jpg", "is_closed": false, "url": "https://www.yelp.com/biz/souvlaki-gr-new-york-3?adjust_creative=9gNmiWYX8uTbFBeTTvJMdA&utm_campaign=yelp_api_v3&utm_medium=api_v3_business_search&utm_source=9gNmiWYX8uTbFBeTTvJMdA", "review_count": 956, "categories": [{"alias": "greek", "title": "Greek"}], "rating": 4.0, "coordinates": {"latitude": 40.721196, "longitude": -73.987118}, "transactions": ["pickup", "delivery"], "price": "$$", "location": {"address1": "116 Stanton St", "address2": "", "address3": "", "city": "New York", "zip_code": "10002", "country": "US", "state": "NY", "display_address": ["116 Stanton St", "New York, NY 10002"]}, "phone": "+12127770116", "display_phone": "(212) 777-0116", "distance": 4470.281186572715}, {"id": "Tp3MF3DNXuW41A10PQ2nFw", "alias": "amali-new-york-3", "name": "Amali", "image_url": "https://s3-media3.fl.yelpcdn.com/bphoto/9GwEhmZB1enc6ha2WXTppw/o.jpg", "is_closed": false, "url": "https://www.yelp.com/biz/amali-new-york-3?adjust_creative=9gNmiWYX8uTbFBeTTvJMdA&utm_campaign=yelp_api_v3&utm_medium=api_v3_business_search&utm_source=9gNmiWYX8uTbFBeTTvJMdA", "review_count": 498, "categories": [{"alias": "mediterranean", "title": "Mediterranean"}, {"alias": "italian", "title": "Italian"}, {"alias": "venues", "title": "Venues & Event Spaces"}], "rating": 4.0, "coordinates": {"latitude": 40.7633557384716, "longitude": -73.9686296877489}, "transactions": ["pickup", "delivery"], "price": "$$$", "location": {"address1": "115 E 60th St", "address2": null, "address3": "", "city": "New York", "zip_code": "10022", "country": "US", "state": "NY", "display_address": ["115 E 60th St", "New York, NY 10022"]}, "phone": "+12123398363", "display_phone": "(212) 339-8363", "distance": 471.6625469539665}, {"id": "wtfEOjfOWVuugf-SuCC5yA", "alias": "avra-madison-new-york-2", "name": "Avra Madison", "image_url": "https://s3-media2.fl.yelpcdn.com/bphoto/XE4OrB7BXLADF2M244BShg/o.jpg", "is_closed": false, "url": "https://www.yelp.com/biz/avra-madison-new-york-2?adjust_creative=9gNmiWYX8uTbFBeTTvJMdA&utm_campaign=yelp_api_v3&utm_medium=api_v3_business_search&utm_source=9gNmiWYX8uTbFBeTTvJMdA", "review_count": 426, "categories": [{"alias": "greek", "title": "Greek"}, {"alias": "seafood", "title": "Seafood"}, {"alias": "mediterranean", "title": "Mediterranean"}], "rating": 4.0, "coordinates": {"latitude": 40.7643, "longitude": -73.971721}, "transactions": ["pickup", "delivery"], "price": "$$$$", "location": {"address1": "14 E 60th St", "address2": "", "address3": null, "city": "New York", "zip_code": "10022", "country": "US", "state": "NY", "display_address": ["14 E 60th St", "New York, NY 10022"]}, "phone": "+12129370100", "display_phone": "(212) 937-0100", "distance": 599.0893066975264}, {"id": "O9LKN5kk17lQWb7mMuiBzw", "alias": "yasouvlaki-new-york", "name": "yasouvlaki", "image_url": "https://s3-media4.fl.yelpcdn.com/bphoto/w_AcivqkHORUoNl0aD823w/o.jpg", "is_closed": false, "url": "https://www.yelp.com/biz/yasouvlaki-new-york?adjust_creative=9gNmiWYX8uTbFBeTTvJMdA&utm_campaign=yelp_api_v3&utm_medium=api_v3_business_search&utm_source=9gNmiWYX8uTbFBeTTvJMdA", "review_count": 92, "categories": [{"alias": "greek", "title": "Greek"}], "rating": 4.0, "coordinates": {"latitude": 40.7803, "longitude": -73.95312}, "transactions": [], "location": {"address1": "1568 3rd Ave", "address2": "", "address3": null, "city": "New York", "zip_code": "10128", "country": "US", "state": "NY", "display_address": ["1568 3rd Ave", "New York, NY 10128"]}, "phone": "", "display_phone": "", "distance": 2726.3886491810545}, {"id": "xTWpl9DgIkkr5B8h8_xUpA", "alias": "lokal-83-mediterranean-kitchen-new-york-2", "name": "Lokal 83 Mediterranean Kitchen", "image_url": "https://s3-media2.fl.yelpcdn.com/bphoto/Ujk_Zn67jyAFViiZ8RDRdQ/o.jpg", "is_closed": false, "url": "https://www.yelp.com/biz/lokal-83-mediterranean-kitchen-new-york-2?adjust_creative=9gNmiWYX8uTbFBeTTvJMdA&utm_campaign=yelp_api_v3&utm_medium=api_v3_business_search&utm_source=9gNmiWYX8uTbFBeTTvJMdA", "review_count": 447, "categories": [{"alias": "mediterranean", "title": "Mediterranean"}, {"alias": "cocktailbars", "title": "Cocktail Bars"}, {"alias": "greek", "title": "Greek"}], "rating": 4.5, "coordinates": {"latitude": 40.7842696, "longitude": -73.9734941}, "transactions": ["pickup", "delivery"], "price": "$$", "location": {"address1": "473 Columbus Ave", "address2": "83rd street", "address3": null, "city": "New York", "zip_code": "10024", "country": "US", "state": "NY", "display_address": ["473 Columbus Ave", "83rd street", "New York, NY 10024"]}, "phone": "+12125955554", "display_phone": "(212) 595-5554", "distance": 2809.8804511706853}, {"id": "tV6Tgw6FS45BRHyQ207jag", "alias": "omars-mediterranean-east-midtown-new-york", "name": "Omar's Mediterranean East Midtown", "image_url": "https://s3-media1.fl.yelpcdn.com/bphoto/lIP1pobvuQnnA3aqaGtULQ/o.jpg", "is_closed": false, "url": "https://www.yelp.com/biz/omars-mediterranean-east-midtown-new-york?adjust_creative=9gNmiWYX8uTbFBeTTvJMdA&utm_campaign=yelp_api_v3&utm_medium=api_v3_business_search&utm_source=9gNmiWYX8uTbFBeTTvJMdA", "review_count": 664, "categories": [{"alias": "mideastern", "title": "Middle Eastern"}, {"alias": "mediterranean", "title": "Mediterranean"}, {"alias": "salad", "title": "Salad"}], "rating": 4.5, "coordinates": {"latitude": 40.75905, "longitude": -73.969273}, "transactions": ["pickup", "delivery"], "price": "$$", "location": {"address1": "154 E 55th St", "address2": "", "address3": "", "city": "New York", "zip_code": "10022", "country": "US", "state": "NY", "display_address": ["154 E 55th St", "New York, NY 10022"]}, "phone": "+12122078302", "display_phone": "(212) 207-8302", "distance": 28.894600980564878}, {"id": "8BNkZCUfF8h1iCpjk87y5g", "alias": "yefsi-estiatorio-new-york", "name": "Yefsi Estiatorio", "image_url": "https://s3-media2.fl.yelpcdn.com/bphoto/GfToNX7Rj1MQ4Ld5-fBHpA/o.jpg", "is_closed": false, "url": "https://www.yelp.com/biz/yefsi-estiatorio-new-york?adjust_creative=9gNmiWYX8uTbFBeTTvJMdA&utm_campaign=yelp_api_v3&utm_medium=api_v3_business_search&utm_source=9gNmiWYX8uTbFBeTTvJMdA", "review_count": 371, "categories": [{"alias": "greek", "title": "Greek"}, {"alias": "mediterranean", "title": "Mediterranean"}], "rating": 4.0, "coordinates": {"latitude": 40.7710007, "longitude": -73.9509195}, "transactions": ["pickup", "delivery"], "price": "$$$", "location": {"address1": "1481 York Ave", "address2": "", "address3": "", "city": "New York", "zip_code": "10075", "country": "US", "state": "NY", "display_address": ["1481 York Ave", "New York, NY 10075"]}, "phone": "+12125350293", "display_phone": "(212) 535-0293", "distance": 2048.751076311416}, {"id": "JEQ00qBAepe0oSiUBdfIew", "alias": "taverna-kyclades-astoria-2", "name": "Taverna Kyclades", "image_url": "https://s3-media4.fl.yelpcdn.com/bphoto/PNSVT3mKUoUDe-LQF9xKQA/o.jpg", "is_closed": false, "url": "https://www.yelp.com/biz/taverna-kyclades-astoria-2?adjust_creative=9gNmiWYX8uTbFBeTTvJMdA&utm_campaign=yelp_api_v3&utm_medium=api_v3_business_search&utm_source=9gNmiWYX8uTbFBeTTvJMdA", "review_count": 2664, "categories": [{"alias": "seafood", "title": "Seafood"}, {"alias": "greek", "title": "Greek"}, {"alias": "mediterranean", "title": "Mediterranean"}], "rating": 4.0, "coordinates": {"latitude": 40.77444, "longitude": -73.90786}, "transactions": ["pickup", "delivery"], "price": "$$", "location": {"address1": "3601 Ditmars Blvd", "address2": "", "address3": "", "city": "Astoria", "zip_code": "11105", "country": "US", "state": "NY", "display_address": ["3601 Ditmars Blvd", "Astoria, NY 11105"]}, "phone": "+17185458666", "display_phone": "(718) 545-8666", "distance": 5458.460779837856}, {"id": "Cw7AFqulngjtirLYgVJTTQ", "alias": "greek-from-greece-new-york-2", "name": "Greek From Greece", "image_url": "https://s3-media2.fl.yelpcdn.com/bphoto/Rgs4gygwppTg_pL_3qjCGA/o.jpg", "is_closed": false, "url": "https://www.yelp.com/biz/greek-from-greece-new-york-2?adjust_creative=9gNmiWYX8uTbFBeTTvJMdA&utm_campaign=yelp_api_v3&utm_medium=api_v3_business_search&utm_source=9gNmiWYX8uTbFBeTTvJMdA", "review_count": 21, "categories": [{"alias": "greek", "title": "Greek"}, {"alias": "cafes", "title": "Cafes"}, {"alias": "sandwiches", "title": "Sandwiches"}], "rating": 4.5, "coordinates": {"latitude": 40.752031491310916, "longitude": -73.98966817052634}, "transactions": ["pickup", "delivery"], "price": "$$", "location": {"address1": "469 7th Ave", "address2": "", "address3": null, "city": "New York", "zip_code": "10018", "country": "US", "state": "NY", "display_address": ["469 7th Ave", "New York, NY 10018"]}, "phone": "+16468632119", "display_phone": "(646) 863-2119", "distance": 1869.6466913370007}, {"id": "mQX9JxLMlhVxaUMP9ADUHw", "alias": "kellari-new-york-new-york", "name": "Kellari New York", "image_url": "https://s3-media3.fl.yelpcdn.com/bphoto/XdMR7PorQAmxg6mPChtD5w/o.jpg", "is_closed": false, "url": "https://www.yelp.com/biz/kellari-new-york-new-york?adjust_creative=9gNmiWYX8uTbFBeTTvJMdA&utm_campaign=yelp_api_v3&utm_medium=api_v3_business_search&utm_source=9gNmiWYX8uTbFBeTTvJMdA", "review_count": 729, "categories": [{"alias": "greek", "title": "Greek"}, {"alias": "mediterranean", "title": "Mediterranean"}, {"alias": "seafood", "title": "Seafood"}], "rating": 3.5, "coordinates": {"latitude": 40.75538, "longitude": -73.9811}, "transactions": ["pickup", "delivery"], "price": "$$$", "location": {"address1": "19 W 44th St", "address2": null, "address3": "", "city": "New York", "zip_code": "10036", "country": "US", "state": "NY", "display_address": ["19 W 44th St", "New York, NY 10036"]}, "phone": "+12122210144", "display_phone": "(212) 221-0144", "distance": 1090.4703308936946}, {"id": "SClbV7TPTjJo6WYZBpErRg", "alias": "anassa-taverna-astoria-astoria", "name": "Anassa Taverna Astoria", "image_url": "https://s3-media4.fl.yelpcdn.com/bphoto/q0tVNgRUVd6TTPK0E79bUw/o.jpg", "is_closed": false, "url": "https://www.yelp.com/biz/anassa-taverna-astoria-astoria?adjust_creative=9gNmiWYX8uTbFBeTTvJMdA&utm_campaign=yelp_api_v3&utm_medium=api_v3_business_search&utm_source=9gNmiWYX8uTbFBeTTvJMdA", "review_count": 184, "categories": [{"alias": "mediterranean", "title": "Mediterranean"}, {"alias": "greek", "title": "Greek"}, {"alias": "breakfast_brunch", "title": "Breakfast & Brunch"}], "rating": 4.5, "coordinates": {"latitude": 40.7706521468765, "longitude": -73.9207250177398}, "transactions": ["pickup", "delivery"], "price": "$$$", "location": {"address1": "28-10 Astoria Blvd", "address2": "", "address3": null, "city": "Astoria", "zip_code": "11102", "country": "US", "state": "NY", "display_address": ["28-10 Astoria Blvd", "Astoria, NY 11102"]}, "phone": "+17187215050", "display_phone": "(718) 721-5050", "distance": 4307.38946556508}, {"id": "CD_nOkyA6TtL9HgNHr08cQ", "alias": "pita-yeero-new-york", "name": "Pita Yeero", "image_url": "https://s3-media3.fl.yelpcdn.com/bphoto/XZ55NsMWPy0_N7euzKkNIg/o.jpg", "is_closed": false, "url": "https://www.yelp.com/biz/pita-yeero-new-york?adjust_creative=9gNmiWYX8uTbFBeTTvJMdA&utm_campaign=yelp_api_v3&utm_medium=api_v3_business_search&utm_source=9gNmiWYX8uTbFBeTTvJMdA", "review_count": 17, "categories": [{"alias": "greek", "title": "Greek"}, {"alias": "mediterranean", "title": "Mediterranean"}], "rating": 4.5, "coordinates": {"latitude": 40.761694, "longitude": -73.981806}, "transactions": ["pickup", "delivery"], "location": {"address1": "152 W 52nd St", "address2": null, "address3": "", "city": "New York", "zip_code": "10019", "country": "US", "state": "NY", "display_address": ["152 W 52nd St", "New York, NY 10019"]}, "phone": "", "display_phone": "", "distance": 1063.858896113018}, {"id": "62dhOUChlqsVkszPxqwq9Q", "alias": "stamatis-restaurant-astoria", "name": "Stamatis Restaurant", "image_url": "https://s3-media1.fl.yelpcdn.com/bphoto/XxANK-KScsbVvl-Y47r43g/o.jpg", "is_closed": false, "url": "https://www.yelp.com/biz/stamatis-restaurant-astoria?adjust_creative=9gNmiWYX8uTbFBeTTvJMdA&utm_campaign=yelp_api_v3&utm_medium=api_v3_business_search&utm_source=9gNmiWYX8uTbFBeTTvJMdA", "review_count": 473, "categories": [{"alias": "greek", "title": "Greek"}, {"alias": "mediterranean", "title": "Mediterranean"}], "rating": 4.0, "coordinates": {"latitude": 40.7750206, "longitude": -73.9133301}, "transactions": ["delivery"], "price": "$$", "location": {"address1": "2909 23rd Ave", "address2": "", "address3": "", "city": "Astoria", "zip_code": "11105", "country": "US", "state": "NY", "display_address": ["2909 23rd Ave", "Astoria, NY 11105"]}, "phone": "+17189328596", "display_phone": "(718) 932-8596", "distance": 5056.089336699128}, {"id": "ApbLKC5c3xoYn5XOJ85Y3g", "alias": "aliada-astoria", "name": "Aliada", "image_url": "https://s3-media2.fl.yelpcdn.com/bphoto/8-I01aPuQejQ6Lf2V1EF-g/o.jpg", "is_closed": false, "url": "https://www.yelp.com/biz/aliada-astoria?adjust_creative=9gNmiWYX8uTbFBeTTvJMdA&utm_campaign=yelp_api_v3&utm_medium=api_v3_business_search&utm_source=9gNmiWYX8uTbFBeTTvJMdA", "review_count": 445, "categories": [{"alias": "greek", "title": "Greek"}, {"alias": "mediterranean", "title": "Mediterranean"}, {"alias": "seafood", "title": "Seafood"}], "rating": 4.0, "coordinates": {"latitude": 40.76254, "longitude": -73.926199}, "transactions": ["pickup", "delivery"], "price": "$$", "location": {"address1": "2919 Broadway", "address2": "", "address3": "", "city": "Astoria", "zip_code": "11106", "country": "US", "state": "NY", "display_address": ["2919 Broadway", "Astoria, NY 11106"]}, "phone": "+17189322240", "display_phone": "(718) 932-2240", "distance": 3672.308734540184}, {"id": "tM8ZtEix8Bxg82AIKsHXcw", "alias": "zizi-new-york-3", "name": "Zizi", "image_url": "https://s3-media3.fl.yelpcdn.com/bphoto/aWhsm05TeXRgFxkQ0n5SPQ/o.jpg", "is_closed": false, "url": "https://www.yelp.com/biz/zizi-new-york-3?adjust_creative=9gNmiWYX8uTbFBeTTvJMdA&utm_campaign=yelp_api_v3&utm_medium=api_v3_business_search&utm_source=9gNmiWYX8uTbFBeTTvJMdA", "review_count": 173, "categories": [{"alias": "mediterranean", "title": "Mediterranean"}, {"alias": "mideastern", "title": "Middle Eastern"}], "rating": 4.5, "coordinates": {"latitude": 40.74293, "longitude": -74.00002}, "transactions": ["pickup", "delivery"], "location": {"address1": "182 8th Ave", "address2": null, "address3": "", "city": "New York", "zip_code": "10011", "country": "US", "state": "NY", "display_address": ["182 8th Ave", "New York, NY 10011"]}, "phone": "+16466698162", "display_phone": "(646) 669-8162", "distance": 3134.354727651868}, {"id": "sI4N411hfsslUJnTkEfqWw", "alias": "m\u00e9m\u00e9-mediterranean-new-york-12", "name": "M\u00e9m\u00e9 Mediterranean", "image_url": "https://s3-media1.fl.yelpcdn.com/bphoto/bDIhV4rGQT7yzPzAK8tuFg/o.jpg", "is_closed": false, "url": "https://www.yelp.com/biz/m%C3%A9m%C3%A9-mediterranean-new-york-12?adjust_creative=9gNmiWYX8uTbFBeTTvJMdA&utm_campaign=yelp_api_v3&utm_medium=api_v3_business_search&utm_source=9gNmiWYX8uTbFBeTTvJMdA", "review_count": 376, "categories": [{"alias": "mediterranean", "title": "Mediterranean"}, {"alias": "tapasmallplates", "title": "Tapas/Small Plates"}], "rating": 4.0, "coordinates": {"latitude": 40.760929, "longitude": -73.994827}, "transactions": ["pickup", "delivery"], "price": "$$$", "location": {"address1": "607 10th Ave", "address2": null, "address3": "", "city": "New York", "zip_code": "10036", "country": "US", "state": "NY", "display_address": ["607 10th Ave", "New York, NY 10036"]}, "phone": "+19172620827", "display_phone": "(917) 262-0827", "distance": 2134.784065422043}, {"id": "TAANt0fPbfHqVP5LyMBioA", "alias": "kashkaval-garden-new-york", "name": "Kashkaval Garden", "image_url": "https://s3-media2.fl.yelpcdn.com/bphoto/yQD006FGsKIV5Yft0stL6w/o.jpg", "is_closed": false, "url": "https://www.yelp.com/biz/kashkaval-garden-new-york?adjust_creative=9gNmiWYX8uTbFBeTTvJMdA&utm_campaign=yelp_api_v3&utm_medium=api_v3_business_search&utm_source=9gNmiWYX8uTbFBeTTvJMdA", "review_count": 670, "categories": [{"alias": "mediterranean", "title": "Mediterranean"}, {"alias": "fondue", "title": "Fondue"}, {"alias": "tapas", "title": "Tapas Bars"}], "rating": 4.0, "coordinates": {"latitude": 40.76680229936593, "longitude": -73.986219866559}, "transactions": ["delivery", "pickup"], "price": "$$", "location": {"address1": "852 9th Ave", "address2": "", "address3": "", "city": "New York", "zip_code": "10019", "country": "US", "state": "NY", "display_address": ["852 9th Ave", "New York, NY 10019"]}, "phone": "+12122451758", "display_phone": "(212) 245-1758", "distance": 1638.52569188509}, {"id": "_4Grm99JEHnDWskCHAJfUg", "alias": "kikis-new-york", "name": "Kiki's", "image_url": "https://s3-media3.fl.yelpcdn.com/bphoto/kuIPmGUJswjrTwp0HHwOvA/o.jpg", "is_closed": false, "url": "https://www.yelp.com/biz/kikis-new-york?adjust_creative=9gNmiWYX8uTbFBeTTvJMdA&utm_campaign=yelp_api_v3&utm_medium=api_v3_business_search&utm_source=9gNmiWYX8uTbFBeTTvJMdA", "review_count": 788, "categories": [{"alias": "greek", "title": "Greek"}, {"alias": "mediterranean", "title": "Mediterranean"}], "rating": 4.0, "coordinates": {"latitude": 40.7144971858255, "longitude": -73.9918553931336}, "transactions": ["pickup", "delivery"], "price": "$$", "location": {"address1": "130 Division St", "address2": "", "address3": "", "city": "New York", "zip_code": "10002", "country": "US", "state": "NY", "display_address": ["130 Division St", "New York, NY 10002"]}, "phone": "+16468827052", "display_phone": "(646) 882-7052", "distance": 5310.777477500093}, {"id": "S9QZOR4UwfvYPPcHWfmNTw", "alias": "tellys-taverna-astoria", "name": "Telly's Taverna", "image_url": "https://s3-media3.fl.yelpcdn.com/bphoto/1jCnos4LdG_A1NkkWwAoRw/o.jpg", "is_closed": false, "url": "https://www.yelp.com/biz/tellys-taverna-astoria?adjust_creative=9gNmiWYX8uTbFBeTTvJMdA&utm_campaign=yelp_api_v3&utm_medium=api_v3_business_search&utm_source=9gNmiWYX8uTbFBeTTvJMdA", "review_count": 442, "categories": [{"alias": "greek", "title": "Greek"}, {"alias": "mediterranean", "title": "Mediterranean"}, {"alias": "seafood", "title": "Seafood"}], "rating": 4.0, "coordinates": {"latitude": 40.775355401246, "longitude": -73.9140461748688}, "transactions": ["pickup", "delivery"], "price": "$$", "location": {"address1": "28-13 23rd Ave", "address2": "", "address3": "", "city": "Astoria", "zip_code": "11105", "country": "US", "state": "NY", "display_address": ["28-13 23rd Ave", "Astoria, NY 11105"]}, "phone": "+17187289056", "display_phone": "(718) 728-9056", "distance": 5010.4792953181195}, {"id": "1p4dUaLyzIhN5n1lJnHSgA", "alias": "bustan-new-york", "name": "Bustan", "image_url": "https://s3-media1.fl.yelpcdn.com/bphoto/rLYVCPX2WLiHHajzeb0NfA/o.jpg", "is_closed": false, "url": "https://www.yelp.com/biz/bustan-new-york?adjust_creative=9gNmiWYX8uTbFBeTTvJMdA&utm_campaign=yelp_api_v3&utm_medium=api_v3_business_search&utm_source=9gNmiWYX8uTbFBeTTvJMdA", "review_count": 575, "categories": [{"alias": "mediterranean", "title": "Mediterranean"}, {"alias": "mideastern", "title": "Middle Eastern"}], "rating": 4.0, "coordinates": {"latitude": 40.7859082, "longitude": -73.9759551}, "transactions": ["pickup", "delivery"], "price": "$$", "location": {"address1": "487 Amsterdam Ave", "address2": "", "address3": "", "city": "New York", "zip_code": "10024", "country": "US", "state": "NY", "display_address": ["487 Amsterdam Ave", "New York, NY 10024"]}, "phone": "+12125955050", "display_phone": "(212) 595-5050", "distance": 3020.8018816846156}, {"id": "2HZ4UGqSzbb91nWui7VYLg", "alias": "periyali-new-york", "name": "Periyali", "image_url": "https://s3-media1.fl.yelpcdn.com/bphoto/8MncjP_NmL7iQeEC0h8XmQ/o.jpg", "is_closed": false, "url": "https://www.yelp.com/biz/periyali-new-york?adjust_creative=9gNmiWYX8uTbFBeTTvJMdA&utm_campaign=yelp_api_v3&utm_medium=api_v3_business_search&utm_source=9gNmiWYX8uTbFBeTTvJMdA", "review_count": 300, "categories": [{"alias": "greek", "title": "Greek"}], "rating": 4.0, "coordinates": {"latitude": 40.7406298582957, "longitude": -73.9929678154494}, "transactions": ["pickup", "delivery"], "price": "$$$", "location": {"address1": "35 W 20th St", "address2": "", "address3": "", "city": "New York", "zip_code": "10011", "country": "US", "state": "NY", "display_address": ["35 W 20th St", "New York, NY 10011"]}, "phone": "+12124637890", "display_phone": "(212) 463-7890", "distance": 2852.3020135223715}, {"id": "CvG5Y99Auw8KWryzV1e1PA", "alias": "kyma-hudson-yards-new-york", "name": "Kyma Hudson Yards", "image_url": "https://s3-media2.fl.yelpcdn.com/bphoto/LV3KhB0AxJY-uJ5K3FT2lw/o.jpg", "is_closed": false, "url": "https://www.yelp.com/biz/kyma-hudson-yards-new-york?adjust_creative=9gNmiWYX8uTbFBeTTvJMdA&utm_campaign=yelp_api_v3&utm_medium=api_v3_business_search&utm_source=9gNmiWYX8uTbFBeTTvJMdA", "review_count": 92, "categories": [{"alias": "seafood", "title": "Seafood"}, {"alias": "greek", "title": "Greek"}, {"alias": "cocktailbars", "title": "Cocktail Bars"}], "rating": 4.0, "coordinates": {"latitude": 40.75473, "longitude": -73.99739}, "transactions": ["pickup", "delivery"], "location": {"address1": "445 W 35th St", "address2": "", "address3": null, "city": "New York", "zip_code": "10001", "country": "US", "state": "NY", "display_address": ["445 W 35th St", "New York, NY 10001"]}, "phone": "+12129679700", "display_phone": "(212) 967-9700", "distance": 2422.097856562587}, {"id": "v0LGazMDlyPX5ceLYpZyTg", "alias": "akdeniz-mediterranean-cuisine-new-york", "name": "Akdeniz Mediterranean Cuisine", "image_url": "https://s3-media2.fl.yelpcdn.com/bphoto/M_w57ItyXy6E9wWTt8QSog/o.jpg", "is_closed": false, "url": "https://www.yelp.com/biz/akdeniz-mediterranean-cuisine-new-york?adjust_creative=9gNmiWYX8uTbFBeTTvJMdA&utm_campaign=yelp_api_v3&utm_medium=api_v3_business_search&utm_source=9gNmiWYX8uTbFBeTTvJMdA", "review_count": 419, "categories": [{"alias": "turkish", "title": "Turkish"}, {"alias": "mediterranean", "title": "Mediterranean"}, {"alias": "salad", "title": "Salad"}], "rating": 4.0, "coordinates": {"latitude": 40.756948, "longitude": -73.9806443}, "transactions": ["pickup", "delivery"], "price": "$$", "location": {"address1": "43 West 46th Street", "address2": "", "address3": "", "city": "New York", "zip_code": "10036", "country": "US", "state": "NY", "display_address": ["43 West 46th Street", "New York, NY 10036"]}, "phone": "+12125752307", "display_phone": "(212) 575-2307", "distance": 964.7352151244792}, {"id": "BC9DVugTCxNGzLr4ZhGINw", "alias": "elia-mediterranean-restaurant-east-rutherford-3", "name": "Elia Mediterranean Restaurant", "image_url": "https://s3-media4.fl.yelpcdn.com/bphoto/oyo37IOieoeJ-V4DODlWUQ/o.jpg", "is_closed": false, "url": "https://www.yelp.com/biz/elia-mediterranean-restaurant-east-rutherford-3?adjust_creative=9gNmiWYX8uTbFBeTTvJMdA&utm_campaign=yelp_api_v3&utm_medium=api_v3_business_search&utm_source=9gNmiWYX8uTbFBeTTvJMdA", "review_count": 549, "categories": [{"alias": "mediterranean", "title": "Mediterranean"}, {"alias": "seafood", "title": "Seafood"}], "rating": 4.0, "coordinates": {"latitude": 40.8281599, "longitude": -74.09734}, "transactions": ["delivery"], "price": "$$$", "location": {"address1": "240 Hackensack St", "address2": "", "address3": null, "city": "East Rutherford", "zip_code": "07073", "country": "US", "state": "NJ", "display_address": ["240 Hackensack St", "East Rutherford, NJ 07073"]}, "phone": "+12019399292", "display_phone": "(201) 939-9292", "distance": 13206.989248856251}, {"id": "owYYuyLvlsdjLz68c3SSfg", "alias": "taboonette-new-york", "name": "Taboonette", "image_url": "https://s3-media4.fl.yelpcdn.com/bphoto/IVfvJWeBPXNZRno-U0Jm4w/o.jpg", "is_closed": false, "url": "https://www.yelp.com/biz/taboonette-new-york?adjust_creative=9gNmiWYX8uTbFBeTTvJMdA&utm_campaign=yelp_api_v3&utm_medium=api_v3_business_search&utm_source=9gNmiWYX8uTbFBeTTvJMdA", "review_count": 985, "categories": [{"alias": "mediterranean", "title": "Mediterranean"}, {"alias": "mideastern", "title": "Middle Eastern"}, {"alias": "newamerican", "title": "American (New)"}], "rating": 4.5, "coordinates": {"latitude": 40.7346038818359, "longitude": -73.9928283691406}, "transactions": ["pickup", "delivery"], "price": "$$", "location": {"address1": "30 E 13th St", "address2": "", "address3": "", "city": "New York", "zip_code": "10003", "country": "US", "state": "NY", "display_address": ["30 E 13th St", "New York, NY 10003"]}, "phone": "+12125107881", "display_phone": "(212) 510-7881", "distance": 3359.7361607657667}, {"id": "kzd10IXi3dTjoPw0TDj8tA", "alias": "osteria-nando-new-york-3", "name": "Osteria Nando", "image_url": "https://s3-media2.fl.yelpcdn.com/bphoto/n6p55-hYQvaRXZsTFjq7tQ/o.jpg", "is_closed": false, "url": "https://www.yelp.com/biz/osteria-nando-new-york-3?adjust_creative=9gNmiWYX8uTbFBeTTvJMdA&utm_campaign=yelp_api_v3&utm_medium=api_v3_business_search&utm_source=9gNmiWYX8uTbFBeTTvJMdA", "review_count": 156, "categories": [{"alias": "mediterranean", "title": "Mediterranean"}, {"alias": "cocktailbars", "title": "Cocktail Bars"}], "rating": 4.0, "coordinates": {"latitude": 40.775666, "longitude": -73.953649}, "transactions": ["restaurant_reservation", "pickup", "delivery"], "price": "$$", "location": {"address1": "1589 2nd Ave", "address2": "", "address3": null, "city": "New York", "zip_code": "10028", "country": "US", "state": "NY", "display_address": ["1589 2nd Ave", "New York, NY 10028"]}, "phone": "+12127314355", "display_phone": "(212) 731-4355", "distance": 2273.3110568663164}, {"id": "Ey29dYV1gAtalkwPH8k1vg", "alias": "taverna-kyclades-bayside-bayside", "name": "Taverna Kyclades - Bayside", "image_url": "https://s3-media3.fl.yelpcdn.com/bphoto/0IERDIBvaPt_XTprB215jQ/o.jpg", "is_closed": false, "url": "https://www.yelp.com/biz/taverna-kyclades-bayside-bayside?adjust_creative=9gNmiWYX8uTbFBeTTvJMdA&utm_campaign=yelp_api_v3&utm_medium=api_v3_business_search&utm_source=9gNmiWYX8uTbFBeTTvJMdA", "review_count": 470, "categories": [{"alias": "greek", "title": "Greek"}, {"alias": "seafood", "title": "Seafood"}], "rating": 4.0, "coordinates": {"latitude": 40.76446, "longitude": -73.77174}, "transactions": ["pickup", "delivery"], "price": "$$$", "location": {"address1": "39-28 Bell Blvd", "address2": "", "address3": null, "city": "Bayside", "zip_code": "11361", "country": "US", "state": "NY", "display_address": ["39-28 Bell Blvd", "Bayside, NY 11361"]}, "phone": "+17186312000", "display_phone": "(718) 631-2000", "distance": 16670.138680392414}], "total": 701, "region": {"center": {"longitude": -73.96957397460938, "latitude": 40.75917470627005}}}