{"businesses": [{"id": "6gDUVNZo0E9lxO2DkAhHOQ", "alias": "the-greek-new-york-2", "name": "The Greek", "image_url": "https://s3-media1.fl.yelpcdn.com/bphoto/1DyDsaS53q6mvsdDfpoP8w/o.jpg", "is_closed": false, "url": "https://www.yelp.com/biz/the-greek-new-york-2?adjust_creative=9gNmiWYX8uTbFBeTTvJMdA&utm_campaign=yelp_api_v3&utm_medium=api_v3_business_search&utm_source=9gNmiWYX8uTbFBeTTvJMdA", "review_count": 522, "categories": [{"alias": "greek", "title": "Greek"}, {"alias": "mediterranean", "title": "Mediterranean"}, {"alias": "cocktailbars", "title": "Cocktail Bars"}], "rating": 4.5, "coordinates": {"latitude": 40.72403160851802, "longitude": -74.01044800203925}, "transactions": ["delivery", "pickup"], "price": "$$$", "location": {"address1": "452 Washington St", "address2": "", "address3": "", "city": "New York", "zip_code": "10013", "country": "US", "state": "NY", "display_address": ["452 Washington St", "New York, NY 10013"]}, "phone": "+16464763941", "display_phone": "(646) 476-3941", "distance": 5208.493227509697}, {"id": "Ti-957LNURM0Gy2CXIbQOw", "alias": "hummus-kitchen-new-york", "name": "Hummus Kitchen", "image_url": "https://s3-media2.fl.yelpcdn.com/bphoto/dVzsFYX_chJQcJQEELuxwQ/o.jpg", "is_closed": false, "url": "https://www.yelp.com/biz/hummus-kitchen-new-york?adjust_creative=9gNmiWYX8uTbFBeTTvJMdA&utm_campaign=yelp_api_v3&utm_medium=api_v3_business_search&utm_source=9gNmiWYX8uTbFBeTTvJMdA", "review_count": 950, "categories": [{"alias": "mideastern", "title": "Middle Eastern"}, {"alias": "mediterranean", "title": "Mediterranean"}], "rating": 4.0, "coordinates": {"latitude": 40.76427, "longitude": -73.98797}, "transactions": ["delivery", "pickup"], "price": "$$", "location": {"address1": "768 9th Ave", "address2": "", "address3": "", "city": "New York", "zip_code": "10019", "country": "US", "state": "NY", "display_address": ["768 9th Ave", "New York, NY 10019"]}, "phone": "+12123333009", "display_phone": "(212) 333-3009", "distance": 1651.0420455750534}, {"id": "ttn8OS7X986fYIuEEXG09g", "alias": "harta-new-york", "name": "Harta", "image_url": "https://s3-media4.fl.yelpcdn.com/bphoto/Ktk4k0H3uC8zxkVeGPBjqg/o.jpg", "is_closed": false, "url": "https://www.yelp.com/biz/harta-new-york?adjust_creative=9gNmiWYX8uTbFBeTTvJMdA&utm_campaign=yelp_api_v3&utm_medium=api_v3_business_search&utm_source=9gNmiWYX8uTbFBeTTvJMdA", "review_count": 21, "categories": [{"alias": "mediterranean", "title": "Mediterranean"}, {"alias": "tapasmallplates", "title": "Tapas/Small Plates"}, {"alias": "breakfast_brunch", "title": "Breakfast & Brunch"}], "rating": 4.5, "coordinates": {"latitude": 40.75213, "longitude": -73.98383}, "transactions": [], "location": {"address1": "30 W 39th St", "address2": "", "address3": null, "city": "New York", "zip_code": "10018", "country": "US", "state": "NY", "display_address": ["30 W 39th St", "New York, NY 10018"]}, "phone": "+16464436864", "display_phone": "(646) 443-6864", "distance": 1437.424642648416}, {"id": "dy_xfi_3asaGjcVpndh1SA", "alias": "iris-restaurant-new-york", "name": "IRIS Restaurant", "image_url": "https://s3-media2.fl.yelpcdn.com/bphoto/u_meLJ19AOQ1HjsBHrRg7Q/o.jpg", "is_closed": false, "url": "https://www.yelp.com/biz/iris-restaurant-new-york?adjust_creative=9gNmiWYX8uTbFBeTTvJMdA&utm_campaign=yelp_api_v3&utm_medium=api_v3_business_search&utm_source=9gNmiWYX8uTbFBeTTvJMdA", "review_count": 73, "categories": [{"alias": "mediterranean", "title": "Mediterranean"}, {"alias": "turkish", "title": "Turkish"}, {"alias": "greek", "title": "Greek"}], "rating": 4.0, "coordinates": {"latitude": 40.764981, "longitude": -73.981702}, "transactions": [], "location": {"address1": "1740 Broadway", "address2": null, "address3": "", "city": "New York", "zip_code": "10019", "country": "US", "state": "NY", "display_address": ["1740 Broadway", "New York, NY 10019"]}, "phone": "+12129701740", "display_phone": "(212) 970-1740", "distance": 1201.8602582309798}, {"id": "kgJwblaytYITxd9KhtqzKA", "alias": "merakia-new-york-2", "name": "Merakia", "image_url": "https://s3-media2.fl.yelpcdn.com/bphoto/gPYHPv-NYun_jxTAcVdxFQ/o.jpg", "is_closed": false, "url": "https://www.yelp.com/biz/merakia-new-york-2?adjust_creative=9gNmiWYX8uTbFBeTTvJMdA&utm_campaign=yelp_api_v3&utm_medium=api_v3_business_search&utm_source=9gNmiWYX8uTbFBeTTvJMdA", "review_count": 168, "categories": [{"alias": "greek", "title": "Greek"}, {"alias": "steak", "title": "Steakhouses"}, {"alias": "mediterranean", "title": "Mediterranean"}], "rating": 4.0, "coordinates": {"latitude": 40.74073, "longitude": -73.99104}, "transactions": ["delivery"], "price": "$$$", "location": {"address1": "5 W 21st St", "address2": null, "address3": "", "city": "New York", "zip_code": "10010", "country": "US", "state": "NY", "display_address": ["5 W 21st St", "New York, NY 10010"]}, "phone": "+12123801950", "display_phone": "(212) 380-1950", "distance": 2737.474814112138}, {"id": "cxvndpb_DjtZaeBj6Ed81A", "alias": "ammos-estiatorio-new-york-4", "name": "Ammos Estiatorio", "image_url": "https://s3-media3.fl.yelpcdn.com/bphoto/0CZZLTWhudqSadxuyB22sw/o.jpg", "is_closed": false, "url": "https://www.yelp.com/biz/ammos-estiatorio-new-york-4?adjust_creative=9gNmiWYX8uTbFBeTTvJMdA&utm_campaign=yelp_api_v3&utm_medium=api_v3_business_search&utm_source=9gNmiWYX8uTbFBeTTvJMdA", "review_count": 310, "categories": [{"alias": "greek", "title": "Greek"}, {"alias": "seafood", "title": "Seafood"}], "rating": 3.0, "coordinates": {"latitude": 40.75426, "longitude": -73.97733}, "transactions": ["delivery", "pickup"], "price": "$$$", "location": {"address1": "52 Vanderbilt Ave", "address2": "", "address3": "", "city": "New York", "zip_code": "10017", "country": "US", "state": "NY", "display_address": ["52 Vanderbilt Ave", "New York, NY 10017"]}, "phone": "+12129229999", "display_phone": "(212) 922-9999", "distance": 848.1009904363914}, {"id": "x7Q721PDf7s1iYYP7diaVw", "alias": "karvouna-mezze-new-york-2", "name": "Karvouna Mezze", "image_url": "https://s3-media1.fl.yelpcdn.com/bphoto/AKRiKdqUigAA9SYr6WUgBw/o.jpg", "is_closed": false, "url": "https://www.yelp.com/biz/karvouna-mezze-new-york-2?adjust_creative=9gNmiWYX8uTbFBeTTvJMdA&utm_campaign=yelp_api_v3&utm_medium=api_v3_business_search&utm_source=9gNmiWYX8uTbFBeTTvJMdA", "review_count": 97, "categories": [{"alias": "greek", "title": "Greek"}, {"alias": "cafeteria", "title": "Cafeteria"}], "rating": 4.5, "coordinates": {"latitude": 40.72252, "longitude": -73.99296}, "transactions": ["delivery", "pickup"], "location": {"address1": "241 Bowery", "address2": null, "address3": "", "city": "New York", "zip_code": "10002", "country": "US", "state": "NY", "display_address": ["241 Bowery", "New York, NY 10002"]}, "phone": "+12123880052", "display_phone": "(212) 388-0052", "distance": 4524.721379317636}, {"id": "ZXiT7FuFAkmjg4pXYxb06A", "alias": "village-taverna-new-york", "name": "Village Taverna", "image_url": "https://s3-media2.fl.yelpcdn.com/bphoto/UgvNnC3DAd0TXiibbrqx4g/o.jpg", "is_closed": false, "url": "https://www.yelp.com/biz/village-taverna-new-york?adjust_creative=9gNmiWYX8uTbFBeTTvJMdA&utm_campaign=yelp_api_v3&utm_medium=api_v3_business_search&utm_source=9gNmiWYX8uTbFBeTTvJMdA", "review_count": 365, "categories": [{"alias": "greek", "title": "Greek"}, {"alias": "mediterranean", "title": "Mediterranean"}], "rating": 3.5, "coordinates": {"latitude": 40.73339, "longitude": -73.99306}, "transactions": ["delivery", "pickup"], "price": "$$", "location": {"address1": "81 University Pl", "address2": "", "address3": "", "city": "New York", "zip_code": "10003", "country": "US", "state": "NY", "display_address": ["81 University Pl", "New York, NY 10003"]}, "phone": "+12129823457", "display_phone": "(212) 982-3457", "distance": 3492.291573011033}, {"id": "XDL8GWy3uCB8bdpMiRLRJw", "alias": "agnanti-astoria", "name": "Agnanti", "image_url": "https://s3-media1.fl.yelpcdn.com/bphoto/3Fh7ofEEbYx0sS_7wON-3g/o.jpg", "is_closed": false, "url": "https://www.yelp.com/biz/agnanti-astoria?adjust_creative=9gNmiWYX8uTbFBeTTvJMdA&utm_campaign=yelp_api_v3&utm_medium=api_v3_business_search&utm_source=9gNmiWYX8uTbFBeTTvJMdA", "review_count": 554, "categories": [{"alias": "greek", "title": "Greek"}, {"alias": "mediterranean", "title": "Mediterranean"}], "rating": 3.5, "coordinates": {"latitude": 40.7809792, "longitude": -73.9179077}, "transactions": ["delivery", "pickup"], "price": "$$", "location": {"address1": "19-06 Ditmars Blvd", "address2": "", "address3": "", "city": "Astoria", "zip_code": "11105", "country": "US", "state": "NY", "display_address": ["19-06 Ditmars Blvd", "Astoria, NY 11105"]}, "phone": "+17185454554", "display_phone": "(718) 545-4554", "distance": 4981.968676791772}, {"id": "N2nwanXq9dDvKLIy7Ovb7g", "alias": "bahari-estiatorio-astoria", "name": "Bahari Estiatorio", "image_url": "https://s3-media2.fl.yelpcdn.com/bphoto/aqBE8-EtSzyZGwe6-gWv2Q/o.jpg", "is_closed": false, "url": "https://www.yelp.com/biz/bahari-estiatorio-astoria?adjust_creative=9gNmiWYX8uTbFBeTTvJMdA&utm_campaign=yelp_api_v3&utm_medium=api_v3_business_search&utm_source=9gNmiWYX8uTbFBeTTvJMdA", "review_count": 628, "categories": [{"alias": "greek", "title": "Greek"}], "rating": 4.0, "coordinates": {"latitude": 40.76152, "longitude": -73.925}, "transactions": ["delivery", "pickup"], "price": "$$", "location": {"address1": "3114 Broadway", "address2": "", "address3": "", "city": "Astoria", "zip_code": "11106", "country": "US", "state": "NY", "display_address": ["3114 Broadway", "Astoria, NY 11106"]}, "phone": "+17182048968", "display_phone": "(718) 204-8968", "distance": 3771.4321551449125}, {"id": "jCRblp7F5IbUSySK_Y7Qiw", "alias": "eons-greek-food-for-life-new-york", "name": "EONS Greek Food for Life", "image_url": "https://s3-media2.fl.yelpcdn.com/bphoto/aB0DOvTN8aHEYO7S_-Qu5Q/o.jpg", "is_closed": false, "url": "https://www.yelp.com/biz/eons-greek-food-for-life-new-york?adjust_creative=9gNmiWYX8uTbFBeTTvJMdA&utm_campaign=yelp_api_v3&utm_medium=api_v3_business_search&utm_source=9gNmiWYX8uTbFBeTTvJMdA", "review_count": 360, "categories": [{"alias": "greek", "title": "Greek"}, {"alias": "mediterranean", "title": "Mediterranean"}, {"alias": "salad", "title": "Salad"}], "rating": 4.0, "coordinates": {"latitude": 40.74528, "longitude": -73.97588}, "transactions": ["delivery", "pickup"], "price": "$$", "location": {"address1": "633 2nd Ave", "address2": "", "address3": "", "city": "New York", "zip_code": "10016", "country": "US", "state": "NY", "display_address": ["633 2nd Ave", "New York, NY 10016"]}, "phone": "+12126961234", "display_phone": "(212) 696-1234", "distance": 1634.9444007026148}, {"id": "PHSsvGDW6Rh2pGWEDTrDew", "alias": "death-ave-new-york-5", "name": "Death Ave", "image_url": "https://s3-media3.fl.yelpcdn.com/bphoto/_qybQRGk9_NxNGf164VKnA/o.jpg", "is_closed": false, "url": "https://www.yelp.com/biz/death-ave-new-york-5?adjust_creative=9gNmiWYX8uTbFBeTTvJMdA&utm_campaign=yelp_api_v3&utm_medium=api_v3_business_search&utm_source=9gNmiWYX8uTbFBeTTvJMdA", "review_count": 652, "categories": [{"alias": "greek", "title": "Greek"}, {"alias": "newamerican", "title": "American (New)"}, {"alias": "gastropubs", "title": "Gastropubs"}], "rating": 4.0, "coordinates": {"latitude": 40.75105092190377, "longitude": -74.00194808204913}, "transactions": ["delivery", "pickup"], "price": "$$", "location": {"address1": "315 10th Ave", "address2": "", "address3": "", "city": "New York", "zip_code": "10001", "country": "US", "state": "NY", "display_address": ["315 10th Ave", "New York, NY 10001"]}, "phone": "+12126958080", "display_phone": "(212) 695-8080", "distance": 2872.622637349229}, {"id": "nHLchRWrxxv5MWD8IHpYzg", "alias": "meze-mazi-new-york", "name": "Meze Mazi", "image_url": "https://s3-media2.fl.yelpcdn.com/bphoto/T9T0aTMmnI7OdWdEucKWzg/o.jpg", "is_closed": false, "url": "https://www.yelp.com/biz/meze-mazi-new-york?adjust_creative=9gNmiWYX8uTbFBeTTvJMdA&utm_campaign=yelp_api_v3&utm_medium=api_v3_business_search&utm_source=9gNmiWYX8uTbFBeTTvJMdA", "review_count": 22, "categories": [{"alias": "greek", "title": "Greek"}], "rating": 4.0, "coordinates": {"latitude": 40.74366, "longitude": -73.97941}, "transactions": ["delivery", "pickup"], "location": {"address1": "449 3rd Ave", "address2": null, "address3": "", "city": "New York", "zip_code": "10016", "country": "US", "state": "NY", "display_address": ["449 3rd Ave", "New York, NY 10016"]}, "phone": "+12122521972", "display_phone": "(212) 252-1972", "distance": 1914.5153628239104}, {"id": "BEYmqrP1_TC0nhnTGKkkJg", "alias": "ella-social-new-york", "name": "Ella Social", "image_url": "https://s3-media1.fl.yelpcdn.com/bphoto/j4EHz7ykVE51-PUBYtXM4w/o.jpg", "is_closed": false, "url": "https://www.yelp.com/biz/ella-social-new-york?adjust_creative=9gNmiWYX8uTbFBeTTvJMdA&utm_campaign=yelp_api_v3&utm_medium=api_v3_business_search&utm_source=9gNmiWYX8uTbFBeTTvJMdA", "review_count": 657, "categories": [{"alias": "tapasmallplates", "title": "Tapas/Small Plates"}, {"alias": "mediterranean", "title": "Mediterranean"}, {"alias": "bars", "title": "Bars"}], "rating": 4.0, "coordinates": {"latitude": 40.7769826, "longitude": -73.9788067}, "transactions": ["delivery", "pickup"], "price": "$$", "location": {"address1": "249 Columbus Ave", "address2": null, "address3": "", "city": "New York", "zip_code": "10023", "country": "US", "state": "NY", "display_address": ["249 Columbus Ave", "New York, NY 10023"]}, "phone": "+12125799929", "display_phone": "(212) 579-9929", "distance": 2127.3282233917716}, {"id": "mVsCn9tm3B-XeUeqRYBbxA", "alias": "pita-yeero-new-york-2", "name": "Pita Yeero", "image_url": "https://s3-media4.fl.yelpcdn.com/bphoto/lPXDzsTMuCtlrSNzGGYEGw/o.jpg", "is_closed": false, "url": "https://www.yelp.com/biz/pita-yeero-new-york-2?adjust_creative=9gNmiWYX8uTbFBeTTvJMdA&utm_campaign=yelp_api_v3&utm_medium=api_v3_business_search&utm_source=9gNmiWYX8uTbFBeTTvJMdA", "review_count": 15, "categories": [{"alias": "greek", "title": "Greek"}, {"alias": "mediterranean", "title": "Mediterranean"}], "rating": 4.5, "coordinates": {"latitude": 40.756995, "longitude": -73.972461}, "transactions": ["delivery", "pickup"], "location": {"address1": "570 Lexington Ave", "address2": null, "address3": "", "city": "New York", "zip_code": "10022", "country": "US", "state": "NY", "display_address": ["570 Lexington Ave", "New York, NY 10022"]}, "phone": "+19176362980", "display_phone": "(917) 636-2980", "distance": 340.13739391949963}, {"id": "6CSyG4P-5vicgPIzfXHK7Q", "alias": "gregorys-26-corner-taverna-astoria", "name": "Gregory's 26 Corner Taverna", "image_url": "https://s3-media4.fl.yelpcdn.com/bphoto/X3mxO8T2QqlFKDjMzeXdFQ/o.jpg", "is_closed": false, "url": "https://www.yelp.com/biz/gregorys-26-corner-taverna-astoria?adjust_creative=9gNmiWYX8uTbFBeTTvJMdA&utm_campaign=yelp_api_v3&utm_medium=api_v3_business_search&utm_source=9gNmiWYX8uTbFBeTTvJMdA", "review_count": 235, "categories": [{"alias": "greek", "title": "Greek"}, {"alias": "mediterranean", "title": "Mediterranean"}], "rating": 4.0, "coordinates": {"latitude": 40.776263, "longitude": -73.916025}, "transactions": ["delivery", "pickup"], "price": "$$", "location": {"address1": "2602 23rd Ave", "address2": "", "address3": "", "city": "Astoria", "zip_code": "11105", "country": "US", "state": "NY", "display_address": ["2602 23rd Ave", "Astoria, NY 11105"]}, "phone": "+17187775511", "display_phone": "(718) 777-5511", "distance": 4904.854263005255}, {"id": "5mJgmAgKpTbCDdpVs7OFxQ", "alias": "teds-corner-tavern-new-york", "name": "Ted's Corner Tavern", "image_url": "https://s3-media3.fl.yelpcdn.com/bphoto/v2ZSqcg5GFCysU9uI0Qfxw/o.jpg", "is_closed": false, "url": "https://www.yelp.com/biz/teds-corner-tavern-new-york?adjust_creative=9gNmiWYX8uTbFBeTTvJMdA&utm_campaign=yelp_api_v3&utm_medium=api_v3_business_search&utm_source=9gNmiWYX8uTbFBeTTvJMdA", "review_count": 232, "categories": [{"alias": "cocktailbars", "title": "Cocktail Bars"}, {"alias": "mediterranean", "title": "Mediterranean"}, {"alias": "beer_and_wine", "title": "Beer, Wine & Spirits"}], "rating": 4.5, "coordinates": {"latitude": 40.7462, "longitude": -73.9774599}, "transactions": ["delivery", "pickup"], "price": "$$", "location": {"address1": "523 3rd Ave", "address2": "", "address3": "", "city": "New York", "zip_code": "10016", "country": "US", "state": "NY", "display_address": ["523 3rd Ave", "New York, NY 10016"]}, "phone": "+12126892676", "display_phone": "(212) 689-2676", "distance": 1588.6558732835892}, {"id": "6eVNHrnp67ZniJYLik1qig", "alias": "yara-new-york-2", "name": "Yara", "image_url": "https://s3-media1.fl.yelpcdn.com/bphoto/g9dPOB4dlcPCEbGz22E8SA/o.jpg", "is_closed": false, "url": "https://www.yelp.com/biz/yara-new-york-2?adjust_creative=9gNmiWYX8uTbFBeTTvJMdA&utm_campaign=yelp_api_v3&utm_medium=api_v3_business_search&utm_source=9gNmiWYX8uTbFBeTTvJMdA", "review_count": 235, "categories": [{"alias": "lebanese", "title": "Lebanese"}, {"alias": "mediterranean", "title": "Mediterranean"}], "rating": 4.0, "coordinates": {"latitude": 40.75646, "longitude": -73.9662}, "transactions": ["restaurant_reservation", "delivery", "pickup"], "location": {"address1": "319 E 53rd St", "address2": "", "address3": null, "city": "New York", "zip_code": "10022", "country": "US", "state": "NY", "display_address": ["319 E 53rd St", "New York, NY 10022"]}, "phone": "+16464767592", "display_phone": "(646) 476-7592", "distance": 408.44050814022245}, {"id": "KQ3b0rxCBnwKF0AHWjcJpg", "alias": "amylos-taverna-astoria", "name": "Amylos Taverna", "image_url": "https://s3-media2.fl.yelpcdn.com/bphoto/JhaRhaTbTdQypo8F0aNGPQ/o.jpg", "is_closed": false, "url": "https://www.yelp.com/biz/amylos-taverna-astoria?adjust_creative=9gNmiWYX8uTbFBeTTvJMdA&utm_campaign=yelp_api_v3&utm_medium=api_v3_business_search&utm_source=9gNmiWYX8uTbFBeTTvJMdA", "review_count": 376, "categories": [{"alias": "seafood", "title": "Seafood"}, {"alias": "greek", "title": "Greek"}, {"alias": "breakfast_brunch", "title": "Breakfast & Brunch"}], "rating": 4.0, "coordinates": {"latitude": 40.761003859362, "longitude": -73.9229999999999}, "transactions": ["delivery", "pickup"], "price": "$$", "location": {"address1": "33-19 Broadway", "address2": "", "address3": null, "city": "Astoria", "zip_code": "11106", "country": "US", "state": "NY", "display_address": ["33-19 Broadway", "Astoria, NY 11106"]}, "phone": "+17182150228", "display_phone": "(718) 215-0228", "distance": 3927.939450749936}, {"id": "kKSZT7BJ5VH6hCaGlJ52tg", "alias": "ovelia-astoria", "name": "Ovelia", "image_url": "https://s3-media1.fl.yelpcdn.com/bphoto/Oj3xe77Hr2ca3YE900moQQ/o.jpg", "is_closed": false, "url": "https://www.yelp.com/biz/ovelia-astoria?adjust_creative=9gNmiWYX8uTbFBeTTvJMdA&utm_campaign=yelp_api_v3&utm_medium=api_v3_business_search&utm_source=9gNmiWYX8uTbFBeTTvJMdA", "review_count": 837, "categories": [{"alias": "greek", "title": "Greek"}, {"alias": "mediterranean", "title": "Mediterranean"}], "rating": 4.0, "coordinates": {"latitude": 40.765901, "longitude": -73.918718}, "transactions": ["delivery", "pickup"], "price": "$$", "location": {"address1": "3401 30th Ave", "address2": "", "address3": "", "city": "Astoria", "zip_code": "11103", "country": "US", "state": "NY", "display_address": ["3401 30th Ave", "Astoria, NY 11103"]}, "phone": "+17187217217", "display_phone": "(718) 721-7217", "distance": 4351.164234005159}, {"id": "-r9RZMvgH7GPDOOek89Jzw", "alias": "lola-taverna-new-york", "name": "Lola Taverna", "image_url": "https://s3-media3.fl.yelpcdn.com/bphoto/HGA6FG34jh7jkVOM6FgZkg/o.jpg", "is_closed": false, "url": "https://www.yelp.com/biz/lola-taverna-new-york?adjust_creative=9gNmiWYX8uTbFBeTTvJMdA&utm_campaign=yelp_api_v3&utm_medium=api_v3_business_search&utm_source=9gNmiWYX8uTbFBeTTvJMdA", "review_count": 238, "categories": [{"alias": "greek", "title": "Greek"}, {"alias": "cocktailbars", "title": "Cocktail Bars"}], "rating": 3.5, "coordinates": {"latitude": 40.7270494, "longitude": -74.0031992}, "transactions": ["delivery"], "price": "$$$", "location": {"address1": "210 6th Ave", "address2": null, "address3": "", "city": "New York", "zip_code": "10014", "country": "US", "state": "NY", "display_address": ["210 6th Ave", "New York, NY 10014"]}, "phone": "+12129949821", "display_phone": "(212) 994-9821", "distance": 4559.066050678371}, {"id": "7gZGVdqMch7ls0IGO3DijQ", "alias": "agora-turkish-restaurant-new-york-2", "name": "Agora Turkish Restaurant", "image_url": "https://s3-media2.fl.yelpcdn.com/bphoto/dAX2R10qvKlJpyPpRH8pTg/o.jpg", "is_closed": false, "url": "https://www.yelp.com/biz/agora-turkish-restaurant-new-york-2?adjust_creative=9gNmiWYX8uTbFBeTTvJMdA&utm_campaign=yelp_api_v3&utm_medium=api_v3_business_search&utm_source=9gNmiWYX8uTbFBeTTvJMdA", "review_count": 675, "categories": [{"alias": "turkish", "title": "Turkish"}, {"alias": "mediterranean", "title": "Mediterranean"}, {"alias": "halal", "title": "Halal"}], "rating": 4.5, "coordinates": {"latitude": 40.77492, "longitude": -73.95412}, "transactions": ["restaurant_reservation", "delivery", "pickup"], "price": "$$", "location": {"address1": "1565 2nd Ave", "address2": null, "address3": null, "city": "New York", "zip_code": "10028", "country": "US", "state": "NY", "display_address": ["1565 2nd Ave", "New York, NY 10028"]}, "phone": "+12127171220", "display_phone": "(212) 717-1220", "distance": 2181.985681673816}, {"id": "B55Ocx5RBWxo6AGSucYSIA", "alias": "ilili-new-york-2", "name": "Ilili", "image_url": "https://s3-media1.fl.yelpcdn.com/bphoto/12SRRUlmATOHUfQdeTzgFQ/o.jpg", "is_closed": false, "url": "https://www.yelp.com/biz/ilili-new-york-2?adjust_creative=9gNmiWYX8uTbFBeTTvJMdA&utm_campaign=yelp_api_v3&utm_medium=api_v3_business_search&utm_source=9gNmiWYX8uTbFBeTTvJMdA", "review_count": 2668, "categories": [{"alias": "mediterranean", "title": "Mediterranean"}, {"alias": "lebanese", "title": "Lebanese"}, {"alias": "cocktailbars", "title": "Cocktail Bars"}], "rating": 4.0, "coordinates": {"latitude": 40.74435, "longitude": -73.98778}, "transactions": ["delivery", "pickup"], "price": "$$$", "location": {"address1": "236 5th Ave", "address2": "", "address3": "", "city": "New York", "zip_code": "10001", "country": "US", "state": "NY", "display_address": ["236 5th Ave", "New York, NY 10001"]}, "phone": "+12126832929", "display_phone": "(212) 683-2929", "distance": 2254.6277102004765}, {"id": "mdhwe9pw_OD9DGPLZUmzKQ", "alias": "greek-eats-new-york", "name": "Greek Eats", "image_url": "https://s3-media3.fl.yelpcdn.com/bphoto/cGEacVWz0MbkK0vBKZKu4Q/o.jpg", "is_closed": false, "url": "https://www.yelp.com/biz/greek-eats-new-york?adjust_creative=9gNmiWYX8uTbFBeTTvJMdA&utm_campaign=yelp_api_v3&utm_medium=api_v3_business_search&utm_source=9gNmiWYX8uTbFBeTTvJMdA", "review_count": 466, "categories": [{"alias": "greek", "title": "Greek"}], "rating": 4.0, "coordinates": {"latitude": 40.7644212205497, "longitude": -73.9587869}, "transactions": ["delivery", "pickup"], "price": "$$", "location": {"address1": "1229 1st Ave", "address2": null, "address3": null, "city": "New York", "zip_code": "10065", "country": "US", "state": "NY", "display_address": ["1229 1st Ave", "New York, NY 10065"]}, "phone": "+12128614976", "display_phone": "(212) 861-4976", "distance": 1079.6913895590035}, {"id": "GktRnSCBAsboHj9Hh-U66g", "alias": "greca-new-york-5", "name": "GRECA", "image_url": "https://s3-media1.fl.yelpcdn.com/bphoto/vh8-2FunItoWp9F_Sk_jnw/o.jpg", "is_closed": false, "url": "https://www.yelp.com/biz/greca-new-york-5?adjust_creative=9gNmiWYX8uTbFBeTTvJMdA&utm_campaign=yelp_api_v3&utm_medium=api_v3_business_search&utm_source=9gNmiWYX8uTbFBeTTvJMdA", "review_count": 72, "categories": [{"alias": "coffee", "title": "Coffee & Tea"}, {"alias": "lounges", "title": "Lounges"}, {"alias": "greek", "title": "Greek"}], "rating": 4.0, "coordinates": {"latitude": 40.7239479, "longitude": -74.010406}, "transactions": ["delivery", "pickup"], "price": "$$", "location": {"address1": "452 Washington St", "address2": "", "address3": null, "city": "New York", "zip_code": "10013", "country": "US", "state": "NY", "display_address": ["452 Washington St", "New York, NY 10013"]}, "phone": "+19172614795", "display_phone": "(917) 261-4795", "distance": 5209.678809218099}, {"id": "Ey45ZiAN1TSVmvfM6DVZqA", "alias": "persepolis-new-york", "name": "Persepolis", "image_url": "https://s3-media4.fl.yelpcdn.com/bphoto/x1MI0QnfesftqWX-B-wAHA/o.jpg", "is_closed": false, "url": "https://www.yelp.com/biz/persepolis-new-york?adjust_creative=9gNmiWYX8uTbFBeTTvJMdA&utm_campaign=yelp_api_v3&utm_medium=api_v3_business_search&utm_source=9gNmiWYX8uTbFBeTTvJMdA", "review_count": 513, "categories": [{"alias": "mideastern", "title": "Middle Eastern"}, {"alias": "persian", "title": "Persian/Iranian"}, {"alias": "salad", "title": "Salad"}], "rating": 4.0, "coordinates": {"latitude": 40.76984, "longitude": -73.958015}, "transactions": ["delivery", "pickup"], "price": "$$", "location": {"address1": "1407 2nd Ave", "address2": "", "address3": "", "city": "New York", "zip_code": "10021", "country": "US", "state": "NY", "display_address": ["1407 2nd Ave", "New York, NY 10021"]}, "phone": "+12125351100", "display_phone": "(212) 535-1100", "distance": 1534.8808412043861}, {"id": "enT7NJ7tLMvUMCWQcsUonw", "alias": "m\u00e9m\u00e9-mediterranean-new-york-4", "name": "M\u00e9m\u00e9 Mediterranean", "image_url": "https://s3-media1.fl.yelpcdn.com/bphoto/fRTQqcUSbotg9nIRyhwdgw/o.jpg", "is_closed": false, "url": "https://www.yelp.com/biz/m%C3%A9m%C3%A9-mediterranean-new-york-4?adjust_creative=9gNmiWYX8uTbFBeTTvJMdA&utm_campaign=yelp_api_v3&utm_medium=api_v3_business_search&utm_source=9gNmiWYX8uTbFBeTTvJMdA", "review_count": 679, "categories": [{"alias": "mediterranean", "title": "Mediterranean"}, {"alias": "salad", "title": "Salad"}, {"alias": "seafood", "title": "Seafood"}], "rating": 4.0, "coordinates": {"latitude": 40.736412, "longitude": -74.00616}, "transactions": ["delivery", "pickup"], "price": "$$", "location": {"address1": "581 Hudson St", "address2": "", "address3": "", "city": "New York", "zip_code": "10014", "country": "US", "state": "NY", "display_address": ["581 Hudson St", "New York, NY 10014"]}, "phone": "+16466928450", "display_phone": "(646) 692-8450", "distance": 3988.1354640496597}, {"id": "228DO__YwYmliMx6Q5jTtw", "alias": "turco-mediterranean-grill-new-york", "name": "Turco Mediterranean Grill", "image_url": "https://s3-media3.fl.yelpcdn.com/bphoto/hwFgbCvmmyJLt2XZmNtwiw/o.jpg", "is_closed": false, "url": "https://www.yelp.com/biz/turco-mediterranean-grill-new-york?adjust_creative=9gNmiWYX8uTbFBeTTvJMdA&utm_campaign=yelp_api_v3&utm_medium=api_v3_business_search&utm_source=9gNmiWYX8uTbFBeTTvJMdA", "review_count": 615, "categories": [{"alias": "mediterranean", "title": "Mediterranean"}, {"alias": "turkish", "title": "Turkish"}, {"alias": "sandwiches", "title": "Sandwiches"}], "rating": 4.0, "coordinates": {"latitude": 40.75913, "longitude": -73.9918}, "transactions": ["delivery", "pickup"], "price": "$$", "location": {"address1": "604 9th Ave", "address2": "", "address3": "", "city": "New York", "zip_code": "10036", "country": "US", "state": "NY", "display_address": ["604 9th Ave", "New York, NY 10036"]}, "phone": "+12125108666", "display_phone": "(212) 510-8666", "distance": 1868.4597237216997}, {"id": "nksLmvyhPeMDeaA2BPaC4A", "alias": "avra-rockefeller-center-new-york", "name": "Avra Rockefeller Center", "image_url": "https://s3-media4.fl.yelpcdn.com/bphoto/uKjPod4E9b6jt5tYPu9mEA/o.jpg", "is_closed": false, "url": "https://www.yelp.com/biz/avra-rockefeller-center-new-york?adjust_creative=9gNmiWYX8uTbFBeTTvJMdA&utm_campaign=yelp_api_v3&utm_medium=api_v3_business_search&utm_source=9gNmiWYX8uTbFBeTTvJMdA", "review_count": 78, "categories": [{"alias": "greek", "title": "Greek"}, {"alias": "mediterranean", "title": "Mediterranean"}, {"alias": "desserts", "title": "Desserts"}], "rating": 4.0, "coordinates": {"latitude": 40.76054, "longitude": -73.98099}, "transactions": [], "location": {"address1": "1271 6th Ave", "address2": null, "address3": "", "city": "New York", "zip_code": "10020", "country": "US", "state": "NY", "display_address": ["1271 6th Ave", "New York, NY 10020"]}, "phone": "+12124308888", "display_phone": "(212) 430-8888", "distance": 944.6764486269199}, {"id": "goKn7tKTIqpNPM_jR2yRCg", "alias": "leyla-new-york-4", "name": "Leyla", "image_url": "https://s3-media2.fl.yelpcdn.com/bphoto/cizqg3vkSpx7fzes4d80vA/o.jpg", "is_closed": false, "url": "https://www.yelp.com/biz/leyla-new-york-4?adjust_creative=9gNmiWYX8uTbFBeTTvJMdA&utm_campaign=yelp_api_v3&utm_medium=api_v3_business_search&utm_source=9gNmiWYX8uTbFBeTTvJMdA", "review_count": 218, "categories": [{"alias": "turkish", "title": "Turkish"}, {"alias": "mediterranean", "title": "Mediterranean"}, {"alias": "breakfast_brunch", "title": "Breakfast & Brunch"}], "rating": 4.0, "coordinates": {"latitude": 40.77882, "longitude": -73.97834}, "transactions": ["delivery", "pickup"], "location": {"address1": "108 W 74th St", "address2": null, "address3": null, "city": "New York", "zip_code": "10023", "country": "US", "state": "NY", "display_address": ["108 W 74th St", "New York, NY 10023"]}, "phone": "+13473347939", "display_phone": "(347) 334-7939", "distance": 2300.410222086675}, {"id": "K0UNoqk1PczdaiZfoMRbEA", "alias": "greek-express-bronx", "name": "Greek Express", "image_url": "https://s3-media2.fl.yelpcdn.com/bphoto/VGHBPr65VbTtLIkd7Q2yDQ/o.jpg", "is_closed": false, "url": "https://www.yelp.com/biz/greek-express-bronx?adjust_creative=9gNmiWYX8uTbFBeTTvJMdA&utm_campaign=yelp_api_v3&utm_medium=api_v3_business_search&utm_source=9gNmiWYX8uTbFBeTTvJMdA", "review_count": 248, "categories": [{"alias": "greek", "title": "Greek"}], "rating": 4.0, "coordinates": {"latitude": 40.887465130647726, "longitude": -73.90755915766862}, "transactions": ["delivery"], "price": "$$", "location": {"address1": "3733 Riverdale Ave", "address2": "", "address3": "", "city": "Bronx", "zip_code": "10463", "country": "US", "state": "NY", "display_address": ["3733 Riverdale Ave", "Bronx, NY 10463"]}, "phone": "+17186014976", "display_phone": "(718) 601-4976", "distance": 15189.67650871301}, {"id": "2LcsDUTlvovnFz-SEcSJTQ", "alias": "astoria-seafood-long-island-city", "name": "Astoria Seafood", "image_url": "https://s3-media2.fl.yelpcdn.com/bphoto/epAAhTn5FDqlBBZKpWA_Gg/o.jpg", "is_closed": false, "url": "https://www.yelp.com/biz/astoria-seafood-long-island-city?adjust_creative=9gNmiWYX8uTbFBeTTvJMdA&utm_campaign=yelp_api_v3&utm_medium=api_v3_business_search&utm_source=9gNmiWYX8uTbFBeTTvJMdA", "review_count": 890, "categories": [{"alias": "seafood", "title": "Seafood"}, {"alias": "greek", "title": "Greek"}, {"alias": "mediterranean", "title": "Mediterranean"}], "rating": 4.0, "coordinates": {"latitude": 40.754, "longitude": -73.9298699}, "transactions": ["delivery", "pickup"], "price": "$$", "location": {"address1": "37-10 33rd St", "address2": "", "address3": "", "city": "Long Island City", "zip_code": "11101", "country": "US", "state": "NY", "display_address": ["37-10 33rd St", "Long Island City, NY 11101"]}, "phone": "+17183922680", "display_phone": "(718) 392-2680", "distance": 3394.879967884697}, {"id": "1_vyc6Z4a78TFMbaCjWqDQ", "alias": "3greeks-grill-long-island-city", "name": "3Greeks Grill", "image_url": "https://s3-media1.fl.yelpcdn.com/bphoto/Cq9ilir4aFbl-fTbgz0uuA/o.jpg", "is_closed": false, "url": "https://www.yelp.com/biz/3greeks-grill-long-island-city?adjust_creative=9gNmiWYX8uTbFBeTTvJMdA&utm_campaign=yelp_api_v3&utm_medium=api_v3_business_search&utm_source=9gNmiWYX8uTbFBeTTvJMdA", "review_count": 148, "categories": [{"alias": "mediterranean", "title": "Mediterranean"}, {"alias": "greek", "title": "Greek"}], "rating": 4.5, "coordinates": {"latitude": 40.762035, "longitude": -73.942101}, "transactions": ["delivery", "pickup"], "price": "$", "location": {"address1": "3561 Vernon Blvd", "address2": "", "address3": "", "city": "Long Island City", "zip_code": "11106", "country": "US", "state": "NY", "display_address": ["3561 Vernon Blvd", "Long Island City, NY 11106"]}, "phone": "+17187298900", "display_phone": "(718) 729-8900", "distance": 2309.8695458457314}, {"id": "Hk0b84P_jbufMAzkNyIJoQ", "alias": "greek-taverna-edgewater-2", "name": "Greek Taverna", "image_url": "https://s3-media4.fl.yelpcdn.com/bphoto/TbiTUL0XKMJJsmH_IhwwaQ/o.jpg", "is_closed": false, "url": "https://www.yelp.com/biz/greek-taverna-edgewater-2?adjust_creative=9gNmiWYX8uTbFBeTTvJMdA&utm_campaign=yelp_api_v3&utm_medium=api_v3_business_search&utm_source=9gNmiWYX8uTbFBeTTvJMdA", "review_count": 278, "categories": [{"alias": "greek", "title": "Greek"}, {"alias": "mediterranean", "title": "Mediterranean"}], "rating": 3.5, "coordinates": {"latitude": 40.8064400881056, "longitude": -73.9873175009109}, "transactions": ["delivery", "pickup"], "price": "$$", "location": {"address1": "55 The Promenade", "address2": null, "address3": "", "city": "Edgewater", "zip_code": "07020", "country": "US", "state": "NJ", "display_address": ["55 The Promenade", "Edgewater, NJ 07020"]}, "phone": "+12019458998", "display_phone": "(201) 945-8998", "distance": 5463.866391696255}, {"id": "_EUAkkC5oKm4sClY4hlbig", "alias": "pita-yeero-new-york-6", "name": "Pita Yeero", "image_url": "https://s3-media3.fl.yelpcdn.com/bphoto/a_sZQSgHb7P0BnVDAdcbzQ/o.jpg", "is_closed": false, "url": "https://www.yelp.com/biz/pita-yeero-new-york-6?adjust_creative=9gNmiWYX8uTbFBeTTvJMdA&utm_campaign=yelp_api_v3&utm_medium=api_v3_business_search&utm_source=9gNmiWYX8uTbFBeTTvJMdA", "review_count": 1, "categories": [{"alias": "greek", "title": "Greek"}, {"alias": "mediterranean", "title": "Mediterranean"}], "rating": 5.0, "coordinates": {"latitude": 40.73391315565979, "longitude": -73.9888773443734}, "transactions": ["pickup"], "location": {"address1": "124 E 14th St", "address2": "", "address3": null, "city": "New York", "zip_code": "10003", "country": "US", "state": "NY", "display_address": ["124 E 14th St", "New York, NY 10003"]}, "phone": "", "display_phone": "", "distance": 3245.701028093959}, {"id": "hU1ajPmHi-kU6iNbowoEZg", "alias": "estiatorio-milos-new-york-3", "name": "Estiatorio Milos", "image_url": "https://s3-media1.fl.yelpcdn.com/bphoto/Bi3ozbW3bR6qDXa3krM9Zw/o.jpg", "is_closed": false, "url": "https://www.yelp.com/biz/estiatorio-milos-new-york-3?adjust_creative=9gNmiWYX8uTbFBeTTvJMdA&utm_campaign=yelp_api_v3&utm_medium=api_v3_business_search&utm_source=9gNmiWYX8uTbFBeTTvJMdA", "review_count": 267, "categories": [{"alias": "seafood", "title": "Seafood"}, {"alias": "greek", "title": "Greek"}, {"alias": "mediterranean", "title": "Mediterranean"}], "rating": 3.5, "coordinates": {"latitude": 40.75384139204255, "longitude": -74.00107612944777}, "transactions": ["delivery", "pickup"], "price": "$$$", "location": {"address1": "20 Hudson Yards", "address2": "Fl 5", "address3": null, "city": "New York", "zip_code": "10001", "country": "US", "state": "NY", "display_address": ["20 Hudson Yards", "Fl 5", "New York, NY 10001"]}, "phone": "+16469071970", "display_phone": "(646) 907-1970", "distance": 2718.8609797997337}, {"id": "hKDCY-ZXcfPy4Vp8BfWnhw", "alias": "lezzet-mediterranean-turkish-restaurant-new-york", "name": "Lezzet Mediterranean Turkish Restaurant", "image_url": "https://s3-media4.fl.yelpcdn.com/bphoto/jiUyVdV1I-yOcinZgLWigw/o.jpg", "is_closed": false, "url": "https://www.yelp.com/biz/lezzet-mediterranean-turkish-restaurant-new-york?adjust_creative=9gNmiWYX8uTbFBeTTvJMdA&utm_campaign=yelp_api_v3&utm_medium=api_v3_business_search&utm_source=9gNmiWYX8uTbFBeTTvJMdA", "review_count": 106, "categories": [{"alias": "turkish", "title": "Turkish"}, {"alias": "mediterranean", "title": "Mediterranean"}, {"alias": "halal", "title": "Halal"}], "rating": 4.5, "coordinates": {"latitude": 40.763478, "longitude": -73.967816}, "transactions": ["delivery", "pickup"], "location": {"address1": "132 East 61st St", "address2": null, "address3": "", "city": "New York", "zip_code": "10065", "country": "US", "state": "NY", "display_address": ["132 East 61st St", "New York, NY 10065"]}, "phone": "+12127291515", "display_phone": "(212) 729-1515", "distance": 499.81949299003634}, {"id": "0FaLilJs2VN83hOEBcBnPg", "alias": "au-zaatar-new-york", "name": "Au Za'atar", "image_url": "https://s3-media2.fl.yelpcdn.com/bphoto/mJRp7KgJXO83i-xGHWzv2g/o.jpg", "is_closed": false, "url": "https://www.yelp.com/biz/au-zaatar-new-york?adjust_creative=9gNmiWYX8uTbFBeTTvJMdA&utm_campaign=yelp_api_v3&utm_medium=api_v3_business_search&utm_source=9gNmiWYX8uTbFBeTTvJMdA", "review_count": 1497, "categories": [{"alias": "wine_bars", "title": "Wine Bars"}, {"alias": "lebanese", "title": "Lebanese"}, {"alias": "mediterranean", "title": "Mediterranean"}], "rating": 4.0, "coordinates": {"latitude": 40.728901, "longitude": -73.981185}, "transactions": ["delivery", "pickup"], "price": "$$", "location": {"address1": "188 Avenue A", "address2": "", "address3": "", "city": "New York", "zip_code": "10009", "country": "US", "state": "NY", "display_address": ["188 Avenue A", "New York, NY 10009"]}, "phone": "+12122545660", "display_phone": "(212) 254-5660", "distance": 3505.516734191861}, {"id": "NMVRHrkdp68twl4CWo1I5A", "alias": "marseille-new-york", "name": "Marseille", "image_url": "https://s3-media3.fl.yelpcdn.com/bphoto/yinr_qc60FrYKeH24o0Lmw/o.jpg", "is_closed": false, "url": "https://www.yelp.com/biz/marseille-new-york?adjust_creative=9gNmiWYX8uTbFBeTTvJMdA&utm_campaign=yelp_api_v3&utm_medium=api_v3_business_search&utm_source=9gNmiWYX8uTbFBeTTvJMdA", "review_count": 1107, "categories": [{"alias": "french", "title": "French"}, {"alias": "mediterranean", "title": "Mediterranean"}, {"alias": "brasseries", "title": "Brasseries"}], "rating": 4.0, "coordinates": {"latitude": 40.7597589, "longitude": -73.99142128424079}, "transactions": ["delivery", "pickup"], "price": "$$$", "location": {"address1": "630 9th Ave", "address2": "", "address3": "", "city": "New York", "zip_code": "10036", "country": "US", "state": "NY", "display_address": ["630 9th Ave", "New York, NY 10036"]}, "phone": "+12123332323", "display_phone": "(212) 333-2323", "distance": 1841.2423496445674}, {"id": "r2tM5A3YU8m1prp-ji5KAQ", "alias": "anassa-taverna-new-york-3", "name": "Anassa Taverna", "image_url": "https://s3-media3.fl.yelpcdn.com/bphoto/8ZBksdyyHYouaeH98qC69Q/o.jpg", "is_closed": false, "url": "https://www.yelp.com/biz/anassa-taverna-new-york-3?adjust_creative=9gNmiWYX8uTbFBeTTvJMdA&utm_campaign=yelp_api_v3&utm_medium=api_v3_business_search&utm_source=9gNmiWYX8uTbFBeTTvJMdA", "review_count": 36, "categories": [{"alias": "greek", "title": "Greek"}, {"alias": "mediterranean", "title": "Mediterranean"}], "rating": 4.0, "coordinates": {"latitude": 40.71538461875374, "longitude": -74.01549343149449}, "transactions": ["delivery", "pickup"], "location": {"address1": "104 North End Ave", "address2": "", "address3": null, "city": "New York", "zip_code": "10282", "country": "US", "state": "NY", "display_address": ["104 North End Ave", "New York, NY 10282"]}, "phone": "", "display_phone": "", "distance": 6219.128419404056}, {"id": "XXHR59YE3PsMJKhaSGF82g", "alias": "skinos-new-york", "name": "Skinos", "image_url": "https://s3-media3.fl.yelpcdn.com/bphoto/xgjOadYZQJLVo-sXJVqU7A/o.jpg", "is_closed": false, "url": "https://www.yelp.com/biz/skinos-new-york?adjust_creative=9gNmiWYX8uTbFBeTTvJMdA&utm_campaign=yelp_api_v3&utm_medium=api_v3_business_search&utm_source=9gNmiWYX8uTbFBeTTvJMdA", "review_count": 63, "categories": [{"alias": "greek", "title": "Greek"}, {"alias": "lounges", "title": "Lounges"}, {"alias": "mediterranean", "title": "Mediterranean"}], "rating": 4.0, "coordinates": {"latitude": 40.7092191, "longitude": -74.0137534}, "transactions": ["delivery"], "location": {"address1": "123 Washington St", "address2": null, "address3": "", "city": "New York", "zip_code": "10006", "country": "US", "state": "NY", "display_address": ["123 Washington St", "New York, NY 10006"]}, "phone": "+16467200060", "display_phone": "(646) 720-0060", "distance": 6686.732915455567}, {"id": "ExvoimQ4LzY3UWtZ6m6Lgw", "alias": "ravagh-persian-grill-new-york-2", "name": "Ravagh Persian Grill", "image_url": "https://s3-media1.fl.yelpcdn.com/bphoto/Uy_OxyOGQb0TkVolchm6RA/o.jpg", "is_closed": false, "url": "https://www.yelp.com/biz/ravagh-persian-grill-new-york-2?adjust_creative=9gNmiWYX8uTbFBeTTvJMdA&utm_campaign=yelp_api_v3&utm_medium=api_v3_business_search&utm_source=9gNmiWYX8uTbFBeTTvJMdA", "review_count": 931, "categories": [{"alias": "mideastern", "title": "Middle Eastern"}, {"alias": "persian", "title": "Persian/Iranian"}, {"alias": "mediterranean", "title": "Mediterranean"}], "rating": 4.0, "coordinates": {"latitude": 40.74726700950392, "longitude": -73.98311794328527}, "transactions": ["delivery", "pickup"], "price": "$$", "location": {"address1": "173 Madison Ave", "address2": null, "address3": "", "city": "New York", "zip_code": "10016", "country": "US", "state": "NY", "display_address": ["173 Madison Ave", "New York, NY 10016"]}, "phone": "+12126960300", "display_phone": "(212) 696-0300", "distance": 1747.7743274526742}, {"id": "6KcS6hc2j4kJi2XTGxC1eg", "alias": "bodrum-mediterranean-restaurant-new-york", "name": "Bodrum", "image_url": "https://s3-media3.fl.yelpcdn.com/bphoto/_fGr8EYBYVqDVQMKokNU6Q/o.jpg", "is_closed": false, "url": "https://www.yelp.com/biz/bodrum-mediterranean-restaurant-new-york?adjust_creative=9gNmiWYX8uTbFBeTTvJMdA&utm_campaign=yelp_api_v3&utm_medium=api_v3_business_search&utm_source=9gNmiWYX8uTbFBeTTvJMdA", "review_count": 473, "categories": [{"alias": "mediterranean", "title": "Mediterranean"}, {"alias": "pizza", "title": "Pizza"}, {"alias": "breakfast_brunch", "title": "Breakfast & Brunch"}], "rating": 4.0, "coordinates": {"latitude": 40.78935, "longitude": -73.97411}, "transactions": ["delivery", "pickup"], "price": "$$", "location": {"address1": "584 Amsterdam Ave", "address2": "", "address3": "", "city": "New York", "zip_code": "10024", "country": "US", "state": "NY", "display_address": ["584 Amsterdam Ave", "New York, NY 10024"]}, "phone": "+12127992806", "display_phone": "(212) 799-2806", "distance": 3375.204431917669}, {"id": "Jqnm2_8Rt70YYQBhhFLwGQ", "alias": "omars-mediterranean-cuisine-new-york-2", "name": "Omar's Mediterranean Cuisine", "image_url": "https://s3-media3.fl.yelpcdn.com/bphoto/QgIRcUu7SFhQNmE_GBXDbg/o.jpg", "is_closed": false, "url": "https://www.yelp.com/biz/omars-mediterranean-cuisine-new-york-2?adjust_creative=9gNmiWYX8uTbFBeTTvJMdA&utm_campaign=yelp_api_v3&utm_medium=api_v3_business_search&utm_source=9gNmiWYX8uTbFBeTTvJMdA", "review_count": 210, "categories": [{"alias": "mediterranean", "title": "Mediterranean"}], "rating": 4.0, "coordinates": {"latitude": 40.75120261756701, "longitude": -73.9812521886868}, "transactions": ["delivery", "pickup"], "price": "$$", "location": {"address1": "20 E 39th St", "address2": "", "address3": null, "city": "New York", "zip_code": "10016", "country": "US", "state": "NY", "display_address": ["20 E 39th St", "New York, NY 10016"]}, "phone": "+12122130009", "display_phone": "(212) 213-0009", "distance": 1324.1592385771473}, {"id": "iQpkfCech11N5I6e9ur8Cg", "alias": "molos-weehawken-2", "name": "Molos", "image_url": "https://s3-media2.fl.yelpcdn.com/bphoto/tv7N5xuJlEQBmOYzg6H06w/o.jpg", "is_closed": false, "url": "https://www.yelp.com/biz/molos-weehawken-2?adjust_creative=9gNmiWYX8uTbFBeTTvJMdA&utm_campaign=yelp_api_v3&utm_medium=api_v3_business_search&utm_source=9gNmiWYX8uTbFBeTTvJMdA", "review_count": 739, "categories": [{"alias": "greek", "title": "Greek"}, {"alias": "seafood", "title": "Seafood"}, {"alias": "mediterranean", "title": "Mediterranean"}], "rating": 3.5, "coordinates": {"latitude": 40.7713706622218, "longitude": -74.01331616192549}, "transactions": ["pickup"], "price": "$$$", "location": {"address1": "1 Pershing Rd", "address2": "", "address3": "", "city": "Weehawken", "zip_code": "07086", "country": "US", "state": "NJ", "display_address": ["1 Pershing Rd", "Weehawken, NJ 07086"]}, "phone": "+12012231200", "display_phone": "(201) 223-1200", "distance": 3925.5609062459616}, {"id": "_AU96YHJM_CgFfw_QzpvAQ", "alias": "akrotiri-grill-astoria", "name": "Akrotiri Grill", "image_url": "https://s3-media4.fl.yelpcdn.com/bphoto/xrHvu5C7mHBNlDvgB4le3w/o.jpg", "is_closed": false, "url": "https://www.yelp.com/biz/akrotiri-grill-astoria?adjust_creative=9gNmiWYX8uTbFBeTTvJMdA&utm_campaign=yelp_api_v3&utm_medium=api_v3_business_search&utm_source=9gNmiWYX8uTbFBeTTvJMdA", "review_count": 176, "categories": [{"alias": "greek", "title": "Greek"}, {"alias": "bars", "title": "Bars"}, {"alias": "mediterranean", "title": "Mediterranean"}], "rating": 4.0, "coordinates": {"latitude": 40.76886340894398, "longitude": -73.9250964}, "transactions": ["delivery", "pickup"], "price": "$$$", "location": {"address1": "29-20 30th Ave", "address2": "", "address3": null, "city": "Astoria", "zip_code": "11102", "country": "US", "state": "NY", "display_address": ["29-20 30th Ave", "Astoria, NY 11102"]}, "phone": "+13476423340", "display_phone": "(347) 642-3340", "distance": 3897.7257606104286}, {"id": "DEp-9JVnKN7eTb9A_mUlfA", "alias": "zou-zou-s-new-york-3", "name": "Zou Zou\u2019s", "image_url": "https://s3-media1.fl.yelpcdn.com/bphoto/JFsmaq8GfDlzJJecw_bLHw/o.jpg", "is_closed": false, "url": "https://www.yelp.com/biz/zou-zou-s-new-york-3?adjust_creative=9gNmiWYX8uTbFBeTTvJMdA&utm_campaign=yelp_api_v3&utm_medium=api_v3_business_search&utm_source=9gNmiWYX8uTbFBeTTvJMdA", "review_count": 200, "categories": [{"alias": "mediterranean", "title": "Mediterranean"}, {"alias": "newamerican", "title": "American (New)"}], "rating": 4.0, "coordinates": {"latitude": 40.752941113750204, "longitude": -73.99872428597398}, "transactions": [], "price": "$$$", "location": {"address1": "385 9th Ave", "address2": "Ste 85", "address3": null, "city": "New York", "zip_code": "10001", "country": "US", "state": "NY", "display_address": ["385 9th Ave", "Ste 85", "New York, NY 10001"]}, "phone": "+12123808585", "display_phone": "(212) 380-8585", "distance": 2551.2822447654576}, {"id": "RqCMsa0IuHWhML0BEjW8_w", "alias": "boulud-sud-new-york", "name": "Boulud Sud", "image_url": "https://s3-media4.fl.yelpcdn.com/bphoto/6TLnyeAOGyj-O2q6wJ4F2A/o.jpg", "is_closed": false, "url": "https://www.yelp.com/biz/boulud-sud-new-york?adjust_creative=9gNmiWYX8uTbFBeTTvJMdA&utm_campaign=yelp_api_v3&utm_medium=api_v3_business_search&utm_source=9gNmiWYX8uTbFBeTTvJMdA", "review_count": 784, "categories": [{"alias": "mediterranean", "title": "Mediterranean"}], "rating": 4.0, "coordinates": {"latitude": 40.7718614234522, "longitude": -73.9816256082283}, "transactions": ["delivery", "pickup"], "price": "$$$$", "location": {"address1": "20 W 64th St", "address2": "", "address3": "", "city": "New York", "zip_code": "10023", "country": "US", "state": "NY", "display_address": ["20 W 64th St", "New York, NY 10023"]}, "phone": "+12125951313", "display_phone": "(212) 595-1313", "distance": 1737.8750994109862}, {"id": "MctQwL9Mp5X7DJk13VoERg", "alias": "westville-new-york-11", "name": "Westville", "image_url": "https://s3-media4.fl.yelpcdn.com/bphoto/ePvwxoDmrJzWIWT16MWUwg/o.jpg", "is_closed": false, "url": "https://www.yelp.com/biz/westville-new-york-11?adjust_creative=9gNmiWYX8uTbFBeTTvJMdA&utm_campaign=yelp_api_v3&utm_medium=api_v3_business_search&utm_source=9gNmiWYX8uTbFBeTTvJMdA", "review_count": 1234, "categories": [{"alias": "mediterranean", "title": "Mediterranean"}], "rating": 4.0, "coordinates": {"latitude": 40.73954, "longitude": -73.999211}, "transactions": ["delivery", "pickup"], "price": "$$", "location": {"address1": "88 7th Ave", "address2": "", "address3": "", "city": "New York", "zip_code": "10011", "country": "US", "state": "NY", "display_address": ["88 7th Ave", "New York, NY 10011"]}, "phone": "+12129242223", "display_phone": "(212) 924-2223", "distance": 3316.5562526452154}, {"id": "51YLgpfHKfXxOkDFe9sT-w", "alias": "balade-your-way-new-york-2", "name": "Balade - Your Way", "image_url": "https://s3-media3.fl.yelpcdn.com/bphoto/VHLXo4k5mtJ6hKiox_2i_g/o.jpg", "is_closed": false, "url": "https://www.yelp.com/biz/balade-your-way-new-york-2?adjust_creative=9gNmiWYX8uTbFBeTTvJMdA&utm_campaign=yelp_api_v3&utm_medium=api_v3_business_search&utm_source=9gNmiWYX8uTbFBeTTvJMdA", "review_count": 408, "categories": [{"alias": "lebanese", "title": "Lebanese"}, {"alias": "mediterranean", "title": "Mediterranean"}, {"alias": "halal", "title": "Halal"}], "rating": 4.5, "coordinates": {"latitude": 40.7524299621582, "longitude": -73.9887237548828}, "transactions": ["delivery", "pickup"], "price": "$$", "location": {"address1": "144 West 37th St", "address2": null, "address3": "", "city": "New York", "zip_code": "10018", "country": "US", "state": "NY", "display_address": ["144 West 37th St", "New York, NY 10018"]}, "phone": "+12126956969", "display_phone": "(212) 695-6969", "distance": 1776.7041535382964}], "total": 701, "region": {"center": {"longitude": -73.96957397460938, "latitude": 40.75917470627005}}}