{"businesses": [{"id": "RNOoa_KlIgbDt_7ahVhw1A", "alias": "istanbul-bay-brooklyn", "name": "Istanbul Bay", "image_url": "https://s3-media1.fl.yelpcdn.com/bphoto/gyDTJZH_tCXxX3A4ujsj1Q/o.jpg", "is_closed": false, "url": "https://www.yelp.com/biz/istanbul-bay-brooklyn?adjust_creative=9gNmiWYX8uTbFBeTTvJMdA&utm_campaign=yelp_api_v3&utm_medium=api_v3_business_search&utm_source=9gNmiWYX8uTbFBeTTvJMdA", "review_count": 247, "categories": [{"alias": "turkish", "title": "Turkish"}], "rating": 4.0, "coordinates": {"latitude": 40.6257479292404, "longitude": -74.024335230917}, "transactions": ["delivery", "pickup"], "price": "$$", "location": {"address1": "8002 5th Ave", "address2": "", "address3": null, "city": "Brooklyn", "zip_code": "11209", "country": "US", "state": "NY", "display_address": ["8002 5th Ave", "Brooklyn, NY 11209"]}, "phone": "+19292922353", "display_phone": "(929) 292-2353", "distance": 15538.137147827652}, {"id": "Ucg3flg-2tJAahEePIoigQ", "alias": "magdalene-brooklyn", "name": "Magdalene", "image_url": "https://s3-media2.fl.yelpcdn.com/bphoto/9ez5kNfQkp-upaJKD4QVZw/o.jpg", "is_closed": false, "url": "https://www.yelp.com/biz/magdalene-brooklyn?adjust_creative=9gNmiWYX8uTbFBeTTvJMdA&utm_campaign=yelp_api_v3&utm_medium=api_v3_business_search&utm_source=9gNmiWYX8uTbFBeTTvJMdA", "review_count": 60, "categories": [{"alias": "lebanese", "title": "Lebanese"}, {"alias": "cocktailbars", "title": "Cocktail Bars"}, {"alias": "salad", "title": "Salad"}], "rating": 4.5, "coordinates": {"latitude": 40.71252, "longitude": -73.94899}, "transactions": ["delivery", "pickup"], "price": "$$", "location": {"address1": "524 Lorimer St", "address2": "", "address3": null, "city": "Brooklyn", "zip_code": "11211", "country": "US", "state": "NY", "display_address": ["524 Lorimer St", "Brooklyn, NY 11211"]}, "phone": "+13475088280", "display_phone": "(347) 508-8280", "distance": 5469.607898229615}, {"id": "C4RxzDMeB56hQ92SjF2jNw", "alias": "donia-mediterranean-cuisine-garfield", "name": "Donia Mediterranean Cuisine", "image_url": "", "is_closed": false, "url": "https://www.yelp.com/biz/donia-mediterranean-cuisine-garfield?adjust_creative=9gNmiWYX8uTbFBeTTvJMdA&utm_campaign=yelp_api_v3&utm_medium=api_v3_business_search&utm_source=9gNmiWYX8uTbFBeTTvJMdA", "review_count": 1, "categories": [{"alias": "mediterranean", "title": "Mediterranean"}, {"alias": "greek", "title": "Greek"}], "rating": 5.0, "coordinates": {"latitude": 40.87399, "longitude": -74.10613}, "transactions": [], "location": {"address1": "149 Van Winkle Ave", "address2": "", "address3": null, "city": "Garfield", "zip_code": "07026", "country": "US", "state": "NJ", "display_address": ["149 Van Winkle Ave", "Garfield, NJ 07026"]}, "phone": "+19732467854", "display_phone": "(973) 246-7854", "distance": 17170.075611645865}, {"id": "ju0UobdUZQWfyxWJEnoviQ", "alias": "ez-grill-nyc-bronx", "name": "Ez Grill NYC", "image_url": "https://s3-media3.fl.yelpcdn.com/bphoto/3GYayvN2se9RLMzbz2iURg/o.jpg", "is_closed": false, "url": "https://www.yelp.com/biz/ez-grill-nyc-bronx?adjust_creative=9gNmiWYX8uTbFBeTTvJMdA&utm_campaign=yelp_api_v3&utm_medium=api_v3_business_search&utm_source=9gNmiWYX8uTbFBeTTvJMdA", "review_count": 156, "categories": [{"alias": "mediterranean", "title": "Mediterranean"}, {"alias": "greek", "title": "Greek"}, {"alias": "burgers", "title": "Burgers"}], "rating": 4.0, "coordinates": {"latitude": 40.8543220213677, "longitude": -73.8641628382638}, "transactions": ["delivery", "pickup"], "price": "$", "location": {"address1": "790 Lydig Ave", "address2": "", "address3": "", "city": "Bronx", "zip_code": "10462", "country": "US", "state": "NY", "display_address": ["790 Lydig Ave", "Bronx, NY 10462"]}, "phone": "+13472818802", "display_phone": "(347) 281-8802", "distance": 13807.45168695094}, {"id": "dY0kJNKYzoMg2onA2RPdzg", "alias": "pita-grill-new-york-5", "name": "Pita Grill", "image_url": "https://s3-media2.fl.yelpcdn.com/bphoto/4GnJCOcJC0IPZlI96xg-7g/o.jpg", "is_closed": false, "url": "https://www.yelp.com/biz/pita-grill-new-york-5?adjust_creative=9gNmiWYX8uTbFBeTTvJMdA&utm_campaign=yelp_api_v3&utm_medium=api_v3_business_search&utm_source=9gNmiWYX8uTbFBeTTvJMdA", "review_count": 185, "categories": [{"alias": "mideastern", "title": "Middle Eastern"}], "rating": 2.5, "coordinates": {"latitude": 40.743408, "longitude": -73.979408}, "transactions": ["delivery", "pickup"], "price": "$", "location": {"address1": "441 3rd Ave", "address2": "", "address3": "", "city": "New York", "zip_code": "10016", "country": "US", "state": "NY", "display_address": ["441 3rd Ave", "New York, NY 10016"]}, "phone": "+12126833008", "display_phone": "(212) 683-3008", "distance": 1939.5764817195661}, {"id": "tuzMzWjkf2UeaEl0lvaTCQ", "alias": "fontana-pizza-and-pasta-new-york", "name": "Fontana Pizza and Pasta", "image_url": "", "is_closed": false, "url": "https://www.yelp.com/biz/fontana-pizza-and-pasta-new-york?adjust_creative=9gNmiWYX8uTbFBeTTvJMdA&utm_campaign=yelp_api_v3&utm_medium=api_v3_business_search&utm_source=9gNmiWYX8uTbFBeTTvJMdA", "review_count": 1, "categories": [{"alias": "mediterranean", "title": "Mediterranean"}, {"alias": "pizza", "title": "Pizza"}, {"alias": "salad", "title": "Salad"}], "rating": 5.0, "coordinates": {"latitude": 40.755916, "longitude": -73.921069}, "transactions": ["delivery", "pickup"], "location": {"address1": "34-23 Steinway St", "address2": null, "address3": "", "city": "New York", "zip_code": "11101", "country": "US", "state": "NY", "display_address": ["34-23 Steinway St", "New York, NY 11101"]}, "phone": "+19177271150", "display_phone": "(917) 727-1150", "distance": 4094.5937864976804}, {"id": "qmz0EiyIss8qkiWFYn94aw", "alias": "saint-pita-ridgewood", "name": "Saint Pita", "image_url": "https://s3-media2.fl.yelpcdn.com/bphoto/Mpaj1LiAwQA-b5aBLj6akw/o.jpg", "is_closed": false, "url": "https://www.yelp.com/biz/saint-pita-ridgewood?adjust_creative=9gNmiWYX8uTbFBeTTvJMdA&utm_campaign=yelp_api_v3&utm_medium=api_v3_business_search&utm_source=9gNmiWYX8uTbFBeTTvJMdA", "review_count": 4, "categories": [{"alias": "fooddeliveryservices", "title": "Food Delivery Services"}, {"alias": "mediterranean", "title": "Mediterranean"}, {"alias": "sandwiches", "title": "Sandwiches"}], "rating": 4.5, "coordinates": {"latitude": 40.70050811767578, "longitude": -73.9001693725586}, "transactions": [], "location": {"address1": null, "address2": null, "address3": null, "city": "Ridgewood", "zip_code": "11385", "country": "US", "state": "NY", "display_address": ["Ridgewood, NY 11385"]}, "phone": "+17183664976", "display_phone": "(718) 366-4976", "distance": 9264.603919700912}, {"id": "0LhrOS_zzu-MlIwmN9ljoA", "alias": "aladdin-grill-and-rice-new-york", "name": "Aladdin Grill and Rice", "image_url": "https://s3-media1.fl.yelpcdn.com/bphoto/6gYRDq0kq1RxVqmzQDJZIw/o.jpg", "is_closed": false, "url": "https://www.yelp.com/biz/aladdin-grill-and-rice-new-york?adjust_creative=9gNmiWYX8uTbFBeTTvJMdA&utm_campaign=yelp_api_v3&utm_medium=api_v3_business_search&utm_source=9gNmiWYX8uTbFBeTTvJMdA", "review_count": 89, "categories": [{"alias": "mediterranean", "title": "Mediterranean"}, {"alias": "mideastern", "title": "Middle Eastern"}], "rating": 4.0, "coordinates": {"latitude": 40.85054324050193, "longitude": -73.9374584504511}, "transactions": ["delivery", "pickup"], "price": "$", "location": {"address1": "736 W 181st St", "address2": "", "address3": null, "city": "New York", "zip_code": "10033", "country": "US", "state": "NY", "display_address": ["736 W 181st St", "New York, NY 10033"]}, "phone": "+12122560701", "display_phone": "(212) 256-0701", "distance": 10513.1502776336}, {"id": "Z4OF9kKSikiYZCx62_aq8A", "alias": "jerusalem-restaurant-new-york", "name": "Jerusalem Restaurant", "image_url": "https://s3-media2.fl.yelpcdn.com/bphoto/3Y3WkDHORPUPlfB64cGGgQ/o.jpg", "is_closed": false, "url": "https://www.yelp.com/biz/jerusalem-restaurant-new-york?adjust_creative=9gNmiWYX8uTbFBeTTvJMdA&utm_campaign=yelp_api_v3&utm_medium=api_v3_business_search&utm_source=9gNmiWYX8uTbFBeTTvJMdA", "review_count": 178, "categories": [{"alias": "mideastern", "title": "Middle Eastern"}, {"alias": "mediterranean", "title": "Mediterranean"}, {"alias": "halal", "title": "Halal"}], "rating": 3.0, "coordinates": {"latitude": 40.7997299, "longitude": -73.96852}, "transactions": ["delivery", "pickup"], "price": "$", "location": {"address1": "2715 Broadway", "address2": null, "address3": "", "city": "New York", "zip_code": "10025", "country": "US", "state": "NY", "display_address": ["2715 Broadway", "New York, NY 10025"]}, "phone": "+12128652295", "display_phone": "(212) 865-2295", "distance": 4513.07651037299}, {"id": "56qlj1cYlqNzmG0xllGg-w", "alias": "westville-brooklyn", "name": "Westville", "image_url": "https://s3-media4.fl.yelpcdn.com/bphoto/y9agcxhbRPYMNzsk4b9Peg/o.jpg", "is_closed": false, "url": "https://www.yelp.com/biz/westville-brooklyn?adjust_creative=9gNmiWYX8uTbFBeTTvJMdA&utm_campaign=yelp_api_v3&utm_medium=api_v3_business_search&utm_source=9gNmiWYX8uTbFBeTTvJMdA", "review_count": 388, "categories": [{"alias": "mediterranean", "title": "Mediterranean"}], "rating": 4.0, "coordinates": {"latitude": 40.70208865020039, "longitude": -73.9894541379247}, "transactions": ["delivery", "pickup"], "price": "$$", "location": {"address1": "81 Washington St", "address2": "", "address3": null, "city": "Brooklyn", "zip_code": "11201", "country": "US", "state": "NY", "display_address": ["81 Washington St", "Brooklyn, NY 11201"]}, "phone": "+17186185699", "display_phone": "(718) 618-5699", "distance": 6564.985817529705}, {"id": "TQva_biHxS_lTgYDi52BlQ", "alias": "cava-brooklyn-3", "name": "CAVA", "image_url": "https://s3-media2.fl.yelpcdn.com/bphoto/SnK4O6uQ1JZSb4EdXkR2nw/o.jpg", "is_closed": false, "url": "https://www.yelp.com/biz/cava-brooklyn-3?adjust_creative=9gNmiWYX8uTbFBeTTvJMdA&utm_campaign=yelp_api_v3&utm_medium=api_v3_business_search&utm_source=9gNmiWYX8uTbFBeTTvJMdA", "review_count": 119, "categories": [{"alias": "mediterranean", "title": "Mediterranean"}, {"alias": "salad", "title": "Salad"}], "rating": 3.5, "coordinates": {"latitude": 40.6925169, "longitude": -73.98860726029167}, "transactions": [], "price": "$$", "location": {"address1": "345 Adams St", "address2": "", "address3": null, "city": "Brooklyn", "zip_code": "11201", "country": "US", "state": "NY", "display_address": ["345 Adams St", "Brooklyn, NY 11201"]}, "phone": "+19293950085", "display_phone": "(929) 395-0085", "distance": 7583.550994588093}, {"id": "VnmhnILiO3_TPNPIRU7Qug", "alias": "karizma-new-york", "name": "Karizma", "image_url": "https://s3-media1.fl.yelpcdn.com/bphoto/Ixl0SE4fIt4UDTYDTebuMg/o.jpg", "is_closed": false, "url": "https://www.yelp.com/biz/karizma-new-york?adjust_creative=9gNmiWYX8uTbFBeTTvJMdA&utm_campaign=yelp_api_v3&utm_medium=api_v3_business_search&utm_source=9gNmiWYX8uTbFBeTTvJMdA", "review_count": 277, "categories": [{"alias": "mideastern", "title": "Middle Eastern"}, {"alias": "hookah_bars", "title": "Hookah Bars"}, {"alias": "lounges", "title": "Lounges"}], "rating": 3.0, "coordinates": {"latitude": 40.755577, "longitude": -73.968832}, "transactions": ["delivery", "pickup"], "price": "$$", "location": {"address1": "244 E 51st St", "address2": null, "address3": "", "city": "New York", "zip_code": "10022", "country": "US", "state": "NY", "display_address": ["244 E 51st St", "New York, NY 10022"]}, "phone": "+12126059988", "display_phone": "(212) 605-9988", "distance": 404.89828302392556}, {"id": "KRWMajn-8FFKBGv2s1Tyzw", "alias": "la-ziza-lebanese-cuisine-and-hookah-lounge-clifton", "name": "La' Ziza Lebanese Cuisine & Hookah Lounge", "image_url": "https://s3-media2.fl.yelpcdn.com/bphoto/6gQJFcmr6mMvqf0uIFV9GA/o.jpg", "is_closed": false, "url": "https://www.yelp.com/biz/la-ziza-lebanese-cuisine-and-hookah-lounge-clifton?adjust_creative=9gNmiWYX8uTbFBeTTvJMdA&utm_campaign=yelp_api_v3&utm_medium=api_v3_business_search&utm_source=9gNmiWYX8uTbFBeTTvJMdA", "review_count": 312, "categories": [{"alias": "mideastern", "title": "Middle Eastern"}, {"alias": "hookah_bars", "title": "Hookah Bars"}], "rating": 3.5, "coordinates": {"latitude": 40.89099, "longitude": -74.14531}, "transactions": ["delivery", "pickup"], "price": "$$", "location": {"address1": "341 Crooks Ave", "address2": "", "address3": "", "city": "Clifton", "zip_code": "07011", "country": "US", "state": "NJ", "display_address": ["341 Crooks Ave", "Clifton, NJ 07011"]}, "phone": "+19737722700", "display_phone": "(973) 772-2700", "distance": 20823.386518185976}, {"id": "VWiKAEzdATXDYxdomqQ9Ig", "alias": "falafel-tarboosh-new-york", "name": "Falafel Tarboosh", "image_url": "https://s3-media1.fl.yelpcdn.com/bphoto/KZwZcngsw-pORq6bQghHVw/o.jpg", "is_closed": false, "url": "https://www.yelp.com/biz/falafel-tarboosh-new-york?adjust_creative=9gNmiWYX8uTbFBeTTvJMdA&utm_campaign=yelp_api_v3&utm_medium=api_v3_business_search&utm_source=9gNmiWYX8uTbFBeTTvJMdA", "review_count": 121, "categories": [{"alias": "falafel", "title": "Falafel"}, {"alias": "hotdogs", "title": "Fast Food"}], "rating": 4.0, "coordinates": {"latitude": 40.824644114832495, "longitude": -73.94780920000001}, "transactions": ["delivery", "pickup"], "price": "$", "location": {"address1": "1701 Amsterdam Ave", "address2": "", "address3": "", "city": "New York", "zip_code": "10031", "country": "US", "state": "NY", "display_address": ["1701 Amsterdam Ave", "New York, NY 10031"]}, "phone": "+12122344434", "display_phone": "(212) 234-4434", "distance": 7506.894831874031}, {"id": "2N1y8Cv7R92lDYia_eruCw", "alias": "platter-king-north-bergen", "name": "Platter King", "image_url": "https://s3-media4.fl.yelpcdn.com/bphoto/Rfa0i5WEAB9jvX-YHiO4sQ/o.jpg", "is_closed": false, "url": "https://www.yelp.com/biz/platter-king-north-bergen?adjust_creative=9gNmiWYX8uTbFBeTTvJMdA&utm_campaign=yelp_api_v3&utm_medium=api_v3_business_search&utm_source=9gNmiWYX8uTbFBeTTvJMdA", "review_count": 197, "categories": [{"alias": "salad", "title": "Salad"}, {"alias": "halal", "title": "Halal"}, {"alias": "mediterranean", "title": "Mediterranean"}], "rating": 4.0, "coordinates": {"latitude": 40.80032, "longitude": -74.00733}, "transactions": ["delivery", "pickup"], "price": "$", "location": {"address1": "7704 Bergenline Ave", "address2": null, "address3": "", "city": "North Bergen", "zip_code": "07047", "country": "US", "state": "NJ", "display_address": ["7704 Bergenline Ave", "North Bergen, NJ 07047"]}, "phone": "+12017585572", "display_phone": "(201) 758-5572", "distance": 5578.952528385076}, {"id": "Pl7usBOnUHmpCGWgD4J0Mg", "alias": "eata-pita-new-york", "name": "Eata Pita", "image_url": "https://s3-media4.fl.yelpcdn.com/bphoto/kVFRiQlkN-pN3NZhBKBVhA/o.jpg", "is_closed": false, "url": "https://www.yelp.com/biz/eata-pita-new-york?adjust_creative=9gNmiWYX8uTbFBeTTvJMdA&utm_campaign=yelp_api_v3&utm_medium=api_v3_business_search&utm_source=9gNmiWYX8uTbFBeTTvJMdA", "review_count": 96, "categories": [{"alias": "mideastern", "title": "Middle Eastern"}, {"alias": "sandwiches", "title": "Sandwiches"}, {"alias": "halal", "title": "Halal"}], "rating": 3.0, "coordinates": {"latitude": 40.7524183, "longitude": -73.977933}, "transactions": ["delivery", "pickup"], "price": "$$", "location": {"address1": "89 E 42nd St", "address2": "", "address3": "Grand Central", "city": "New York", "zip_code": "10017", "country": "US", "state": "NY", "display_address": ["89 E 42nd St", "Grand Central", "New York, NY 10017"]}, "phone": "+12122972500", "display_phone": "(212) 297-2500", "distance": 964.5385984923118}, {"id": "afDO1Zj6TA8QEAAFdUxD3A", "alias": "simply-stix-hackensack", "name": "Simply Stix", "image_url": "https://s3-media1.fl.yelpcdn.com/bphoto/Y5x7ABX5czcqsK07Wt6iPA/o.jpg", "is_closed": false, "url": "https://www.yelp.com/biz/simply-stix-hackensack?adjust_creative=9gNmiWYX8uTbFBeTTvJMdA&utm_campaign=yelp_api_v3&utm_medium=api_v3_business_search&utm_source=9gNmiWYX8uTbFBeTTvJMdA", "review_count": 23, "categories": [{"alias": "greek", "title": "Greek"}, {"alias": "mediterranean", "title": "Mediterranean"}, {"alias": "hotdogs", "title": "Fast Food"}], "rating": 4.5, "coordinates": {"latitude": 40.883479292319635, "longitude": -74.0433101}, "transactions": ["delivery", "pickup"], "location": {"address1": "163 B Main St", "address2": null, "address3": "", "city": "Hackensack", "zip_code": "07601", "country": "US", "state": "NJ", "display_address": ["163 B Main St", "Hackensack, NJ 07601"]}, "phone": "+12018808853", "display_phone": "(201) 880-8853", "distance": 15150.780492774265}, {"id": "8mZ6fE9n_mK59mJ_MYtrSQ", "alias": "mimis-hummus-brooklyn", "name": "Mimi's Hummus", "image_url": "https://s3-media1.fl.yelpcdn.com/bphoto/cLlOYyYjUPibsd_hE1M6zg/o.jpg", "is_closed": false, "url": "https://www.yelp.com/biz/mimis-hummus-brooklyn?adjust_creative=9gNmiWYX8uTbFBeTTvJMdA&utm_campaign=yelp_api_v3&utm_medium=api_v3_business_search&utm_source=9gNmiWYX8uTbFBeTTvJMdA", "review_count": 376, "categories": [{"alias": "mediterranean", "title": "Mediterranean"}, {"alias": "mideastern", "title": "Middle Eastern"}, {"alias": "moroccan", "title": "Moroccan"}], "rating": 4.0, "coordinates": {"latitude": 40.64035, "longitude": -73.9667}, "transactions": ["delivery", "pickup"], "price": "$$", "location": {"address1": "1209 Cortelyou Rd", "address2": "", "address3": "", "city": "Brooklyn", "zip_code": "11218", "country": "US", "state": "NY", "display_address": ["1209 Cortelyou Rd", "Brooklyn, NY 11218"]}, "phone": "+17182844444", "display_phone": "(718) 284-4444", "distance": 13216.855248823837}, {"id": "nGlWkpmdiBPUzCpIBQQfRw", "alias": "legend-gyro-newark", "name": "Legend Gyro", "image_url": "https://s3-media2.fl.yelpcdn.com/bphoto/X2rDpDL7VcY3UP4rjqckbw/o.jpg", "is_closed": false, "url": "https://www.yelp.com/biz/legend-gyro-newark?adjust_creative=9gNmiWYX8uTbFBeTTvJMdA&utm_campaign=yelp_api_v3&utm_medium=api_v3_business_search&utm_source=9gNmiWYX8uTbFBeTTvJMdA", "review_count": 5, "categories": [{"alias": "greek", "title": "Greek"}, {"alias": "halal", "title": "Halal"}], "rating": 4.5, "coordinates": {"latitude": 40.750979, "longitude": -74.1703969}, "transactions": ["delivery", "pickup"], "location": {"address1": "25 Bdwy", "address2": "Fl 1", "address3": null, "city": "Newark", "zip_code": "07104", "country": "US", "state": "NJ", "display_address": ["25 Bdwy", "Fl 1", "Newark, NJ 07104"]}, "phone": "+19738782373", "display_phone": "(973) 878-2373", "distance": 16940.014350865553}, {"id": "9_mINg1vbsvC1fhvpwB3Aw", "alias": "lexington-grill-new-york", "name": "Lexington Grill", "image_url": "https://s3-media2.fl.yelpcdn.com/bphoto/216E1iPt1-xPVz0_KwHJjw/o.jpg", "is_closed": false, "url": "https://www.yelp.com/biz/lexington-grill-new-york?adjust_creative=9gNmiWYX8uTbFBeTTvJMdA&utm_campaign=yelp_api_v3&utm_medium=api_v3_business_search&utm_source=9gNmiWYX8uTbFBeTTvJMdA", "review_count": 9, "categories": [{"alias": "greek", "title": "Greek"}], "rating": 3.0, "coordinates": {"latitude": 40.78137, "longitude": -73.95439}, "transactions": ["delivery"], "price": "$$", "location": {"address1": "1332 Lexington Ave", "address2": "", "address3": "", "city": "New York", "zip_code": "10128", "country": "US", "state": "NY", "display_address": ["1332 Lexington Ave", "New York, NY 10128"]}, "phone": "+12129871500", "display_phone": "(212) 987-1500", "distance": 2767.20233464179}, {"id": "p66TjoKuAluFSnrtdqtHlw", "alias": "chicken-feastin-brooklyn", "name": "Chicken Feastin", "image_url": "https://s3-media4.fl.yelpcdn.com/bphoto/VgvjAdEy5UyZeceClFmpFg/o.jpg", "is_closed": false, "url": "https://www.yelp.com/biz/chicken-feastin-brooklyn?adjust_creative=9gNmiWYX8uTbFBeTTvJMdA&utm_campaign=yelp_api_v3&utm_medium=api_v3_business_search&utm_source=9gNmiWYX8uTbFBeTTvJMdA", "review_count": 51, "categories": [{"alias": "chickenshop", "title": "Chicken Shop"}, {"alias": "greek", "title": "Greek"}, {"alias": "tradamerican", "title": "American (Traditional)"}], "rating": 4.5, "coordinates": {"latitude": 40.687158, "longitude": -73.944282}, "transactions": ["delivery", "pickup"], "location": {"address1": "561 Gates Ave", "address2": null, "address3": "", "city": "Brooklyn", "zip_code": "11221", "country": "US", "state": "NY", "display_address": ["561 Gates Ave", "Brooklyn, NY 11221"]}, "phone": "+17186769992", "display_phone": "(718) 676-9992", "distance": 8286.930273692195}, {"id": "iJX38wGhQFSQO3kchuRcMQ", "alias": "fayrooz-hookah-lounge-and-bar-astoria-2", "name": "Fayrooz Hookah Lounge & Bar", "image_url": "https://s3-media3.fl.yelpcdn.com/bphoto/Hvh3pYGaK-lOMObnj0QqNQ/o.jpg", "is_closed": false, "url": "https://www.yelp.com/biz/fayrooz-hookah-lounge-and-bar-astoria-2?adjust_creative=9gNmiWYX8uTbFBeTTvJMdA&utm_campaign=yelp_api_v3&utm_medium=api_v3_business_search&utm_source=9gNmiWYX8uTbFBeTTvJMdA", "review_count": 219, "categories": [{"alias": "halal", "title": "Halal"}, {"alias": "hookah_bars", "title": "Hookah Bars"}, {"alias": "mideastern", "title": "Middle Eastern"}], "rating": 3.0, "coordinates": {"latitude": 40.765304, "longitude": -73.914045}, "transactions": ["delivery", "pickup"], "price": "$$", "location": {"address1": "28-08 Steinway St", "address2": null, "address3": "", "city": "Astoria", "zip_code": "11103", "country": "US", "state": "NY", "display_address": ["28-08 Steinway St", "Astoria, NY 11103"]}, "phone": "+17182047667", "display_phone": "(718) 204-7667", "distance": 4726.149265659987}, {"id": "AzHbXpKevHaeHPhJHE8UnQ", "alias": "little-morocco-astoria", "name": "Little Morocco", "image_url": "https://s3-media3.fl.yelpcdn.com/bphoto/-CH4oBXe5uVFH2Czw_kHbQ/o.jpg", "is_closed": false, "url": "https://www.yelp.com/biz/little-morocco-astoria?adjust_creative=9gNmiWYX8uTbFBeTTvJMdA&utm_campaign=yelp_api_v3&utm_medium=api_v3_business_search&utm_source=9gNmiWYX8uTbFBeTTvJMdA", "review_count": 148, "categories": [{"alias": "moroccan", "title": "Moroccan"}], "rating": 4.0, "coordinates": {"latitude": 40.767964, "longitude": -73.911346}, "transactions": ["delivery", "pickup"], "price": "$", "location": {"address1": "2439 Steinway St", "address2": "", "address3": "", "city": "Astoria", "zip_code": "11103", "country": "US", "state": "NY", "display_address": ["2439 Steinway St", "Astoria, NY 11103"]}, "phone": "+17182048118", "display_phone": "(718) 204-8118", "distance": 4995.254673946661}, {"id": "C1Y1CsldMdRGsjVZdBAigA", "alias": "saj-lebanese-cuisine-and-hookah-lounge-paterson-2", "name": "Saj Lebanese Cuisine & Hookah Lounge", "image_url": "https://s3-media4.fl.yelpcdn.com/bphoto/ttPDxF9zPZIuVd_PwpGMlw/o.jpg", "is_closed": false, "url": "https://www.yelp.com/biz/saj-lebanese-cuisine-and-hookah-lounge-paterson-2?adjust_creative=9gNmiWYX8uTbFBeTTvJMdA&utm_campaign=yelp_api_v3&utm_medium=api_v3_business_search&utm_source=9gNmiWYX8uTbFBeTTvJMdA", "review_count": 41, "categories": [{"alias": "lebanese", "title": "Lebanese"}, {"alias": "hookah_bars", "title": "Hookah Bars"}], "rating": 4.0, "coordinates": {"latitude": 40.8933175, "longitude": -74.1584261}, "transactions": ["delivery", "pickup"], "price": "$$", "location": {"address1": "1009 Main St", "address2": "", "address3": null, "city": "Paterson", "zip_code": "07503", "country": "US", "state": "NJ", "display_address": ["1009 Main St", "Paterson, NJ 07503"]}, "phone": "+18622399955", "display_phone": "(862) 239-9955", "distance": 21794.092107999335}, {"id": "_7qt2EodhYIs0C6TLm7jJA", "alias": "the-holy-grill-brooklyn-2", "name": "The Holy Grill", "image_url": "https://s3-media2.fl.yelpcdn.com/bphoto/GHEDRLpPr_KkoFkcUfIW-g/o.jpg", "is_closed": false, "url": "https://www.yelp.com/biz/the-holy-grill-brooklyn-2?adjust_creative=9gNmiWYX8uTbFBeTTvJMdA&utm_campaign=yelp_api_v3&utm_medium=api_v3_business_search&utm_source=9gNmiWYX8uTbFBeTTvJMdA", "review_count": 10, "categories": [{"alias": "burgers", "title": "Burgers"}, {"alias": "greek", "title": "Greek"}, {"alias": "halal", "title": "Halal"}], "rating": 4.0, "coordinates": {"latitude": 40.711787, "longitude": -73.941087}, "transactions": ["delivery", "pickup"], "location": {"address1": "810 Grand St", "address2": "", "address3": null, "city": "Brooklyn", "zip_code": "11211", "country": "US", "state": "NY", "display_address": ["810 Grand St", "Brooklyn, NY 11211"]}, "phone": "", "display_phone": "", "distance": 5790.170933633545}, {"id": "3o0Jp9ttSpP1wu7Focs7xg", "alias": "mamouns-falafel-new-york-10", "name": "Mamoun's Falafel", "image_url": "https://s3-media3.fl.yelpcdn.com/bphoto/6E47U63L0A48OA-bmyMH-w/o.jpg", "is_closed": false, "url": "https://www.yelp.com/biz/mamouns-falafel-new-york-10?adjust_creative=9gNmiWYX8uTbFBeTTvJMdA&utm_campaign=yelp_api_v3&utm_medium=api_v3_business_search&utm_source=9gNmiWYX8uTbFBeTTvJMdA", "review_count": 1283, "categories": [{"alias": "mideastern", "title": "Middle Eastern"}, {"alias": "falafel", "title": "Falafel"}, {"alias": "sandwiches", "title": "Sandwiches"}], "rating": 4.0, "coordinates": {"latitude": 40.728814, "longitude": -73.98845088123514}, "transactions": ["delivery", "pickup"], "price": "$$", "location": {"address1": "30 St Marks Pl", "address2": null, "address3": "", "city": "New York", "zip_code": "10003", "country": "US", "state": "NY", "display_address": ["30 St Marks Pl", "New York, NY 10003"]}, "phone": "+16468705785", "display_phone": "(646) 870-5785", "distance": 3731.76326271642}, {"id": "vKMMLcGZ3TpJJ8Jr3cl_pg", "alias": "nouri-cafe-paterson-4", "name": "nouri.cafe", "image_url": "https://s3-media2.fl.yelpcdn.com/bphoto/vv7vyIk2h1YEdhiBsQ_3VA/o.jpg", "is_closed": false, "url": "https://www.yelp.com/biz/nouri-cafe-paterson-4?adjust_creative=9gNmiWYX8uTbFBeTTvJMdA&utm_campaign=yelp_api_v3&utm_medium=api_v3_business_search&utm_source=9gNmiWYX8uTbFBeTTvJMdA", "review_count": 60, "categories": [{"alias": "mediterranean", "title": "Mediterranean"}, {"alias": "mideastern", "title": "Middle Eastern"}, {"alias": "syrian", "title": "Syrian"}], "rating": 4.5, "coordinates": {"latitude": 40.89381702393223, "longitude": -74.1585019431433}, "transactions": ["delivery", "pickup"], "location": {"address1": "1003 Main St", "address2": null, "address3": "", "city": "Paterson", "zip_code": "07503", "country": "US", "state": "NJ", "display_address": ["1003 Main St", "Paterson, NJ 07503"]}, "phone": "+19738818819", "display_phone": "(973) 881-8819", "distance": 21836.746001706022}, {"id": "80YK6JElg_pHjlHLlOvkmw", "alias": "istanbul-park-brooklyn", "name": "Istanbul Park", "image_url": "https://s3-media1.fl.yelpcdn.com/bphoto/UBWXtQPsKozFGmQpghl5gQ/o.jpg", "is_closed": false, "url": "https://www.yelp.com/biz/istanbul-park-brooklyn?adjust_creative=9gNmiWYX8uTbFBeTTvJMdA&utm_campaign=yelp_api_v3&utm_medium=api_v3_business_search&utm_source=9gNmiWYX8uTbFBeTTvJMdA", "review_count": 361, "categories": [{"alias": "turkish", "title": "Turkish"}, {"alias": "mediterranean", "title": "Mediterranean"}, {"alias": "halal", "title": "Halal"}], "rating": 3.5, "coordinates": {"latitude": 40.6678, "longitude": -73.98048}, "transactions": ["delivery", "pickup"], "price": "$$", "location": {"address1": "293 7th Ave", "address2": "", "address3": "", "city": "Brooklyn", "zip_code": "11215", "country": "US", "state": "NY", "display_address": ["293 7th Ave", "Brooklyn, NY 11215"]}, "phone": "+17188323400", "display_phone": "(718) 832-3400", "distance": 10199.4488845452}, {"id": "vJM8r7tpcKjeTnOjBwOv7Q", "alias": "falafel-station-jersey-city-2", "name": "Falafel Station", "image_url": "https://s3-media4.fl.yelpcdn.com/bphoto/deroHXQtOhD4YTwqZ1_NNw/o.jpg", "is_closed": false, "url": "https://www.yelp.com/biz/falafel-station-jersey-city-2?adjust_creative=9gNmiWYX8uTbFBeTTvJMdA&utm_campaign=yelp_api_v3&utm_medium=api_v3_business_search&utm_source=9gNmiWYX8uTbFBeTTvJMdA", "review_count": 3, "categories": [{"alias": "falafel", "title": "Falafel"}, {"alias": "juicebars", "title": "Juice Bars & Smoothies"}, {"alias": "sandwiches", "title": "Sandwiches"}], "rating": 4.5, "coordinates": {"latitude": 40.72043, "longitude": -74.04352}, "transactions": ["delivery", "pickup"], "location": {"address1": "138 Newark Ave", "address2": "", "address3": null, "city": "Jersey City", "zip_code": "07302", "country": "US", "state": "NJ", "display_address": ["138 Newark Ave", "Jersey City, NJ 07302"]}, "phone": "+15513424222", "display_phone": "(551) 342-4222", "distance": 7571.090344246108}, {"id": "cBUlHFB1fk2q3WmP6o7gvA", "alias": "ta\u00efm-mediterranean-kitchen-maiden-lane-new-york-3", "name": "ta\u00efm mediterranean kitchen - Maiden Lane", "image_url": "https://s3-media3.fl.yelpcdn.com/bphoto/xa1KT4NOJRkikrXNP809Pw/o.jpg", "is_closed": false, "url": "https://www.yelp.com/biz/ta%C3%AFm-mediterranean-kitchen-maiden-lane-new-york-3?adjust_creative=9gNmiWYX8uTbFBeTTvJMdA&utm_campaign=yelp_api_v3&utm_medium=api_v3_business_search&utm_source=9gNmiWYX8uTbFBeTTvJMdA", "review_count": 102, "categories": [{"alias": "mediterranean", "title": "Mediterranean"}, {"alias": "wraps", "title": "Wraps"}], "rating": 3.5, "coordinates": {"latitude": 40.70769, "longitude": -74.00767}, "transactions": ["delivery", "pickup"], "location": {"address1": "75 Maiden Ln", "address2": "", "address3": null, "city": "New York", "zip_code": "10038", "country": "US", "state": "NY", "display_address": ["75 Maiden Ln", "New York, NY 10038"]}, "phone": "+12122261248", "display_phone": "(212) 226-1248", "distance": 6545.018701159143}, {"id": "_GM0PFHcLKJI8D5ZkuVeog", "alias": "street-eats-new-york", "name": "Street Eats", "image_url": "", "is_closed": false, "url": "https://www.yelp.com/biz/street-eats-new-york?adjust_creative=9gNmiWYX8uTbFBeTTvJMdA&utm_campaign=yelp_api_v3&utm_medium=api_v3_business_search&utm_source=9gNmiWYX8uTbFBeTTvJMdA", "review_count": 1, "categories": [{"alias": "falafel", "title": "Falafel"}, {"alias": "mideastern", "title": "Middle Eastern"}, {"alias": "fooddeliveryservices", "title": "Food Delivery Services"}], "rating": 4.0, "coordinates": {"latitude": 40.71964251072998, "longitude": -73.98711060192532}, "transactions": ["delivery", "pickup"], "location": {"address1": "127 Rivington St.", "address2": null, "address3": null, "city": "New York", "zip_code": "10002", "country": "US", "state": "NY", "display_address": ["127 Rivington St.", "New York, NY 10002"]}, "phone": "+16467073883", "display_phone": "(646) 707-3883", "distance": 4637.430551063692}, {"id": "mN1358NllxfPIMjGC5WY5A", "alias": "memo-shish-kebab-brooklyn-brooklyn", "name": "Memo Shish Kebab - Brooklyn", "image_url": "https://s3-media1.fl.yelpcdn.com/bphoto/z1lGrZ6Z1yRK7GqJCz1VWA/o.jpg", "is_closed": false, "url": "https://www.yelp.com/biz/memo-shish-kebab-brooklyn-brooklyn?adjust_creative=9gNmiWYX8uTbFBeTTvJMdA&utm_campaign=yelp_api_v3&utm_medium=api_v3_business_search&utm_source=9gNmiWYX8uTbFBeTTvJMdA", "review_count": 385, "categories": [{"alias": "mideastern", "title": "Middle Eastern"}, {"alias": "mediterranean", "title": "Mediterranean"}, {"alias": "turkish", "title": "Turkish"}], "rating": 3.5, "coordinates": {"latitude": 40.610334319877, "longitude": -73.954959538747}, "transactions": ["delivery", "pickup"], "price": "$$", "location": {"address1": "1821 Kings Hwy", "address2": "", "address3": "", "city": "Brooklyn", "zip_code": "11229", "country": "US", "state": "NY", "display_address": ["1821 Kings Hwy", "Brooklyn, NY 11229"]}, "phone": "+17183398001", "display_phone": "(718) 339-8001", "distance": 16596.0903537452}, {"id": "KPRHC9snWkh8U6z4uFyL_w", "alias": "mister-greek-queens", "name": "Mister Greek", "image_url": "https://s3-media2.fl.yelpcdn.com/bphoto/gpekh9YXyonVYcZ6Y_J3CA/o.jpg", "is_closed": false, "url": "https://www.yelp.com/biz/mister-greek-queens?adjust_creative=9gNmiWYX8uTbFBeTTvJMdA&utm_campaign=yelp_api_v3&utm_medium=api_v3_business_search&utm_source=9gNmiWYX8uTbFBeTTvJMdA", "review_count": 4, "categories": [{"alias": "greek", "title": "Greek"}, {"alias": "foodtrucks", "title": "Food Trucks"}], "rating": 4.5, "coordinates": {"latitude": 40.73886146001643, "longitude": -73.87858123717503}, "transactions": [], "location": {"address1": null, "address2": null, "address3": null, "city": "Queens", "zip_code": "11373", "country": "US", "state": "NY", "display_address": ["Queens, NY 11373"]}, "phone": "", "display_phone": "", "distance": 7990.964884467904}, {"id": "PaAPTi205szsOXoDSkZR1w", "alias": "hot-pepper-cafe-new-york", "name": "Hot Pepper Cafe", "image_url": "", "is_closed": false, "url": "https://www.yelp.com/biz/hot-pepper-cafe-new-york?adjust_creative=9gNmiWYX8uTbFBeTTvJMdA&utm_campaign=yelp_api_v3&utm_medium=api_v3_business_search&utm_source=9gNmiWYX8uTbFBeTTvJMdA", "review_count": 4, "categories": [{"alias": "mideastern", "title": "Middle Eastern"}], "rating": 3.0, "coordinates": {"latitude": 40.73015, "longitude": -73.9941599}, "transactions": ["delivery"], "price": "$", "location": {"address1": "11 Waverly Pl", "address2": "", "address3": "", "city": "New York", "zip_code": "10003", "country": "US", "state": "NY", "display_address": ["11 Waverly Pl", "New York, NY 10003"]}, "phone": "+12126146965", "display_phone": "(212) 614-6965", "distance": 3832.617122636814}, {"id": "d_SRqHAXYEvKSXj4-nI5Nw", "alias": "to-laiko-astoria", "name": "To Laiko", "image_url": "https://s3-media1.fl.yelpcdn.com/bphoto/75iV3R3p5iL1qhyKnJPccw/o.jpg", "is_closed": false, "url": "https://www.yelp.com/biz/to-laiko-astoria?adjust_creative=9gNmiWYX8uTbFBeTTvJMdA&utm_campaign=yelp_api_v3&utm_medium=api_v3_business_search&utm_source=9gNmiWYX8uTbFBeTTvJMdA", "review_count": 29, "categories": [{"alias": "bakeries", "title": "Bakeries"}, {"alias": "coffee", "title": "Coffee & Tea"}, {"alias": "greek", "title": "Greek"}], "rating": 4.5, "coordinates": {"latitude": 40.7746252, "longitude": -73.91295}, "transactions": [], "price": "$", "location": {"address1": "2929 23rd Ave", "address2": null, "address3": null, "city": "Astoria", "zip_code": "11105", "country": "US", "state": "NY", "display_address": ["2929 23rd Ave", "Astoria, NY 11105"]}, "phone": "", "display_phone": "", "distance": 5068.676165050483}, {"id": "uwz0AuS6V7z6HrxZCEHoGQ", "alias": "lucky-chicken-new-york-2", "name": "Lucky Chicken", "image_url": "https://s3-media2.fl.yelpcdn.com/bphoto/AKTZj-EQv_hnTUUkIIhTJA/o.jpg", "is_closed": false, "url": "https://www.yelp.com/biz/lucky-chicken-new-york-2?adjust_creative=9gNmiWYX8uTbFBeTTvJMdA&utm_campaign=yelp_api_v3&utm_medium=api_v3_business_search&utm_source=9gNmiWYX8uTbFBeTTvJMdA", "review_count": 74, "categories": [{"alias": "bbq", "title": "Barbeque"}, {"alias": "greek", "title": "Greek"}, {"alias": "chickenshop", "title": "Chicken Shop"}], "rating": 3.0, "coordinates": {"latitude": 40.73644, "longitude": -73.97922}, "transactions": ["delivery", "pickup"], "price": "$", "location": {"address1": "377 1st Ave", "address2": "", "address3": "", "city": "New York", "zip_code": "10010", "country": "US", "state": "NY", "display_address": ["377 1st Ave", "New York, NY 10010"]}, "phone": "+12122281325", "display_phone": "(212) 228-1325", "distance": 2655.5167605203787}, {"id": "xWDk1Wymzd_-LRrDvpZAFg", "alias": "gyro-grill-rego-park", "name": "Gyro Grill", "image_url": "https://s3-media2.fl.yelpcdn.com/bphoto/7p4jdx99xbKIn3h3G75XVw/o.jpg", "is_closed": false, "url": "https://www.yelp.com/biz/gyro-grill-rego-park?adjust_creative=9gNmiWYX8uTbFBeTTvJMdA&utm_campaign=yelp_api_v3&utm_medium=api_v3_business_search&utm_source=9gNmiWYX8uTbFBeTTvJMdA", "review_count": 241, "categories": [{"alias": "greek", "title": "Greek"}, {"alias": "mediterranean", "title": "Mediterranean"}], "rating": 3.5, "coordinates": {"latitude": 40.72412, "longitude": -73.86956}, "transactions": ["delivery", "pickup"], "price": "$$", "location": {"address1": "63-02 Woodhaven Blvd", "address2": "", "address3": "", "city": "Rego Park", "zip_code": "11374", "country": "US", "state": "NY", "display_address": ["63-02 Woodhaven Blvd", "Rego Park, NY 11374"]}, "phone": "+17187790900", "display_phone": "(718) 779-0900", "distance": 9280.396658104453}, {"id": "su27bl6tqjh2ucbMc1FuvA", "alias": "lamoza-brooklyn-2", "name": "Lamoza", "image_url": "https://s3-media2.fl.yelpcdn.com/bphoto/T33WBDhy12xFRyW7uupRnw/o.jpg", "is_closed": false, "url": "https://www.yelp.com/biz/lamoza-brooklyn-2?adjust_creative=9gNmiWYX8uTbFBeTTvJMdA&utm_campaign=yelp_api_v3&utm_medium=api_v3_business_search&utm_source=9gNmiWYX8uTbFBeTTvJMdA", "review_count": 86, "categories": [{"alias": "mideastern", "title": "Middle Eastern"}, {"alias": "hookah_bars", "title": "Hookah Bars"}, {"alias": "lounges", "title": "Lounges"}], "rating": 4.0, "coordinates": {"latitude": 40.62992, "longitude": -74.028718}, "transactions": ["delivery", "pickup"], "price": "$$", "location": {"address1": "7704 3rd Ave", "address2": "", "address3": "", "city": "Brooklyn", "zip_code": "11209", "country": "US", "state": "NY", "display_address": ["7704 3rd Ave", "Brooklyn, NY 11209"]}, "phone": "+17182383625", "display_phone": "(718) 238-3625", "distance": 15212.368502787258}, {"id": "rI2AEfnQVvnFoWn2De96Qg", "alias": "saffron-restaurant-howard-beach", "name": "Saffron Restaurant", "image_url": "https://s3-media4.fl.yelpcdn.com/bphoto/Qdk2vwfsDgXuOTxg17CkqA/o.jpg", "is_closed": false, "url": "https://www.yelp.com/biz/saffron-restaurant-howard-beach?adjust_creative=9gNmiWYX8uTbFBeTTvJMdA&utm_campaign=yelp_api_v3&utm_medium=api_v3_business_search&utm_source=9gNmiWYX8uTbFBeTTvJMdA", "review_count": 354, "categories": [{"alias": "spanish", "title": "Spanish"}, {"alias": "mediterranean", "title": "Mediterranean"}, {"alias": "tapasmallplates", "title": "Tapas/Small Plates"}], "rating": 4.0, "coordinates": {"latitude": 40.6542780937095, "longitude": -73.8390364032719}, "transactions": ["delivery", "pickup"], "price": "$$", "location": {"address1": "16150 Cross Bay Blvd", "address2": "", "address3": "", "city": "Howard Beach", "zip_code": "11414", "country": "US", "state": "NY", "display_address": ["16150 Cross Bay Blvd", "Howard Beach, NY 11414"]}, "phone": "+13473924152", "display_phone": "(347) 392-4152", "distance": 16034.963384205088}, {"id": "ueuZOk-eIQj691FsizC7wg", "alias": "emir-palace-brooklyn", "name": "Emir Palace", "image_url": "https://s3-media2.fl.yelpcdn.com/bphoto/6kWM21xqO_VQmXoOppi4tg/o.jpg", "is_closed": false, "url": "https://www.yelp.com/biz/emir-palace-brooklyn?adjust_creative=9gNmiWYX8uTbFBeTTvJMdA&utm_campaign=yelp_api_v3&utm_medium=api_v3_business_search&utm_source=9gNmiWYX8uTbFBeTTvJMdA", "review_count": 15, "categories": [{"alias": "russian", "title": "Russian"}, {"alias": "uzbek", "title": "Uzbek"}, {"alias": "mideastern", "title": "Middle Eastern"}], "rating": 3.0, "coordinates": {"latitude": 40.6318092, "longitude": -73.9755707}, "transactions": ["delivery", "pickup"], "price": "$$$", "location": {"address1": "4210 18th Ave", "address2": null, "address3": "", "city": "Brooklyn", "zip_code": "11218", "country": "US", "state": "NY", "display_address": ["4210 18th Ave", "Brooklyn, NY 11218"]}, "phone": "+17184310007", "display_phone": "(718) 431-0007", "distance": 14168.23656237265}, {"id": "YLm2NzBuIZZqncRakdBZHg", "alias": "42nd-street-restaurant-and-pizza-new-york", "name": "42nd Street Restaurant and Pizza", "image_url": "https://s3-media2.fl.yelpcdn.com/bphoto/CXWtHMclz_Omlr--tRteFQ/o.jpg", "is_closed": false, "url": "https://www.yelp.com/biz/42nd-street-restaurant-and-pizza-new-york?adjust_creative=9gNmiWYX8uTbFBeTTvJMdA&utm_campaign=yelp_api_v3&utm_medium=api_v3_business_search&utm_source=9gNmiWYX8uTbFBeTTvJMdA", "review_count": 105, "categories": [{"alias": "pizza", "title": "Pizza"}, {"alias": "greek", "title": "Greek"}, {"alias": "sandwiches", "title": "Sandwiches"}], "rating": 3.0, "coordinates": {"latitude": 40.7619413, "longitude": -74.0001028}, "transactions": ["delivery", "pickup"], "price": "$$", "location": {"address1": "647 W 42nd St", "address2": "", "address3": "", "city": "New York", "zip_code": "10036", "country": "US", "state": "NY", "display_address": ["647 W 42nd St", "New York, NY 10036"]}, "phone": "+12125944312", "display_phone": "(212) 594-4312", "distance": 2589.5945435150925}, {"id": "AIcyWYtw8_lP0P3qHu2_8g", "alias": "ay-kebab-brooklyn-2", "name": "Ay Kebab", "image_url": "https://s3-media4.fl.yelpcdn.com/bphoto/IZMFc6bprgT29TlTM5cOJg/o.jpg", "is_closed": false, "url": "https://www.yelp.com/biz/ay-kebab-brooklyn-2?adjust_creative=9gNmiWYX8uTbFBeTTvJMdA&utm_campaign=yelp_api_v3&utm_medium=api_v3_business_search&utm_source=9gNmiWYX8uTbFBeTTvJMdA", "review_count": 70, "categories": [{"alias": "turkish", "title": "Turkish"}, {"alias": "mediterranean", "title": "Mediterranean"}], "rating": 4.5, "coordinates": {"latitude": 40.622725, "longitude": -74.028674}, "transactions": ["delivery", "pickup"], "price": "$$", "location": {"address1": "8602 4th Ave", "address2": null, "address3": "", "city": "Brooklyn", "zip_code": "11209", "country": "US", "state": "NY", "display_address": ["8602 4th Ave", "Brooklyn, NY 11209"]}, "phone": "+17184911300", "display_phone": "(718) 491-1300", "distance": 15969.014960856586}, {"id": "cg7IxNN5wyrXVP5tkCaZRg", "alias": "miss-ada-brooklyn-2", "name": "Miss Ada", "image_url": "https://s3-media1.fl.yelpcdn.com/bphoto/rEhMsP_8cELMDB_bMCR4ZQ/o.jpg", "is_closed": false, "url": "https://www.yelp.com/biz/miss-ada-brooklyn-2?adjust_creative=9gNmiWYX8uTbFBeTTvJMdA&utm_campaign=yelp_api_v3&utm_medium=api_v3_business_search&utm_source=9gNmiWYX8uTbFBeTTvJMdA", "review_count": 413, "categories": [{"alias": "mediterranean", "title": "Mediterranean"}, {"alias": "cocktailbars", "title": "Cocktail Bars"}], "rating": 4.5, "coordinates": {"latitude": 40.689436, "longitude": -73.9723809}, "transactions": ["delivery", "pickup"], "price": "$$$", "location": {"address1": "184 Dekalb Ave", "address2": "", "address3": null, "city": "Brooklyn", "zip_code": "11205", "country": "US", "state": "NY", "display_address": ["184 Dekalb Ave", "Brooklyn, NY 11205"]}, "phone": "", "display_phone": "", "distance": 7758.1884808232435}, {"id": "ZoVVcwwbCxIhEmstLWrRvw", "alias": "the-hummus-and-pita-new-york-8", "name": "The Hummus & Pita", "image_url": "https://s3-media4.fl.yelpcdn.com/bphoto/aAJS9KEJpbkkgd8hgditIQ/o.jpg", "is_closed": false, "url": "https://www.yelp.com/biz/the-hummus-and-pita-new-york-8?adjust_creative=9gNmiWYX8uTbFBeTTvJMdA&utm_campaign=yelp_api_v3&utm_medium=api_v3_business_search&utm_source=9gNmiWYX8uTbFBeTTvJMdA", "review_count": 205, "categories": [{"alias": "mediterranean", "title": "Mediterranean"}, {"alias": "mideastern", "title": "Middle Eastern"}], "rating": 4.0, "coordinates": {"latitude": 40.7146406, "longitude": -74.00677421396293}, "transactions": ["delivery", "pickup"], "price": "$", "location": {"address1": "79 Chambers St", "address2": "", "address3": "", "city": "New York", "zip_code": "10007", "country": "US", "state": "NY", "display_address": ["79 Chambers St", "New York, NY 10007"]}, "phone": "+12125716700", "display_phone": "(212) 571-6700", "distance": 5860.505965991074}, {"id": "6mTJLepWKf-T2fTAO2i9cg", "alias": "manol-s-gyro-new-york", "name": "Manol\u2019s Gyro", "image_url": "https://s3-media3.fl.yelpcdn.com/bphoto/rQWDq6QFzG-_6IFVWMt1_Q/o.jpg", "is_closed": false, "url": "https://www.yelp.com/biz/manol-s-gyro-new-york?adjust_creative=9gNmiWYX8uTbFBeTTvJMdA&utm_campaign=yelp_api_v3&utm_medium=api_v3_business_search&utm_source=9gNmiWYX8uTbFBeTTvJMdA", "review_count": 1, "categories": [{"alias": "foodtrucks", "title": "Food Trucks"}, {"alias": "greek", "title": "Greek"}], "rating": 5.0, "coordinates": {"latitude": 40.7618249837142, "longitude": -73.9245112515602}, "transactions": [], "location": {"address1": null, "address2": null, "address3": null, "city": "New York", "zip_code": "11106", "country": "US", "state": "NY", "display_address": ["New York, NY 11106"]}, "phone": "+13475369821", "display_phone": "(347) 536-9821", "distance": 3806.7860642110204}, {"id": "JtmzTnEDpS03tMytXOPUQw", "alias": "nyc-falafel-new-york-2", "name": "NYC Falafel", "image_url": "https://s3-media2.fl.yelpcdn.com/bphoto/TfPxftdRQyioJfqSRZEWfg/o.jpg", "is_closed": false, "url": "https://www.yelp.com/biz/nyc-falafel-new-york-2?adjust_creative=9gNmiWYX8uTbFBeTTvJMdA&utm_campaign=yelp_api_v3&utm_medium=api_v3_business_search&utm_source=9gNmiWYX8uTbFBeTTvJMdA", "review_count": 65, "categories": [{"alias": "halal", "title": "Halal"}, {"alias": "falafel", "title": "Falafel"}, {"alias": "breakfast_brunch", "title": "Breakfast & Brunch"}], "rating": 4.0, "coordinates": {"latitude": 40.7225149191837, "longitude": -73.9890300482512}, "transactions": ["delivery", "pickup"], "price": "$", "location": {"address1": "201 Allen St", "address2": "", "address3": "", "city": "New York", "zip_code": "10002", "country": "US", "state": "NY", "display_address": ["201 Allen St", "New York, NY 10002"]}, "phone": "+16469186877", "display_phone": "(646) 918-6877", "distance": 4393.5949769517965}, {"id": "9meUV_lq0wzBJ1cNQWm6ew", "alias": "taste-of-akko-brooklyn", "name": "Taste of Akko", "image_url": "https://s3-media2.fl.yelpcdn.com/bphoto/A9mDJgVP-V-FDV_s79AwWA/o.jpg", "is_closed": false, "url": "https://www.yelp.com/biz/taste-of-akko-brooklyn?adjust_creative=9gNmiWYX8uTbFBeTTvJMdA&utm_campaign=yelp_api_v3&utm_medium=api_v3_business_search&utm_source=9gNmiWYX8uTbFBeTTvJMdA", "review_count": 1, "categories": [{"alias": "kosher", "title": "Kosher"}, {"alias": "mideastern", "title": "Middle Eastern"}, {"alias": "falafel", "title": "Falafel"}], "rating": 5.0, "coordinates": {"latitude": 40.615409, "longitude": -73.963656}, "transactions": ["delivery", "pickup"], "location": {"address1": "1724 Coney Island Ave", "address2": "", "address3": null, "city": "Brooklyn", "zip_code": "11230", "country": "US", "state": "NY", "display_address": ["1724 Coney Island Ave", "Brooklyn, NY 11230"]}, "phone": "+17185522818", "display_phone": "(718) 552-2818", "distance": 15995.9453021177}, {"id": "_4ztTCCumLK79ZJkNqL3ZQ", "alias": "blue-staten-island", "name": "Blue", "image_url": "https://s3-media1.fl.yelpcdn.com/bphoto/mPW1UARnFI0rTpuq97gtGA/o.jpg", "is_closed": false, "url": "https://www.yelp.com/biz/blue-staten-island?adjust_creative=9gNmiWYX8uTbFBeTTvJMdA&utm_campaign=yelp_api_v3&utm_medium=api_v3_business_search&utm_source=9gNmiWYX8uTbFBeTTvJMdA", "review_count": 456, "categories": [{"alias": "mediterranean", "title": "Mediterranean"}, {"alias": "seafood", "title": "Seafood"}, {"alias": "asianfusion", "title": "Asian Fusion"}], "rating": 4.0, "coordinates": {"latitude": 40.645338, "longitude": -74.107791}, "transactions": ["delivery", "pickup"], "price": "$$$", "location": {"address1": "1115 Richmond Ter", "address2": "", "address3": "", "city": "Staten Island", "zip_code": "10310", "country": "US", "state": "NY", "display_address": ["1115 Richmond Ter", "Staten Island, NY 10310"]}, "phone": "+17182737777", "display_phone": "(718) 273-7777", "distance": 17204.09236462651}, {"id": "mXLrVoEi80WZaZ3agBP5Jw", "alias": "bijans-brooklyn-2", "name": "Bijan's", "image_url": "https://s3-media2.fl.yelpcdn.com/bphoto/VJmLtQJ2tXq9qjlhGGMVxg/o.jpg", "is_closed": false, "url": "https://www.yelp.com/biz/bijans-brooklyn-2?adjust_creative=9gNmiWYX8uTbFBeTTvJMdA&utm_campaign=yelp_api_v3&utm_medium=api_v3_business_search&utm_source=9gNmiWYX8uTbFBeTTvJMdA", "review_count": 649, "categories": [{"alias": "newamerican", "title": "American (New)"}, {"alias": "cocktailbars", "title": "Cocktail Bars"}, {"alias": "mediterranean", "title": "Mediterranean"}], "rating": 4.0, "coordinates": {"latitude": 40.68803, "longitude": -73.98671}, "transactions": ["delivery", "restaurant_reservation", "pickup"], "price": "$$", "location": {"address1": "81 Hoyt St", "address2": "", "address3": "", "city": "Brooklyn", "zip_code": "11211", "country": "US", "state": "NY", "display_address": ["81 Hoyt St", "Brooklyn, NY 11211"]}, "phone": "+17188555574", "display_phone": "(718) 855-5574", "distance": 8044.883215452815}, {"id": "Zr4LCyGTU998s6lSL_D-8Q", "alias": "ukus-astoria", "name": "Ukus", "image_url": "https://s3-media2.fl.yelpcdn.com/bphoto/AYymDuMW1dNGC38DlQ3Xwg/o.jpg", "is_closed": false, "url": "https://www.yelp.com/biz/ukus-astoria?adjust_creative=9gNmiWYX8uTbFBeTTvJMdA&utm_campaign=yelp_api_v3&utm_medium=api_v3_business_search&utm_source=9gNmiWYX8uTbFBeTTvJMdA", "review_count": 83, "categories": [{"alias": "modern_european", "title": "Modern European"}, {"alias": "mediterranean", "title": "Mediterranean"}], "rating": 4.0, "coordinates": {"latitude": 40.762977451086, "longitude": -73.9131711423397}, "transactions": [], "price": "$$", "location": {"address1": "42-08 30th Ave", "address2": "", "address3": "", "city": "Astoria", "zip_code": "11103", "country": "US", "state": "NY", "display_address": ["42-08 30th Ave", "Astoria, NY 11103"]}, "phone": "+17182678587", "display_phone": "(718) 267-8587", "distance": 4769.901588199496}], "total": 701, "region": {"center": {"longitude": -73.96957397460938, "latitude": 40.75917470627005}}}