{"businesses": [{"id": "zlV9BsoqHCdpewbdliYz4Q", "alias": "supergyro-new-york", "name": "Supergyro", "image_url": "", "is_closed": false, "url": "https://www.yelp.com/biz/supergyro-new-york?adjust_creative=9gNmiWYX8uTbFBeTTvJMdA&utm_campaign=yelp_api_v3&utm_medium=api_v3_business_search&utm_source=9gNmiWYX8uTbFBeTTvJMdA", "review_count": 4, "categories": [{"alias": "mediterranean", "title": "Mediterranean"}, {"alias": "mexican", "title": "Mexican"}], "rating": 4.0, "coordinates": {"latitude": 40.79525, "longitude": -73.94848}, "transactions": ["pickup", "delivery"], "location": {"address1": "1624 Madison Ave", "address2": null, "address3": "", "city": "New York", "zip_code": "10029", "country": "US", "state": "NY", "display_address": ["1624 Madison Ave", "New York, NY 10029"]}, "phone": "+16464766842", "display_phone": "(646) 476-6842", "distance": 4388.485169470781}, {"id": "gvPq0ENeKHpugUUxkAtRaw", "alias": "brooklyn-kabab-brooklyn", "name": "Brooklyn Kabab", "image_url": "https://s3-media2.fl.yelpcdn.com/bphoto/VM2krTsscay7iVS2vtPovg/o.jpg", "is_closed": false, "url": "https://www.yelp.com/biz/brooklyn-kabab-brooklyn?adjust_creative=9gNmiWYX8uTbFBeTTvJMdA&utm_campaign=yelp_api_v3&utm_medium=api_v3_business_search&utm_source=9gNmiWYX8uTbFBeTTvJMdA", "review_count": 8, "categories": [{"alias": "mideastern", "title": "Middle Eastern"}], "rating": 5.0, "coordinates": {"latitude": 40.6335, "longitude": -74.0207099}, "transactions": [], "location": {"address1": "6825 5th Ave", "address2": "", "address3": null, "city": "Brooklyn", "zip_code": "11220", "country": "US", "state": "NY", "display_address": ["6825 5th Ave", "Brooklyn, NY 11220"]}, "phone": "+19292922001", "display_phone": "(929) 292-2001", "distance": 14625.870581756928}, {"id": "FCJaZeBoeeM5F2ZhfzO0sA", "alias": "crave-astoria-44", "name": "Crave", "image_url": "https://s3-media2.fl.yelpcdn.com/bphoto/mssIbSqloDGfSnZPbAmXaQ/o.jpg", "is_closed": false, "url": "https://www.yelp.com/biz/crave-astoria-44?adjust_creative=9gNmiWYX8uTbFBeTTvJMdA&utm_campaign=yelp_api_v3&utm_medium=api_v3_business_search&utm_source=9gNmiWYX8uTbFBeTTvJMdA", "review_count": 369, "categories": [{"alias": "greek", "title": "Greek"}, {"alias": "burgers", "title": "Burgers"}, {"alias": "fishnchips", "title": "Fish & Chips"}], "rating": 3.5, "coordinates": {"latitude": 40.765631, "longitude": -73.9166717}, "transactions": ["pickup", "delivery"], "price": "$$", "location": {"address1": "28-55 36th St", "address2": "", "address3": "", "city": "Astoria", "zip_code": "11103", "country": "US", "state": "NY", "display_address": ["28-55 36th St", "Astoria, NY 11103"]}, "phone": "+17187264976", "display_phone": "(718) 726-4976", "distance": 4476.871209323633}, {"id": "U1MkaYLx7PL8qZbgi4BsCQ", "alias": "the-green-chicpea-newark-2", "name": "The Green Chicpea", "image_url": "https://s3-media2.fl.yelpcdn.com/bphoto/QugRYeR9SOttfOndb5_yDw/o.jpg", "is_closed": false, "url": "https://www.yelp.com/biz/the-green-chicpea-newark-2?adjust_creative=9gNmiWYX8uTbFBeTTvJMdA&utm_campaign=yelp_api_v3&utm_medium=api_v3_business_search&utm_source=9gNmiWYX8uTbFBeTTvJMdA", "review_count": 200, "categories": [{"alias": "mideastern", "title": "Middle Eastern"}, {"alias": "salad", "title": "Salad"}, {"alias": "falafel", "title": "Falafel"}], "rating": 4.5, "coordinates": {"latitude": 40.7405335797211, "longitude": -74.17134963295875}, "transactions": ["pickup", "delivery"], "price": "$", "location": {"address1": "59 Halsey St", "address2": "", "address3": "", "city": "Newark", "zip_code": "07102", "country": "US", "state": "NJ", "display_address": ["59 Halsey St", "Newark, NJ 07102"]}, "phone": "+18622401500", "display_phone": "(862) 240-1500", "distance": 17122.990388017784}, {"id": "HcWm-9ZZu2_brnuRxN5Gpg", "alias": "tutt-heights-brooklyn", "name": "Tutt  Heights", "image_url": "https://s3-media4.fl.yelpcdn.com/bphoto/4YFITND1bumG42Nc2nSD5Q/o.jpg", "is_closed": false, "url": "https://www.yelp.com/biz/tutt-heights-brooklyn?adjust_creative=9gNmiWYX8uTbFBeTTvJMdA&utm_campaign=yelp_api_v3&utm_medium=api_v3_business_search&utm_source=9gNmiWYX8uTbFBeTTvJMdA", "review_count": 250, "categories": [{"alias": "mideastern", "title": "Middle Eastern"}, {"alias": "sandwiches", "title": "Sandwiches"}], "rating": 4.0, "coordinates": {"latitude": 40.70021198326452, "longitude": -73.99331599999907}, "transactions": ["pickup", "delivery"], "price": "$", "location": {"address1": "47 Hicks St", "address2": "", "address3": "", "city": "Brooklyn", "zip_code": "11201", "country": "US", "state": "NY", "display_address": ["47 Hicks St", "Brooklyn, NY 11201"]}, "phone": "+17187227777", "display_phone": "(718) 722-7777", "distance": 6854.779452933915}, {"id": "USQxn9Arz6tl-4AqtqpCkg", "alias": "pita-press-new-york-4", "name": "Pita Press", "image_url": "https://s3-media1.fl.yelpcdn.com/bphoto/HSKBvxj-224pCOR1LlITiA/o.jpg", "is_closed": false, "url": "https://www.yelp.com/biz/pita-press-new-york-4?adjust_creative=9gNmiWYX8uTbFBeTTvJMdA&utm_campaign=yelp_api_v3&utm_medium=api_v3_business_search&utm_source=9gNmiWYX8uTbFBeTTvJMdA", "review_count": 199, "categories": [{"alias": "greek", "title": "Greek"}, {"alias": "mediterranean", "title": "Mediterranean"}], "rating": 3.5, "coordinates": {"latitude": 40.7070857, "longitude": -74.0080807}, "transactions": ["pickup", "delivery"], "price": "$", "location": {"address1": "25 Cedar St", "address2": null, "address3": "", "city": "New York", "zip_code": "10005", "country": "US", "state": "NY", "display_address": ["25 Cedar St", "New York, NY 10005"]}, "phone": "+12123449737", "display_phone": "(212) 344-9737", "distance": 6638.863926876538}, {"id": "w6KV5eBcp7cqQek8skKbGQ", "alias": "shawarma-spot-astoria", "name": "Shawarma Spot", "image_url": "https://s3-media2.fl.yelpcdn.com/bphoto/vOumbPSHMrOfSmzyes_aIQ/o.jpg", "is_closed": false, "url": "https://www.yelp.com/biz/shawarma-spot-astoria?adjust_creative=9gNmiWYX8uTbFBeTTvJMdA&utm_campaign=yelp_api_v3&utm_medium=api_v3_business_search&utm_source=9gNmiWYX8uTbFBeTTvJMdA", "review_count": 5, "categories": [{"alias": "mideastern", "title": "Middle Eastern"}, {"alias": "mediterranean", "title": "Mediterranean"}], "rating": 4.5, "coordinates": {"latitude": 40.7559052, "longitude": -73.921274}, "transactions": ["pickup", "delivery"], "location": {"address1": "34-23 Steinway St", "address2": null, "address3": "", "city": "Astoria", "zip_code": "11101", "country": "US", "state": "NY", "display_address": ["34-23 Steinway St", "Astoria, NY 11101"]}, "phone": "+17185405099", "display_phone": "(718) 540-5099", "distance": 4094.5937864976804}, {"id": "0AoaUlXkQOlalpA3v-Ivqw", "alias": "lava-shawarma-new-york", "name": "Lava Shawarma", "image_url": "https://s3-media4.fl.yelpcdn.com/bphoto/_jwDYM4c26WWoYd7dwXM_A/o.jpg", "is_closed": false, "url": "https://www.yelp.com/biz/lava-shawarma-new-york?adjust_creative=9gNmiWYX8uTbFBeTTvJMdA&utm_campaign=yelp_api_v3&utm_medium=api_v3_business_search&utm_source=9gNmiWYX8uTbFBeTTvJMdA", "review_count": 225, "categories": [{"alias": "mediterranean", "title": "Mediterranean"}, {"alias": "mideastern", "title": "Middle Eastern"}], "rating": 4.5, "coordinates": {"latitude": 40.71964, "longitude": -73.98507}, "transactions": ["pickup", "delivery"], "price": "$", "location": {"address1": "57 Clinton St", "address2": "", "address3": null, "city": "New York", "zip_code": "10002", "country": "US", "state": "NY", "display_address": ["57 Clinton St", "New York, NY 10002"]}, "phone": "+16465594250", "display_phone": "(646) 559-4250", "distance": 4580.784443631399}, {"id": "pSd2KO8MyEXtR6fAkUmbTg", "alias": "ora-restaurant-new-york", "name": "Ora Restaurant", "image_url": "", "is_closed": false, "url": "https://www.yelp.com/biz/ora-restaurant-new-york?adjust_creative=9gNmiWYX8uTbFBeTTvJMdA&utm_campaign=yelp_api_v3&utm_medium=api_v3_business_search&utm_source=9gNmiWYX8uTbFBeTTvJMdA", "review_count": 1, "categories": [{"alias": "greek", "title": "Greek"}, {"alias": "mediterranean", "title": "Mediterranean"}], "rating": 2.0, "coordinates": {"latitude": 40.738244, "longitude": -73.988867}, "transactions": [], "location": {"address1": "39 E 19th St", "address2": null, "address3": "", "city": "New York", "zip_code": "10013", "country": "US", "state": "NY", "display_address": ["39 E 19th St", "New York, NY 10013"]}, "phone": "+12127772201", "display_phone": "(212) 777-2201", "distance": 2838.675131852582}, {"id": "ydFXOSGLl-pqLXccd6qaJQ", "alias": "queens-room-astoria-3", "name": "Queen's Room", "image_url": "https://s3-media3.fl.yelpcdn.com/bphoto/GF4KIvf9OgkmNxBz6oc_zg/o.jpg", "is_closed": false, "url": "https://www.yelp.com/biz/queens-room-astoria-3?adjust_creative=9gNmiWYX8uTbFBeTTvJMdA&utm_campaign=yelp_api_v3&utm_medium=api_v3_business_search&utm_source=9gNmiWYX8uTbFBeTTvJMdA", "review_count": 207, "categories": [{"alias": "coffee", "title": "Coffee & Tea"}, {"alias": "cocktailbars", "title": "Cocktail Bars"}, {"alias": "mediterranean", "title": "Mediterranean"}], "rating": 4.5, "coordinates": {"latitude": 40.7741316, "longitude": -73.9082624}, "transactions": ["pickup", "delivery"], "price": "$$", "location": {"address1": "3602 Ditmars Blvd", "address2": "", "address3": null, "city": "Astoria", "zip_code": "11105", "country": "US", "state": "NY", "display_address": ["3602 Ditmars Blvd", "Astoria, NY 11105"]}, "phone": "+13479873994", "display_phone": "(347) 987-3994", "distance": 5424.663695424897}, {"id": "NrKCM1h3CsC-sfhg-t1awg", "alias": "yafa-cafe-brooklyn-2", "name": "Yafa Cafe", "image_url": "https://s3-media3.fl.yelpcdn.com/bphoto/cLgmrhhh_DfBJozmtWk7lg/o.jpg", "is_closed": false, "url": "https://www.yelp.com/biz/yafa-cafe-brooklyn-2?adjust_creative=9gNmiWYX8uTbFBeTTvJMdA&utm_campaign=yelp_api_v3&utm_medium=api_v3_business_search&utm_source=9gNmiWYX8uTbFBeTTvJMdA", "review_count": 108, "categories": [{"alias": "cafes", "title": "Cafes"}, {"alias": "mideastern", "title": "Middle Eastern"}, {"alias": "breakfast_brunch", "title": "Breakfast & Brunch"}], "rating": 4.5, "coordinates": {"latitude": 40.64938, "longitude": -74.00925}, "transactions": ["pickup", "delivery"], "price": "$", "location": {"address1": "4415 4th Ave", "address2": "", "address3": null, "city": "Brooklyn", "zip_code": "11220", "country": "US", "state": "NY", "display_address": ["4415 4th Ave", "Brooklyn, NY 11220"]}, "phone": "+13474643999", "display_phone": "(347) 464-3999", "distance": 12660.504645306837}, {"id": "tE20h_-KIOMqp72zKZ0-iA", "alias": "operation-falafel-new-york-3", "name": "Operation: Falafel", "image_url": "https://s3-media2.fl.yelpcdn.com/bphoto/-c4XWwEfUxFW89IXTPD3hw/o.jpg", "is_closed": false, "url": "https://www.yelp.com/biz/operation-falafel-new-york-3?adjust_creative=9gNmiWYX8uTbFBeTTvJMdA&utm_campaign=yelp_api_v3&utm_medium=api_v3_business_search&utm_source=9gNmiWYX8uTbFBeTTvJMdA", "review_count": 82, "categories": [{"alias": "falafel", "title": "Falafel"}, {"alias": "mideastern", "title": "Middle Eastern"}], "rating": 4.0, "coordinates": {"latitude": 40.744599307922165, "longitude": -73.99574536689364}, "transactions": ["pickup", "delivery"], "price": "$$", "location": {"address1": "232 7th Ave", "address2": "", "address3": null, "city": "New York", "zip_code": "10011", "country": "US", "state": "NY", "display_address": ["232 7th Ave", "New York, NY 10011"]}, "phone": "+16467915161", "display_phone": "(646) 791-5161", "distance": 2736.1858325231974}, {"id": "Axyh4tTY4dvGDJhIVBoALQ", "alias": "continental-foods-express-north-bergen-2", "name": "Continental Foods Express", "image_url": "https://s3-media1.fl.yelpcdn.com/bphoto/3J4oN72Cj47DI1SAMRkZ1Q/o.jpg", "is_closed": false, "url": "https://www.yelp.com/biz/continental-foods-express-north-bergen-2?adjust_creative=9gNmiWYX8uTbFBeTTvJMdA&utm_campaign=yelp_api_v3&utm_medium=api_v3_business_search&utm_source=9gNmiWYX8uTbFBeTTvJMdA", "review_count": 4, "categories": [{"alias": "mediterranean", "title": "Mediterranean"}, {"alias": "newamerican", "title": "American (New)"}, {"alias": "latin", "title": "Latin American"}], "rating": 4.0, "coordinates": {"latitude": 40.813096, "longitude": -74.010561}, "transactions": ["pickup", "delivery"], "location": {"address1": "9024 Tonnelle Ave", "address2": "", "address3": null, "city": "North Bergen", "zip_code": "07047", "country": "US", "state": "NJ", "display_address": ["9024 Tonnelle Ave", "North Bergen, NJ 07047"]}, "phone": "+12018611743", "display_phone": "(201) 861-1743", "distance": 6920.773943813638}, {"id": "FTF1I88dMYi3VmU8e06wKQ", "alias": "mum-mediterranean-cuisine-queens-2", "name": "MUM Mediterranean Cuisine", "image_url": "https://s3-media2.fl.yelpcdn.com/bphoto/TZhqacCzyMZcnx0daekHhw/o.jpg", "is_closed": false, "url": "https://www.yelp.com/biz/mum-mediterranean-cuisine-queens-2?adjust_creative=9gNmiWYX8uTbFBeTTvJMdA&utm_campaign=yelp_api_v3&utm_medium=api_v3_business_search&utm_source=9gNmiWYX8uTbFBeTTvJMdA", "review_count": 20, "categories": [{"alias": "kebab", "title": "Kebab"}, {"alias": "mediterranean", "title": "Mediterranean"}, {"alias": "egyptian", "title": "Egyptian"}], "rating": 4.0, "coordinates": {"latitude": 40.708085, "longitude": -73.898083}, "transactions": ["pickup", "delivery"], "location": {"address1": "66-28 Fresh Pond Rd", "address2": null, "address3": "", "city": "Queens", "zip_code": "11385", "country": "US", "state": "NY", "display_address": ["66-28 Fresh Pond Rd", "Queens, NY 11385"]}, "phone": "+13476894228", "display_phone": "(347) 689-4228", "distance": 8277.408503453116}, {"id": "njKwUg6oYDEEtLuunTmgbg", "alias": "heights-falafel-brooklyn", "name": "Heights Falafel", "image_url": "https://s3-media1.fl.yelpcdn.com/bphoto/-ql7YuITet81m1js-bwp8Q/o.jpg", "is_closed": false, "url": "https://www.yelp.com/biz/heights-falafel-brooklyn?adjust_creative=9gNmiWYX8uTbFBeTTvJMdA&utm_campaign=yelp_api_v3&utm_medium=api_v3_business_search&utm_source=9gNmiWYX8uTbFBeTTvJMdA", "review_count": 270, "categories": [{"alias": "mideastern", "title": "Middle Eastern"}, {"alias": "falafel", "title": "Falafel"}], "rating": 4.0, "coordinates": {"latitude": 40.69854, "longitude": -73.99263}, "transactions": ["pickup", "delivery"], "price": "$", "location": {"address1": "78 Henry St", "address2": "", "address3": "", "city": "Brooklyn", "zip_code": "11201", "country": "US", "state": "NY", "display_address": ["78 Henry St", "Brooklyn, NY 11201"]}, "phone": "+17184880808", "display_phone": "(718) 488-0808", "distance": 7017.270626294129}, {"id": "Wm2HlpBm6naywFQdsezUew", "alias": "off-the-grill-clifton", "name": "Off The Grill", "image_url": "https://s3-media1.fl.yelpcdn.com/bphoto/QTjylq5c861MaC3Oo40M4A/o.jpg", "is_closed": false, "url": "https://www.yelp.com/biz/off-the-grill-clifton?adjust_creative=9gNmiWYX8uTbFBeTTvJMdA&utm_campaign=yelp_api_v3&utm_medium=api_v3_business_search&utm_source=9gNmiWYX8uTbFBeTTvJMdA", "review_count": 119, "categories": [{"alias": "mediterranean", "title": "Mediterranean"}], "rating": 4.5, "coordinates": {"latitude": 40.85383148603, "longitude": -74.1724397281115}, "transactions": ["delivery"], "location": {"address1": "1348 Clifton Ave", "address2": null, "address3": "", "city": "Clifton", "zip_code": "07012", "country": "US", "state": "NJ", "display_address": ["1348 Clifton Ave", "Clifton, NJ 07012"]}, "phone": "+19737773780", "display_phone": "(973) 777-3780", "distance": 20091.514564336216}, {"id": "x3Ziu2bwI7tcP5juyzxCaw", "alias": "fontana-famous-pizza-and-gyro-bayside", "name": "Fontana Famous Pizza & Gyro", "image_url": "https://s3-media3.fl.yelpcdn.com/bphoto/IDz3rLg22x1K8HhrmS_1Ow/o.jpg", "is_closed": false, "url": "https://www.yelp.com/biz/fontana-famous-pizza-and-gyro-bayside?adjust_creative=9gNmiWYX8uTbFBeTTvJMdA&utm_campaign=yelp_api_v3&utm_medium=api_v3_business_search&utm_source=9gNmiWYX8uTbFBeTTvJMdA", "review_count": 499, "categories": [{"alias": "pizza", "title": "Pizza"}, {"alias": "greek", "title": "Greek"}, {"alias": "burgers", "title": "Burgers"}], "rating": 3.5, "coordinates": {"latitude": 40.75753, "longitude": -73.78288}, "transactions": ["pickup", "delivery"], "price": "$$", "location": {"address1": "20002 Northern Blvd", "address2": "", "address3": "", "city": "Bayside", "zip_code": "11361", "country": "US", "state": "NY", "display_address": ["20002 Northern Blvd", "Bayside, NY 11361"]}, "phone": "+17186310147", "display_phone": "(718) 631-0147", "distance": 15727.975922302534}, {"id": "BgXmo84dt_AoLlvZ22pe8g", "alias": "deniz-turkish-mediterranean-cuisine-brooklyn", "name": "Deniz Turkish Mediterranean Cuisine", "image_url": "https://s3-media1.fl.yelpcdn.com/bphoto/3eIbEu6PmiW1V-aRNH7taQ/o.jpg", "is_closed": false, "url": "https://www.yelp.com/biz/deniz-turkish-mediterranean-cuisine-brooklyn?adjust_creative=9gNmiWYX8uTbFBeTTvJMdA&utm_campaign=yelp_api_v3&utm_medium=api_v3_business_search&utm_source=9gNmiWYX8uTbFBeTTvJMdA", "review_count": 316, "categories": [{"alias": "turkish", "title": "Turkish"}, {"alias": "mediterranean", "title": "Mediterranean"}], "rating": 4.0, "coordinates": {"latitude": 40.6865844726562, "longitude": -73.9756927490234}, "transactions": ["pickup", "delivery"], "price": "$$", "location": {"address1": "662 Fulton St", "address2": "", "address3": "", "city": "Brooklyn", "zip_code": "11217", "country": "US", "state": "NY", "display_address": ["662 Fulton St", "Brooklyn, NY 11217"]}, "phone": "+17188526503", "display_phone": "(718) 852-6503", "distance": 8084.596516236473}, {"id": "595Kf6h_Xd0hUaE__FKZNA", "alias": "midtown-grill-jersey-city", "name": "Midtown Grill", "image_url": "https://s3-media4.fl.yelpcdn.com/bphoto/d8LXq0rk9v83APBEtsB8BA/o.jpg", "is_closed": false, "url": "https://www.yelp.com/biz/midtown-grill-jersey-city?adjust_creative=9gNmiWYX8uTbFBeTTvJMdA&utm_campaign=yelp_api_v3&utm_medium=api_v3_business_search&utm_source=9gNmiWYX8uTbFBeTTvJMdA", "review_count": 69, "categories": [{"alias": "mediterranean", "title": "Mediterranean"}, {"alias": "halal", "title": "Halal"}, {"alias": "sandwiches", "title": "Sandwiches"}], "rating": 3.0, "coordinates": {"latitude": 40.7339976520599, "longitude": -74.0592405572534}, "transactions": ["pickup", "delivery"], "price": "$", "location": {"address1": "584 Summit Ave", "address2": "", "address3": null, "city": "Jersey City", "zip_code": "07306", "country": "US", "state": "NJ", "display_address": ["584 Summit Ave", "Jersey City, NJ 07306"]}, "phone": "+12016100010", "display_phone": "(201) 610-0010", "distance": 8055.7593414314215}, {"id": "IQYQz1svn6HxgnUP6wCTBw", "alias": "turkish-pita-place-newark", "name": "Turkish Pita Place", "image_url": "https://s3-media2.fl.yelpcdn.com/bphoto/gJeXQpO1CHAtPEvGXwJMOw/o.jpg", "is_closed": false, "url": "https://www.yelp.com/biz/turkish-pita-place-newark?adjust_creative=9gNmiWYX8uTbFBeTTvJMdA&utm_campaign=yelp_api_v3&utm_medium=api_v3_business_search&utm_source=9gNmiWYX8uTbFBeTTvJMdA", "review_count": 50, "categories": [{"alias": "turkish", "title": "Turkish"}], "rating": 4.0, "coordinates": {"latitude": 40.7372072, "longitude": -74.1728457}, "transactions": ["pickup", "delivery"], "price": "$", "location": {"address1": "150 Halsey St", "address2": null, "address3": "", "city": "Newark", "zip_code": "07102", "country": "US", "state": "NJ", "display_address": ["150 Halsey St", "Newark, NJ 07102"]}, "phone": "+19737990600", "display_phone": "(973) 799-0600", "distance": 17286.75478933172}, {"id": "M7aFxytftoeiXMJnNAPxUg", "alias": "lefkos-pyrgos-cafe-astoria-2", "name": "Lefkos Pyrgos Cafe", "image_url": "https://s3-media3.fl.yelpcdn.com/bphoto/wPqWXe_CGvJaqsd5Pzfsog/o.jpg", "is_closed": false, "url": "https://www.yelp.com/biz/lefkos-pyrgos-cafe-astoria-2?adjust_creative=9gNmiWYX8uTbFBeTTvJMdA&utm_campaign=yelp_api_v3&utm_medium=api_v3_business_search&utm_source=9gNmiWYX8uTbFBeTTvJMdA", "review_count": 450, "categories": [{"alias": "greek", "title": "Greek"}, {"alias": "bakeries", "title": "Bakeries"}, {"alias": "cafes", "title": "Cafes"}], "rating": 2.0, "coordinates": {"latitude": 40.775197, "longitude": -73.909612}, "transactions": ["delivery"], "price": "$$", "location": {"address1": "33-02 Ditmars Blvd", "address2": "", "address3": "", "city": "Astoria", "zip_code": "11105", "country": "US", "state": "NY", "display_address": ["33-02 Ditmars Blvd", "Astoria, NY 11105"]}, "phone": "+17189324423", "display_phone": "(718) 932-4423", "distance": 5354.796005902498}, {"id": "inP3Ca1x9LYZpp4QP0d6vg", "alias": "noma-social-new-rochelle", "name": "NoMa Social", "image_url": "https://s3-media2.fl.yelpcdn.com/bphoto/FctLwlGn5xYmoovNTDjUfg/o.jpg", "is_closed": false, "url": "https://www.yelp.com/biz/noma-social-new-rochelle?adjust_creative=9gNmiWYX8uTbFBeTTvJMdA&utm_campaign=yelp_api_v3&utm_medium=api_v3_business_search&utm_source=9gNmiWYX8uTbFBeTTvJMdA", "review_count": 154, "categories": [{"alias": "mediterranean", "title": "Mediterranean"}, {"alias": "latin", "title": "Latin American"}, {"alias": "tapas", "title": "Tapas Bars"}], "rating": 3.5, "coordinates": {"latitude": 40.91383187258055, "longitude": -73.77781837272468}, "transactions": ["pickup", "delivery"], "price": "$$", "location": {"address1": "1 Radisson Plz", "address2": "", "address3": "", "city": "New Rochelle", "zip_code": "10801", "country": "US", "state": "NY", "display_address": ["1 Radisson Plz", "New Rochelle, NY 10801"]}, "phone": "+19145764141", "display_phone": "(914) 576-4141", "distance": 23579.190189041306}, {"id": "Ts6x2LqJIfFVNapnX4VfAQ", "alias": "barans-doner-new-york", "name": "Barans Doner", "image_url": "", "is_closed": false, "url": "https://www.yelp.com/biz/barans-doner-new-york?adjust_creative=9gNmiWYX8uTbFBeTTvJMdA&utm_campaign=yelp_api_v3&utm_medium=api_v3_business_search&utm_source=9gNmiWYX8uTbFBeTTvJMdA", "review_count": 5, "categories": [{"alias": "kebab", "title": "Kebab"}, {"alias": "turkish", "title": "Turkish"}], "rating": 3.0, "coordinates": {"latitude": 40.74354070343604, "longitude": -73.97945053148705}, "transactions": ["delivery"], "location": {"address1": "441 3rd Ave", "address2": "", "address3": null, "city": "New York", "zip_code": "10016", "country": "US", "state": "NY", "display_address": ["441 3rd Ave", "New York, NY 10016"]}, "phone": "+12126833008", "display_phone": "(212) 683-3008", "distance": 1927.2407047141064}, {"id": "GqzOGvwjduvXy3vZj_ChWw", "alias": "batata-brooklyn", "name": "Batata", "image_url": "https://s3-media3.fl.yelpcdn.com/bphoto/9BTLD9MTqNgxz79vyKgyEQ/o.jpg", "is_closed": false, "url": "https://www.yelp.com/biz/batata-brooklyn?adjust_creative=9gNmiWYX8uTbFBeTTvJMdA&utm_campaign=yelp_api_v3&utm_medium=api_v3_business_search&utm_source=9gNmiWYX8uTbFBeTTvJMdA", "review_count": 214, "categories": [{"alias": "mideastern", "title": "Middle Eastern"}, {"alias": "sandwiches", "title": "Sandwiches"}, {"alias": "cafes", "title": "Cafes"}], "rating": 4.0, "coordinates": {"latitude": 40.6480942834742, "longitude": -73.9791212747221}, "transactions": ["pickup", "delivery"], "price": "$$", "location": {"address1": "3021 Fort Hamilton Pkwy", "address2": "", "address3": "", "city": "Brooklyn", "zip_code": "11218", "country": "US", "state": "NY", "display_address": ["3021 Fort Hamilton Pkwy", "Brooklyn, NY 11218"]}, "phone": "+13475991260", "display_phone": "(347) 599-1260", "distance": 12377.757387686825}, {"id": "c0E2tz1P4vJA2UxWGVA3EQ", "alias": "gyro-express-east-elmhurst", "name": "Gyro Express", "image_url": "https://s3-media3.fl.yelpcdn.com/bphoto/F2jpsoQbLdkJ9IczHbCOng/o.jpg", "is_closed": false, "url": "https://www.yelp.com/biz/gyro-express-east-elmhurst?adjust_creative=9gNmiWYX8uTbFBeTTvJMdA&utm_campaign=yelp_api_v3&utm_medium=api_v3_business_search&utm_source=9gNmiWYX8uTbFBeTTvJMdA", "review_count": 30, "categories": [{"alias": "sandwiches", "title": "Sandwiches"}, {"alias": "greek", "title": "Greek"}, {"alias": "tradamerican", "title": "American (Traditional)"}], "rating": 3.0, "coordinates": {"latitude": 40.7703899, "longitude": -73.8925888}, "transactions": ["pickup", "delivery"], "price": "$", "location": {"address1": "7706 21st Ave", "address2": "", "address3": "", "city": "East Elmhurst", "zip_code": "11370", "country": "US", "state": "NY", "display_address": ["7706 21st Ave", "East Elmhurst, NY 11370"]}, "phone": "+17182781230", "display_phone": "(718) 278-1230", "distance": 6605.440165084752}, {"id": "CLD0Bh-Z_7oGDQOcYdPGLg", "alias": "le-sajj-restaurant-brooklyn", "name": "Le Sajj Restaurant", "image_url": "https://s3-media1.fl.yelpcdn.com/bphoto/AsgctsfVtpzRclhxH868mA/o.jpg", "is_closed": false, "url": "https://www.yelp.com/biz/le-sajj-restaurant-brooklyn?adjust_creative=9gNmiWYX8uTbFBeTTvJMdA&utm_campaign=yelp_api_v3&utm_medium=api_v3_business_search&utm_source=9gNmiWYX8uTbFBeTTvJMdA", "review_count": 133, "categories": [{"alias": "lebanese", "title": "Lebanese"}, {"alias": "mediterranean", "title": "Mediterranean"}], "rating": 4.0, "coordinates": {"latitude": 40.6237, "longitude": -74.02487}, "transactions": ["pickup", "delivery"], "price": "$$", "location": {"address1": "8221 5th Ave", "address2": "", "address3": "", "city": "Brooklyn", "zip_code": "11209", "country": "US", "state": "NY", "display_address": ["8221 5th Ave", "Brooklyn, NY 11209"]}, "phone": "+17188337255", "display_phone": "(718) 833-7255", "distance": 15766.207081628889}, {"id": "jt_mFVGnAcPx27vIz4o29A", "alias": "fig-and-olive-new-york-12", "name": "Fig & Olive", "image_url": "https://s3-media2.fl.yelpcdn.com/bphoto/WMaL8apvvPU1-uvnBdZmFA/o.jpg", "is_closed": false, "url": "https://www.yelp.com/biz/fig-and-olive-new-york-12?adjust_creative=9gNmiWYX8uTbFBeTTvJMdA&utm_campaign=yelp_api_v3&utm_medium=api_v3_business_search&utm_source=9gNmiWYX8uTbFBeTTvJMdA", "review_count": 1458, "categories": [{"alias": "mediterranean", "title": "Mediterranean"}, {"alias": "french", "title": "French"}, {"alias": "bars", "title": "Bars"}], "rating": 3.5, "coordinates": {"latitude": 40.74067, "longitude": -74.00708}, "transactions": ["pickup", "delivery"], "price": "$$$", "location": {"address1": "420 W 13th St", "address2": null, "address3": "", "city": "New York", "zip_code": "10014", "country": "US", "state": "NY", "display_address": ["420 W 13th St", "New York, NY 10014"]}, "phone": "+12129241200", "display_phone": "(212) 924-1200", "distance": 3778.993434748992}, {"id": "l8PR3UGYwJ28ASIQ0N7ZUQ", "alias": "chicken-ranch-new-york-2", "name": "Chicken Ranch", "image_url": "https://s3-media4.fl.yelpcdn.com/bphoto/ffk-jdRERpvsp2cojVldUg/o.jpg", "is_closed": false, "url": "https://www.yelp.com/biz/chicken-ranch-new-york-2?adjust_creative=9gNmiWYX8uTbFBeTTvJMdA&utm_campaign=yelp_api_v3&utm_medium=api_v3_business_search&utm_source=9gNmiWYX8uTbFBeTTvJMdA", "review_count": 7, "categories": [{"alias": "chickenshop", "title": "Chicken Shop"}, {"alias": "greek", "title": "Greek"}], "rating": 5.0, "coordinates": {"latitude": 40.86327, "longitude": -73.92731}, "transactions": ["pickup", "delivery"], "location": {"address1": "56 Sherman Ave", "address2": "", "address3": null, "city": "New York", "zip_code": "10040", "country": "US", "state": "NY", "display_address": ["56 Sherman Ave", "New York, NY 10040"]}, "phone": "+16467915444", "display_phone": "(646) 791-5444", "distance": 12109.366338286689}, {"id": "G7f4qfCJrVnTLDkAm4IJpQ", "alias": "vegan-grill-williamsburg", "name": "Vegan Grill", "image_url": "https://s3-media2.fl.yelpcdn.com/bphoto/tvMOQ9Z9RGW1vcmLMXk02g/o.jpg", "is_closed": false, "url": "https://www.yelp.com/biz/vegan-grill-williamsburg?adjust_creative=9gNmiWYX8uTbFBeTTvJMdA&utm_campaign=yelp_api_v3&utm_medium=api_v3_business_search&utm_source=9gNmiWYX8uTbFBeTTvJMdA", "review_count": 10, "categories": [{"alias": "vegan", "title": "Vegan"}, {"alias": "vegetarian", "title": "Vegetarian"}, {"alias": "mediterranean", "title": "Mediterranean"}], "rating": 3.5, "coordinates": {"latitude": 40.70761, "longitude": -73.9417}, "transactions": ["pickup", "delivery"], "location": {"address1": "187 Montrose Ave", "address2": null, "address3": "", "city": "Williamsburg", "zip_code": "11206", "country": "US", "state": "NY", "display_address": ["187 Montrose Ave", "Williamsburg, NY 11206"]}, "phone": "+13475992777", "display_phone": "(347) 599-2777", "distance": 6193.377189634759}, {"id": "rBCqVm8yhMKeLLP2mdghGw", "alias": "victory-sweet-shop-astoria-3", "name": "Victory Sweet Shop", "image_url": "https://s3-media2.fl.yelpcdn.com/bphoto/LzyrAKCcahahxxCIXCHqQg/o.jpg", "is_closed": false, "url": "https://www.yelp.com/biz/victory-sweet-shop-astoria-3?adjust_creative=9gNmiWYX8uTbFBeTTvJMdA&utm_campaign=yelp_api_v3&utm_medium=api_v3_business_search&utm_source=9gNmiWYX8uTbFBeTTvJMdA", "review_count": 67, "categories": [{"alias": "bakeries", "title": "Bakeries"}, {"alias": "greek", "title": "Greek"}], "rating": 3.5, "coordinates": {"latitude": 40.773044, "longitude": -73.905395}, "transactions": [], "price": "$", "location": {"address1": "2169 Steinway St", "address2": "", "address3": "", "city": "Astoria", "zip_code": "11105", "country": "US", "state": "NY", "display_address": ["2169 Steinway St", "Astoria, NY 11105"]}, "phone": "+17182742087", "display_phone": "(718) 274-2087", "distance": 5622.576153823249}, {"id": "qMkmNrpvFFExRU8SM8Bzlg", "alias": "shawarma-station-new-york", "name": "Shawarma Station", "image_url": "", "is_closed": false, "url": "https://www.yelp.com/biz/shawarma-station-new-york?adjust_creative=9gNmiWYX8uTbFBeTTvJMdA&utm_campaign=yelp_api_v3&utm_medium=api_v3_business_search&utm_source=9gNmiWYX8uTbFBeTTvJMdA", "review_count": 4, "categories": [{"alias": "kebab", "title": "Kebab"}, {"alias": "falafel", "title": "Falafel"}, {"alias": "juicebars", "title": "Juice Bars & Smoothies"}], "rating": 3.5, "coordinates": {"latitude": 40.80481, "longitude": -73.93693}, "transactions": ["pickup", "delivery"], "location": {"address1": "2085 Lexington Ave", "address2": "", "address3": null, "city": "New York", "zip_code": "10035", "country": "US", "state": "NY", "display_address": ["2085 Lexington Ave", "New York, NY 10035"]}, "phone": "", "display_phone": "", "distance": 5774.4783016610845}, {"id": "tuhlWtnjoOn8C6NTUCnbPg", "alias": "victor-brooklyn", "name": "Victor", "image_url": "https://s3-media1.fl.yelpcdn.com/bphoto/dc7OiT1u4ncH7P67MnxK0Q/o.jpg", "is_closed": false, "url": "https://www.yelp.com/biz/victor-brooklyn?adjust_creative=9gNmiWYX8uTbFBeTTvJMdA&utm_campaign=yelp_api_v3&utm_medium=api_v3_business_search&utm_source=9gNmiWYX8uTbFBeTTvJMdA", "review_count": 38, "categories": [{"alias": "newamerican", "title": "American (New)"}, {"alias": "mediterranean", "title": "Mediterranean"}, {"alias": "cocktailbars", "title": "Cocktail Bars"}], "rating": 4.0, "coordinates": {"latitude": 40.6795300180332, "longitude": -73.98681309999999}, "transactions": ["delivery"], "location": {"address1": "285 Nevins St", "address2": null, "address3": "", "city": "Brooklyn", "zip_code": "11217", "country": "US", "state": "NY", "display_address": ["285 Nevins St", "Brooklyn, NY 11217"]}, "phone": "+13478896588", "display_phone": "(347) 889-6588", "distance": 8974.454497601831}, {"id": "rrxcBTWS827bJ4oBr5a_ww", "alias": "silvana-new-york", "name": "Silvana", "image_url": "https://s3-media1.fl.yelpcdn.com/bphoto/Z_4hnpaYZQlO8wOsJx4vjQ/o.jpg", "is_closed": false, "url": "https://www.yelp.com/biz/silvana-new-york?adjust_creative=9gNmiWYX8uTbFBeTTvJMdA&utm_campaign=yelp_api_v3&utm_medium=api_v3_business_search&utm_source=9gNmiWYX8uTbFBeTTvJMdA", "review_count": 315, "categories": [{"alias": "mideastern", "title": "Middle Eastern"}, {"alias": "coffee", "title": "Coffee & Tea"}], "rating": 3.5, "coordinates": {"latitude": 40.8043464658849, "longitude": -73.9556999961065}, "transactions": ["pickup", "delivery"], "price": "$$", "location": {"address1": "300 W 116th St", "address2": "", "address3": "", "city": "New York", "zip_code": "10026", "country": "US", "state": "NY", "display_address": ["300 W 116th St", "New York, NY 10026"]}, "phone": "+16466924935", "display_phone": "(646) 692-4935", "distance": 5156.912007390543}, {"id": "6y6EvQ_Us6AxKOjAbbPiVA", "alias": "plant-junkie-nyc-financial-district-new-york", "name": "Plant Junkie - NYC Financial District", "image_url": "https://s3-media4.fl.yelpcdn.com/bphoto/rJAsk3TqjePdx83eWdTXgA/o.jpg", "is_closed": false, "url": "https://www.yelp.com/biz/plant-junkie-nyc-financial-district-new-york?adjust_creative=9gNmiWYX8uTbFBeTTvJMdA&utm_campaign=yelp_api_v3&utm_medium=api_v3_business_search&utm_source=9gNmiWYX8uTbFBeTTvJMdA", "review_count": 6, "categories": [{"alias": "desserts", "title": "Desserts"}, {"alias": "greek", "title": "Greek"}, {"alias": "sandwiches", "title": "Sandwiches"}], "rating": 3.5, "coordinates": {"latitude": 40.70433, "longitude": -74.00968}, "transactions": ["pickup", "delivery"], "location": {"address1": "100 Pearl St", "address2": "", "address3": "Urbanspace", "city": "New York", "zip_code": "10004", "country": "US", "state": "NY", "display_address": ["100 Pearl St", "Urbanspace", "New York, NY 10004"]}, "phone": "", "display_phone": "", "distance": 6980.728563382248}, {"id": "z0pxdL3Pn4C_Pa8QjDWvKw", "alias": "victory-garden-cafe-astoria", "name": "Victory Garden Cafe", "image_url": "https://s3-media1.fl.yelpcdn.com/bphoto/5myqL3HQ_oOPAMfcJKP5Rg/o.jpg", "is_closed": false, "url": "https://www.yelp.com/biz/victory-garden-cafe-astoria?adjust_creative=9gNmiWYX8uTbFBeTTvJMdA&utm_campaign=yelp_api_v3&utm_medium=api_v3_business_search&utm_source=9gNmiWYX8uTbFBeTTvJMdA", "review_count": 128, "categories": [{"alias": "greek", "title": "Greek"}, {"alias": "breakfast_brunch", "title": "Breakfast & Brunch"}], "rating": 4.0, "coordinates": {"latitude": 40.7731344290163, "longitude": -73.9055285230279}, "transactions": [], "price": "$$", "location": {"address1": "21-69 Steinway St", "address2": "", "address3": "", "city": "Astoria", "zip_code": "11105", "country": "US", "state": "NY", "display_address": ["21-69 Steinway St", "Astoria, NY 11105"]}, "phone": "+17182742087", "display_phone": "(718) 274-2087", "distance": 5612.621540537112}, {"id": "ErmJ0Bcj8ghnWJXi88vqzw", "alias": "koky-express-st-george", "name": "Koky Express", "image_url": "https://s3-media2.fl.yelpcdn.com/bphoto/bUEFSJqjYMMlkRtu3Dw-jA/o.jpg", "is_closed": false, "url": "https://www.yelp.com/biz/koky-express-st-george?adjust_creative=9gNmiWYX8uTbFBeTTvJMdA&utm_campaign=yelp_api_v3&utm_medium=api_v3_business_search&utm_source=9gNmiWYX8uTbFBeTTvJMdA", "review_count": 1, "categories": [{"alias": "foodtrucks", "title": "Food Trucks"}, {"alias": "greek", "title": "Greek"}, {"alias": "hotdog", "title": "Hot Dogs"}], "rating": 5.0, "coordinates": {"latitude": 40.6415076501458, "longitude": -74.0778037905693}, "transactions": [], "price": "$", "location": {"address1": "350 St Marks Pl", "address2": "", "address3": "", "city": "St. George", "zip_code": "10301", "country": "US", "state": "NY", "display_address": ["350 St Marks Pl", "St. George, NY 10301"]}, "phone": "", "display_phone": "", "distance": 15950.975247600087}, {"id": "6nOxwnuN0ZwLX3h3JYSJnA", "alias": "toms-restaurant-new-york", "name": "Tom's Restaurant", "image_url": "https://s3-media3.fl.yelpcdn.com/bphoto/5E5pRd78Ssue9g4sKpksog/o.jpg", "is_closed": false, "url": "https://www.yelp.com/biz/toms-restaurant-new-york?adjust_creative=9gNmiWYX8uTbFBeTTvJMdA&utm_campaign=yelp_api_v3&utm_medium=api_v3_business_search&utm_source=9gNmiWYX8uTbFBeTTvJMdA", "review_count": 834, "categories": [{"alias": "breakfast_brunch", "title": "Breakfast & Brunch"}, {"alias": "greek", "title": "Greek"}, {"alias": "tradamerican", "title": "American (Traditional)"}], "rating": 3.0, "coordinates": {"latitude": 40.80545, "longitude": -73.9654599}, "transactions": ["pickup", "delivery"], "price": "$$", "location": {"address1": "2880 Broadway", "address2": "", "address3": "", "city": "New York", "zip_code": "10025", "country": "US", "state": "NY", "display_address": ["2880 Broadway", "New York, NY 10025"]}, "phone": "+12128646137", "display_phone": "(212) 864-6137", "distance": 5157.222598307658}, {"id": "VZBuV56yUnyf8ZKyvTnfDQ", "alias": "ryans-bbq-lyndhurst", "name": "Ryan's BBQ", "image_url": "https://s3-media3.fl.yelpcdn.com/bphoto/ic8JakHGc_sKVaxZzcIrng/o.jpg", "is_closed": false, "url": "https://www.yelp.com/biz/ryans-bbq-lyndhurst?adjust_creative=9gNmiWYX8uTbFBeTTvJMdA&utm_campaign=yelp_api_v3&utm_medium=api_v3_business_search&utm_source=9gNmiWYX8uTbFBeTTvJMdA", "review_count": 97, "categories": [{"alias": "bbq", "title": "Barbeque"}, {"alias": "modern_european", "title": "Modern European"}, {"alias": "mediterranean", "title": "Mediterranean"}], "rating": 4.5, "coordinates": {"latitude": 40.81539, "longitude": -74.12566}, "transactions": ["pickup", "delivery"], "price": "$$", "location": {"address1": "239 Stuyvesant Ave", "address2": "", "address3": null, "city": "Lyndhurst", "zip_code": "07071", "country": "US", "state": "NJ", "display_address": ["239 Stuyvesant Ave", "Lyndhurst, NJ 07071"]}, "phone": "+12019394400", "display_phone": "(201) 939-4400", "distance": 14551.837674139397}, {"id": "2At9cxG4uLElc_INpAe0Lw", "alias": "gyro-cafe-brooklyn", "name": "Gyro Cafe", "image_url": "https://s3-media1.fl.yelpcdn.com/bphoto/0IaMt5uV7nX_ejuYYb-igw/o.jpg", "is_closed": false, "url": "https://www.yelp.com/biz/gyro-cafe-brooklyn?adjust_creative=9gNmiWYX8uTbFBeTTvJMdA&utm_campaign=yelp_api_v3&utm_medium=api_v3_business_search&utm_source=9gNmiWYX8uTbFBeTTvJMdA", "review_count": 102, "categories": [{"alias": "mideastern", "title": "Middle Eastern"}, {"alias": "halal", "title": "Halal"}], "rating": 4.0, "coordinates": {"latitude": 40.6431503295898, "longitude": -73.9701995849609}, "transactions": ["pickup", "delivery"], "price": "$", "location": {"address1": "580 Coney Island Ave", "address2": "", "address3": "", "city": "Brooklyn", "zip_code": "11218", "country": "US", "state": "NY", "display_address": ["580 Coney Island Ave", "Brooklyn, NY 11218"]}, "phone": "+17184380860", "display_phone": "(718) 438-0860", "distance": 12900.276774803286}, {"id": "n6jlAxpMcCqkZDRGEuyFGQ", "alias": "mikes-diner-of-brooklyn-brooklyn", "name": "Mikes Diner Of Brooklyn", "image_url": "https://s3-media1.fl.yelpcdn.com/bphoto/XmH49rFAy1mxe2bV9ILwVw/o.jpg", "is_closed": false, "url": "https://www.yelp.com/biz/mikes-diner-of-brooklyn-brooklyn?adjust_creative=9gNmiWYX8uTbFBeTTvJMdA&utm_campaign=yelp_api_v3&utm_medium=api_v3_business_search&utm_source=9gNmiWYX8uTbFBeTTvJMdA", "review_count": 131, "categories": [{"alias": "breakfast_brunch", "title": "Breakfast & Brunch"}, {"alias": "greek", "title": "Greek"}, {"alias": "burgers", "title": "Burgers"}], "rating": 4.0, "coordinates": {"latitude": 40.6117530714563, "longitude": -74.010576}, "transactions": ["pickup", "delivery"], "price": "$$", "location": {"address1": "1454 86th St", "address2": null, "address3": null, "city": "Brooklyn", "zip_code": "11228", "country": "US", "state": "NY", "display_address": ["1454 86th St", "Brooklyn, NY 11228"]}, "phone": "+17186214714", "display_phone": "(718) 621-4714", "distance": 16753.126692182395}, {"id": "YsSjmyGWbxA05JuxAF69hA", "alias": "neptune-diner-astoria", "name": "Neptune Diner", "image_url": "https://s3-media1.fl.yelpcdn.com/bphoto/D8XYtroRb8ZqpRQr2WlZiw/o.jpg", "is_closed": false, "url": "https://www.yelp.com/biz/neptune-diner-astoria?adjust_creative=9gNmiWYX8uTbFBeTTvJMdA&utm_campaign=yelp_api_v3&utm_medium=api_v3_business_search&utm_source=9gNmiWYX8uTbFBeTTvJMdA", "review_count": 511, "categories": [{"alias": "diners", "title": "Diners"}, {"alias": "greek", "title": "Greek"}], "rating": 3.0, "coordinates": {"latitude": 40.770753, "longitude": -73.916801}, "transactions": ["pickup", "delivery"], "price": "$$", "location": {"address1": "3105 Astoria Blvd", "address2": "", "address3": "", "city": "Astoria", "zip_code": "11102", "country": "US", "state": "NY", "display_address": ["3105 Astoria Blvd", "Astoria, NY 11102"]}, "phone": "+17182784853", "display_phone": "(718) 278-4853", "distance": 4627.166343847532}, {"id": "zUs0dYx8zPKTkFiLdQKf_Q", "alias": "punjabi-kabab-and-gyro-south-richmond-hill", "name": "Punjabi Kabab and Gyro", "image_url": "https://s3-media3.fl.yelpcdn.com/bphoto/cZt-_8qYh2MRSmuqaZ8iqA/o.jpg", "is_closed": false, "url": "https://www.yelp.com/biz/punjabi-kabab-and-gyro-south-richmond-hill?adjust_creative=9gNmiWYX8uTbFBeTTvJMdA&utm_campaign=yelp_api_v3&utm_medium=api_v3_business_search&utm_source=9gNmiWYX8uTbFBeTTvJMdA", "review_count": 76, "categories": [{"alias": "indpak", "title": "Indian"}, {"alias": "pakistani", "title": "Pakistani"}, {"alias": "greek", "title": "Greek"}], "rating": 4.0, "coordinates": {"latitude": 40.6874110142563, "longitude": -73.835311942224}, "transactions": ["pickup", "delivery"], "price": "$$", "location": {"address1": "108-03 101st Ave", "address2": "", "address3": "", "city": "South Richmond Hill", "zip_code": "11419", "country": "US", "state": "NY", "display_address": ["108-03 101st Ave", "South Richmond Hill, NY 11419"]}, "phone": "+17187099919", "display_phone": "(718) 709-9919", "distance": 13845.295971863961}, {"id": "B8wqZSQdRBUl2XN8smO5Tg", "alias": "moonlite-grill-and-chicken-queens", "name": "Moonlite Grill & Chicken", "image_url": "https://s3-media4.fl.yelpcdn.com/bphoto/q1LJgrQ-v_XCXpE8-PE8QA/o.jpg", "is_closed": false, "url": "https://www.yelp.com/biz/moonlite-grill-and-chicken-queens?adjust_creative=9gNmiWYX8uTbFBeTTvJMdA&utm_campaign=yelp_api_v3&utm_medium=api_v3_business_search&utm_source=9gNmiWYX8uTbFBeTTvJMdA", "review_count": 17, "categories": [{"alias": "mideastern", "title": "Middle Eastern"}, {"alias": "mediterranean", "title": "Mediterranean"}, {"alias": "halal", "title": "Halal"}], "rating": 4.0, "coordinates": {"latitude": 40.74706, "longitude": -73.89198}, "transactions": ["pickup"], "location": {"address1": "73-15 Broadway", "address2": "", "address3": null, "city": "Queens", "zip_code": "11372", "country": "US", "state": "NY", "display_address": ["73-15 Broadway", "Queens, NY 11372"]}, "phone": "+17184339840", "display_phone": "(718) 433-9840", "distance": 6674.906673408037}, {"id": "wYmb7YpPwlchsYEPHzgcdQ", "alias": "the-rusty-face-brooklyn-3", "name": "The Rusty Face", "image_url": "https://s3-media3.fl.yelpcdn.com/bphoto/P1u-Zn5SeVsVSGPZ6vz_ww/o.jpg", "is_closed": false, "url": "https://www.yelp.com/biz/the-rusty-face-brooklyn-3?adjust_creative=9gNmiWYX8uTbFBeTTvJMdA&utm_campaign=yelp_api_v3&utm_medium=api_v3_business_search&utm_source=9gNmiWYX8uTbFBeTTvJMdA", "review_count": 74, "categories": [{"alias": "mediterranean", "title": "Mediterranean"}, {"alias": "tapas", "title": "Tapas Bars"}, {"alias": "cocktailbars", "title": "Cocktail Bars"}], "rating": 4.5, "coordinates": {"latitude": 40.71418787933165, "longitude": -73.96078337251589}, "transactions": ["pickup", "delivery"], "location": {"address1": "188 Grand St", "address2": null, "address3": "", "city": "Brooklyn", "zip_code": "11211", "country": "US", "state": "NY", "display_address": ["188 Grand St", "Brooklyn, NY 11211"]}, "phone": "+13473350006", "display_phone": "(347) 335-0006", "distance": 5056.834350218681}, {"id": "wmCzFx6rc0b6ubjIbL9CZA", "alias": "mediterranean-gourmet-fort-lee", "name": "Mediterranean Gourmet", "image_url": "https://s3-media2.fl.yelpcdn.com/bphoto/0w-XipIZIamjbgarbTIYpA/o.jpg", "is_closed": false, "url": "https://www.yelp.com/biz/mediterranean-gourmet-fort-lee?adjust_creative=9gNmiWYX8uTbFBeTTvJMdA&utm_campaign=yelp_api_v3&utm_medium=api_v3_business_search&utm_source=9gNmiWYX8uTbFBeTTvJMdA", "review_count": 10, "categories": [{"alias": "grocery", "title": "Grocery"}, {"alias": "greek", "title": "Greek"}, {"alias": "mediterranean", "title": "Mediterranean"}], "rating": 5.0, "coordinates": {"latitude": 40.85554048419, "longitude": -73.9777560532093}, "transactions": ["delivery"], "location": {"address1": "490 Main St", "address2": null, "address3": "", "city": "Fort Lee", "zip_code": "07024", "country": "US", "state": "NJ", "display_address": ["490 Main St", "Fort Lee, NJ 07024"]}, "phone": "+12019470075", "display_phone": "(201) 947-0075", "distance": 10731.418931599612}, {"id": "YvTqr7SBCestzWyi5iCaLw", "alias": "bushwick-pita-palace-brooklyn", "name": "Bushwick Pita Palace", "image_url": "https://s3-media3.fl.yelpcdn.com/bphoto/K3YHxnAZax0xkiKQAR44Pg/o.jpg", "is_closed": false, "url": "https://www.yelp.com/biz/bushwick-pita-palace-brooklyn?adjust_creative=9gNmiWYX8uTbFBeTTvJMdA&utm_campaign=yelp_api_v3&utm_medium=api_v3_business_search&utm_source=9gNmiWYX8uTbFBeTTvJMdA", "review_count": 228, "categories": [{"alias": "mexican", "title": "Mexican"}, {"alias": "mediterranean", "title": "Mediterranean"}], "rating": 3.5, "coordinates": {"latitude": 40.70753, "longitude": -73.93965}, "transactions": ["pickup", "delivery"], "price": "$", "location": {"address1": "243 Bushwick Ave", "address2": "", "address3": "", "city": "Brooklyn", "zip_code": "11206", "country": "US", "state": "NY", "display_address": ["243 Bushwick Ave", "Brooklyn, NY 11206"]}, "phone": "+17184561304", "display_phone": "(718) 456-1304", "distance": 6272.255468030209}, {"id": "T5V8QUXFiQiQgUGu-roNPA", "alias": "forest-kebab-house-staten-island", "name": "Forest Kebab House", "image_url": "https://s3-media2.fl.yelpcdn.com/bphoto/H3nmeCTunTq-OzIS35nGHw/o.jpg", "is_closed": false, "url": "https://www.yelp.com/biz/forest-kebab-house-staten-island?adjust_creative=9gNmiWYX8uTbFBeTTvJMdA&utm_campaign=yelp_api_v3&utm_medium=api_v3_business_search&utm_source=9gNmiWYX8uTbFBeTTvJMdA", "review_count": 2, "categories": [{"alias": "mideastern", "title": "Middle Eastern"}, {"alias": "mediterranean", "title": "Mediterranean"}, {"alias": "greek", "title": "Greek"}], "rating": 1.0, "coordinates": {"latitude": 40.626018, "longitude": -74.129844}, "transactions": ["pickup", "delivery"], "location": {"address1": "1198 Forest Ave", "address2": null, "address3": null, "city": "Staten Island", "zip_code": "10310", "country": "US", "state": "NY", "display_address": ["1198 Forest Ave", "Staten Island, NY 10310"]}, "phone": "+17184422550", "display_phone": "(718) 442-2550", "distance": 20044.615400072904}, {"id": "QsNmb4ldqPSQamS4hNHdVg", "alias": "sultan-cuisine-clifton-2", "name": "Sultan Cuisine", "image_url": "https://s3-media3.fl.yelpcdn.com/bphoto/m0QQmUr1lpHw3d2xLFlWLA/o.jpg", "is_closed": false, "url": "https://www.yelp.com/biz/sultan-cuisine-clifton-2?adjust_creative=9gNmiWYX8uTbFBeTTvJMdA&utm_campaign=yelp_api_v3&utm_medium=api_v3_business_search&utm_source=9gNmiWYX8uTbFBeTTvJMdA", "review_count": 85, "categories": [{"alias": "mideastern", "title": "Middle Eastern"}], "rating": 2.5, "coordinates": {"latitude": 40.8901634216309, "longitude": -74.1491775512695}, "transactions": ["pickup", "delivery"], "price": "$$", "location": {"address1": "429 Crooks Ave", "address2": "", "address3": "", "city": "Clifton", "zip_code": "07011", "country": "US", "state": "NJ", "display_address": ["429 Crooks Ave", "Clifton, NJ 07011"]}, "phone": "+19737721995", "display_phone": "(973) 772-1995", "distance": 21010.046006947574}, {"id": "F6OMu-ShMWPRAB_7PIoEPg", "alias": "wrapido-new-york-9", "name": "Wrapido", "image_url": "", "is_closed": false, "url": "https://www.yelp.com/biz/wrapido-new-york-9?adjust_creative=9gNmiWYX8uTbFBeTTvJMdA&utm_campaign=yelp_api_v3&utm_medium=api_v3_business_search&utm_source=9gNmiWYX8uTbFBeTTvJMdA", "review_count": 1, "categories": [{"alias": "wraps", "title": "Wraps"}, {"alias": "falafel", "title": "Falafel"}, {"alias": "hotdogs", "title": "Fast Food"}], "rating": 4.0, "coordinates": {"latitude": 40.74412, "longitude": -73.9953}, "transactions": ["pickup", "delivery"], "location": {"address1": "171 W 23rd St", "address2": null, "address3": null, "city": "New York", "zip_code": "10011", "country": "US", "state": "NY", "display_address": ["171 W 23rd St", "New York, NY 10011"]}, "phone": "+12129299300", "display_phone": "(212) 929-9300", "distance": 2732.538065416905}, {"id": "7R9PhpkZHAryCAVctq6bSw", "alias": "markato-new-york-2", "name": "Markato", "image_url": "https://s3-media2.fl.yelpcdn.com/bphoto/xnMufoFI18qg5aI6LelD9w/o.jpg", "is_closed": false, "url": "https://www.yelp.com/biz/markato-new-york-2?adjust_creative=9gNmiWYX8uTbFBeTTvJMdA&utm_campaign=yelp_api_v3&utm_medium=api_v3_business_search&utm_source=9gNmiWYX8uTbFBeTTvJMdA", "review_count": 11, "categories": [{"alias": "catering", "title": "Caterers"}, {"alias": "gourmet", "title": "Specialty Food"}, {"alias": "mediterranean", "title": "Mediterranean"}], "rating": 3.0, "coordinates": {"latitude": 40.763639, "longitude": -73.978951}, "transactions": ["pickup", "delivery"], "location": {"address1": "125 W 55th St", "address2": "", "address3": null, "city": "New York", "zip_code": "10019", "country": "US", "state": "NY", "display_address": ["125 W 55th St", "New York, NY 10019"]}, "phone": "+12122470500", "display_phone": "(212) 247-0500", "distance": 932.8127010470686}], "total": 701, "region": {"center": {"longitude": -73.96957397460938, "latitude": 40.75917470627005}}}