{"businesses": [{"id": "M8xnlKQOh0tl58LJCnPUVA", "alias": "ravagh-persian-grill-new-york-3", "name": "Ravagh Persian Grill", "image_url": "https://s3-media1.fl.yelpcdn.com/bphoto/BWw5WbDPlQXPbPrqn7WJPg/o.jpg", "is_closed": false, "url": "https://www.yelp.com/biz/ravagh-persian-grill-new-york-3?adjust_creative=9gNmiWYX8uTbFBeTTvJMdA&utm_campaign=yelp_api_v3&utm_medium=api_v3_business_search&utm_source=9gNmiWYX8uTbFBeTTvJMdA", "review_count": 401, "categories": [{"alias": "persian", "title": "Persian/Iranian"}, {"alias": "mediterranean", "title": "Mediterranean"}], "rating": 4.0, "coordinates": {"latitude": 40.7618025365842, "longitude": -73.9605525538847}, "transactions": ["delivery", "pickup"], "price": "$$", "location": {"address1": "1135 1st Ave", "address2": "", "address3": "", "city": "New York", "zip_code": "10065", "country": "US", "state": "NY", "display_address": ["1135 1st Ave", "New York, NY 10065"]}, "phone": "+12128617900", "display_phone": "(212) 861-7900", "distance": 814.0688683678029}, {"id": "_HDL2GbVd6OsbBYDUWx8Zg", "alias": "cava-new-york-6", "name": "Cava", "image_url": "https://s3-media3.fl.yelpcdn.com/bphoto/aI3bjYToon-Cg7nUsZUqEQ/o.jpg", "is_closed": false, "url": "https://www.yelp.com/biz/cava-new-york-6?adjust_creative=9gNmiWYX8uTbFBeTTvJMdA&utm_campaign=yelp_api_v3&utm_medium=api_v3_business_search&utm_source=9gNmiWYX8uTbFBeTTvJMdA", "review_count": 219, "categories": [{"alias": "mediterranean", "title": "Mediterranean"}, {"alias": "salad", "title": "Salad"}], "rating": 4.0, "coordinates": {"latitude": 40.74088865307254, "longitude": -73.98549001165841}, "transactions": [], "price": "$$", "location": {"address1": "325 Park Ave S", "address2": "", "address3": null, "city": "New York", "zip_code": "10010", "country": "US", "state": "NY", "display_address": ["325 Park Ave S", "New York, NY 10010"]}, "phone": "+17183609196", "display_phone": "(718) 360-9196", "distance": 2435.550200086613}, {"id": "356XKWDc9lVUCBuEZ2HHiQ", "alias": "entwine-new-york", "name": "Entwine", "image_url": "https://s3-media2.fl.yelpcdn.com/bphoto/zYof5eP1ckWj-quI_Lqgng/o.jpg", "is_closed": false, "url": "https://www.yelp.com/biz/entwine-new-york?adjust_creative=9gNmiWYX8uTbFBeTTvJMdA&utm_campaign=yelp_api_v3&utm_medium=api_v3_business_search&utm_source=9gNmiWYX8uTbFBeTTvJMdA", "review_count": 256, "categories": [{"alias": "mediterranean", "title": "Mediterranean"}, {"alias": "cocktailbars", "title": "Cocktail Bars"}, {"alias": "venues", "title": "Venues & Event Spaces"}], "rating": 4.0, "coordinates": {"latitude": 40.737398, "longitude": -74.00796}, "transactions": ["delivery", "pickup"], "price": "$$", "location": {"address1": "765 Washington St", "address2": "", "address3": "", "city": "New York", "zip_code": "10014", "country": "US", "state": "NY", "display_address": ["765 Washington St", "New York, NY 10014"]}, "phone": "+12127278765", "display_phone": "(212) 727-8765", "distance": 4039.7694386686358}, {"id": "6emR8SU0UlcKI2o-0yO7Wg", "alias": "antique-garage-tribeca-new-york", "name": "Antique Garage Tribeca", "image_url": "https://s3-media1.fl.yelpcdn.com/bphoto/YZH8ICKq353htLiAW4mw_w/o.jpg", "is_closed": false, "url": "https://www.yelp.com/biz/antique-garage-tribeca-new-york?adjust_creative=9gNmiWYX8uTbFBeTTvJMdA&utm_campaign=yelp_api_v3&utm_medium=api_v3_business_search&utm_source=9gNmiWYX8uTbFBeTTvJMdA", "review_count": 111, "categories": [{"alias": "mediterranean", "title": "Mediterranean"}, {"alias": "turkish", "title": "Turkish"}], "rating": 4.0, "coordinates": {"latitude": 40.71972, "longitude": -74.00397}, "transactions": ["delivery"], "price": "$$$", "location": {"address1": "313 Church St", "address2": null, "address3": "", "city": "New York", "zip_code": "10013", "country": "US", "state": "NY", "display_address": ["313 Church St", "New York, NY 10013"]}, "phone": "+12122260066", "display_phone": "(212) 226-0066", "distance": 5256.376448073155}, {"id": "B3vbVvQOofXU6lFkrN1_2A", "alias": "gardenia-terrace-new-york", "name": "Gardenia Terrace", "image_url": "https://s3-media3.fl.yelpcdn.com/bphoto/RUhPz6dO8Yhff_RWceRGvA/o.jpg", "is_closed": false, "url": "https://www.yelp.com/biz/gardenia-terrace-new-york?adjust_creative=9gNmiWYX8uTbFBeTTvJMdA&utm_campaign=yelp_api_v3&utm_medium=api_v3_business_search&utm_source=9gNmiWYX8uTbFBeTTvJMdA", "review_count": 267, "categories": [{"alias": "hookah_bars", "title": "Hookah Bars"}, {"alias": "mediterranean", "title": "Mediterranean"}, {"alias": "wine_bars", "title": "Wine Bars"}], "rating": 4.0, "coordinates": {"latitude": 40.7675581, "longitude": -73.9892952}, "transactions": ["delivery", "pickup"], "price": "$$$", "location": {"address1": "826 10th Ave", "address2": null, "address3": "", "city": "New York", "zip_code": "10019", "country": "US", "state": "NY", "display_address": ["826 10th Ave", "New York, NY 10019"]}, "phone": "+12123340489", "display_phone": "(212) 334-0489", "distance": 1904.6421206301097}, {"id": "7KN1q3ssjWoEnT_ggW09IA", "alias": "king-souvlaki-astoria-astoria-2", "name": "King Souvlaki - Astoria", "image_url": "https://s3-media1.fl.yelpcdn.com/bphoto/jrCWyDuYsoOVFfDfXd6w2A/o.jpg", "is_closed": false, "url": "https://www.yelp.com/biz/king-souvlaki-astoria-astoria-2?adjust_creative=9gNmiWYX8uTbFBeTTvJMdA&utm_campaign=yelp_api_v3&utm_medium=api_v3_business_search&utm_source=9gNmiWYX8uTbFBeTTvJMdA", "review_count": 350, "categories": [{"alias": "greek", "title": "Greek"}, {"alias": "foodtrucks", "title": "Food Trucks"}], "rating": 4.0, "coordinates": {"latitude": 40.764355, "longitude": -73.923586}, "transactions": ["delivery", "pickup"], "price": "$$", "location": {"address1": "31 St And 31 Ave", "address2": null, "address3": null, "city": "Astoria", "zip_code": "11106", "country": "US", "state": "NY", "display_address": ["31 St And 31 Ave", "Astoria, NY 11106"]}, "phone": "+19174161189", "display_phone": "(917) 416-1189", "distance": 3915.815290066298}, {"id": "-QIPdiq5ILg_EJqdVoCqEA", "alias": "istanbul-kebab-house-new-york", "name": "Istanbul Kebab House", "image_url": "https://s3-media2.fl.yelpcdn.com/bphoto/l84RCqpZ8WGpuMmKLIY0RQ/o.jpg", "is_closed": false, "url": "https://www.yelp.com/biz/istanbul-kebab-house-new-york?adjust_creative=9gNmiWYX8uTbFBeTTvJMdA&utm_campaign=yelp_api_v3&utm_medium=api_v3_business_search&utm_source=9gNmiWYX8uTbFBeTTvJMdA", "review_count": 644, "categories": [{"alias": "turkish", "title": "Turkish"}, {"alias": "halal", "title": "Halal"}, {"alias": "mediterranean", "title": "Mediterranean"}], "rating": 4.0, "coordinates": {"latitude": 40.76256, "longitude": -73.98941}, "transactions": ["delivery", "pickup"], "price": "$$", "location": {"address1": "712 9th Ave", "address2": "", "address3": "", "city": "New York", "zip_code": "10019", "country": "US", "state": "NY", "display_address": ["712 9th Ave", "New York, NY 10019"]}, "phone": "+12125828282", "display_phone": "(212) 582-8282", "distance": 1713.2030771060768}, {"id": "cG9aOGzPioO4zl6jxuhMLg", "alias": "ilili-box-new-york-3", "name": "ilili Box", "image_url": "https://s3-media2.fl.yelpcdn.com/bphoto/hF_LSWDyLLNxrcluEGoEZA/o.jpg", "is_closed": false, "url": "https://www.yelp.com/biz/ilili-box-new-york-3?adjust_creative=9gNmiWYX8uTbFBeTTvJMdA&utm_campaign=yelp_api_v3&utm_medium=api_v3_business_search&utm_source=9gNmiWYX8uTbFBeTTvJMdA", "review_count": 58, "categories": [{"alias": "mediterranean", "title": "Mediterranean"}], "rating": 3.5, "coordinates": {"latitude": 40.75873, "longitude": -73.9885}, "transactions": ["delivery", "pickup"], "price": "$$", "location": {"address1": "700 8th Ave", "address2": "", "address3": "", "city": "New York", "zip_code": "10036", "country": "US", "state": "NY", "display_address": ["700 8th Ave", "New York, NY 10036"]}, "phone": "+12124811213", "display_phone": "(212) 481-1213", "distance": 1594.8292043582267}, {"id": "6KzJ3JEOQ4QrVbrrRtBxQw", "alias": "avli-the-little-greek-tavern-bayside-3", "name": "Avli The Little Greek Tavern", "image_url": "https://s3-media3.fl.yelpcdn.com/bphoto/7VDj0U0vBSJPBvIDK6An4Q/o.jpg", "is_closed": false, "url": "https://www.yelp.com/biz/avli-the-little-greek-tavern-bayside-3?adjust_creative=9gNmiWYX8uTbFBeTTvJMdA&utm_campaign=yelp_api_v3&utm_medium=api_v3_business_search&utm_source=9gNmiWYX8uTbFBeTTvJMdA", "review_count": 961, "categories": [{"alias": "greek", "title": "Greek"}, {"alias": "mediterranean", "title": "Mediterranean"}, {"alias": "wraps", "title": "Wraps"}], "rating": 4.0, "coordinates": {"latitude": 40.765745, "longitude": -73.77185875889714}, "transactions": ["delivery", "pickup"], "price": "$$", "location": {"address1": "38-31 Bell Blvd", "address2": "", "address3": "", "city": "Bayside", "zip_code": "11361", "country": "US", "state": "NY", "display_address": ["38-31 Bell Blvd", "Bayside, NY 11361"]}, "phone": "+17182247575", "display_phone": "(718) 224-7575", "distance": 16667.888139295894}, {"id": "HyQs1XjmI_x20R_rEEcFqA", "alias": "simply-greek-brooklyn", "name": "Simply Greek", "image_url": "https://s3-media3.fl.yelpcdn.com/bphoto/yCvR1gePACmmvyf3OfUZ8w/o.jpg", "is_closed": false, "url": "https://www.yelp.com/biz/simply-greek-brooklyn?adjust_creative=9gNmiWYX8uTbFBeTTvJMdA&utm_campaign=yelp_api_v3&utm_medium=api_v3_business_search&utm_source=9gNmiWYX8uTbFBeTTvJMdA", "review_count": 49, "categories": [{"alias": "greek", "title": "Greek"}], "rating": 4.5, "coordinates": {"latitude": 40.67551, "longitude": -73.9813459}, "transactions": ["delivery", "pickup"], "location": {"address1": "242 5th Ave", "address2": "", "address3": null, "city": "Brooklyn", "zip_code": "11215", "country": "US", "state": "NY", "display_address": ["242 5th Ave", "Brooklyn, NY 11215"]}, "phone": "+17183048155", "display_phone": "(718) 304-8155", "distance": 9355.833114518085}, {"id": "-fcbr1p0Uijjg3WpDDn5VA", "alias": "avlee-greek-kitchen-brooklyn-3", "name": "Avlee Greek Kitchen", "image_url": "https://s3-media3.fl.yelpcdn.com/bphoto/hadRvROa6CUPpIKMY5mcXQ/o.jpg", "is_closed": false, "url": "https://www.yelp.com/biz/avlee-greek-kitchen-brooklyn-3?adjust_creative=9gNmiWYX8uTbFBeTTvJMdA&utm_campaign=yelp_api_v3&utm_medium=api_v3_business_search&utm_source=9gNmiWYX8uTbFBeTTvJMdA", "review_count": 293, "categories": [{"alias": "greek", "title": "Greek"}, {"alias": "mediterranean", "title": "Mediterranean"}, {"alias": "desserts", "title": "Desserts"}], "rating": 4.5, "coordinates": {"latitude": 40.679911, "longitude": -73.994879}, "transactions": ["delivery", "pickup"], "price": "$$", "location": {"address1": "349 Smith St", "address2": "", "address3": "", "city": "Brooklyn", "zip_code": "11231", "country": "US", "state": "NY", "display_address": ["349 Smith St", "Brooklyn, NY 11231"]}, "phone": "+17188555125", "display_phone": "(718) 855-5125", "distance": 9068.049163412023}, {"id": "W4hobe10Fy54MKqmLaObEg", "alias": "cafe-mogador-new-york", "name": "Cafe Mogador", "image_url": "https://s3-media1.fl.yelpcdn.com/bphoto/RHAhOMnJ90hxeI1UW_d0hQ/o.jpg", "is_closed": false, "url": "https://www.yelp.com/biz/cafe-mogador-new-york?adjust_creative=9gNmiWYX8uTbFBeTTvJMdA&utm_campaign=yelp_api_v3&utm_medium=api_v3_business_search&utm_source=9gNmiWYX8uTbFBeTTvJMdA", "review_count": 2100, "categories": [{"alias": "moroccan", "title": "Moroccan"}, {"alias": "mideastern", "title": "Middle Eastern"}, {"alias": "breakfast_brunch", "title": "Breakfast & Brunch"}], "rating": 4.0, "coordinates": {"latitude": 40.727258767439, "longitude": -73.9845085144043}, "transactions": ["delivery", "pickup"], "price": "$$", "location": {"address1": "101 St Marks Pl", "address2": "", "address3": "", "city": "New York", "zip_code": "10009", "country": "US", "state": "NY", "display_address": ["101 St Marks Pl", "New York, NY 10009"]}, "phone": "+12126772226", "display_phone": "(212) 677-2226", "distance": 3765.3148666864995}, {"id": "4lvM8_IWe_TgSszfwhmrdg", "alias": "12-chairs-cafe-new-york", "name": "12 Chairs Cafe", "image_url": "https://s3-media3.fl.yelpcdn.com/bphoto/Yagp7GARcdN2Y6wGt1jCFA/o.jpg", "is_closed": false, "url": "https://www.yelp.com/biz/12-chairs-cafe-new-york?adjust_creative=9gNmiWYX8uTbFBeTTvJMdA&utm_campaign=yelp_api_v3&utm_medium=api_v3_business_search&utm_source=9gNmiWYX8uTbFBeTTvJMdA", "review_count": 434, "categories": [{"alias": "mideastern", "title": "Middle Eastern"}, {"alias": "breakfast_brunch", "title": "Breakfast & Brunch"}, {"alias": "mediterranean", "title": "Mediterranean"}], "rating": 4.0, "coordinates": {"latitude": 40.7145615, "longitude": -73.9653168}, "transactions": ["delivery", "pickup"], "price": "$$", "location": {"address1": "342 Wythe Ave", "address2": null, "address3": "", "city": "New York", "zip_code": "11249", "country": "US", "state": "NY", "display_address": ["342 Wythe Ave", "New York, NY 11249"]}, "phone": "+13472277077", "display_phone": "(347) 227-7077", "distance": 4982.742394044944}, {"id": "flBpil_5irQ4CKO4FAY6gA", "alias": "greek-town-gyros-rutherford", "name": "Greek Town Gyros", "image_url": "https://s3-media2.fl.yelpcdn.com/bphoto/J0ItuKlPf5KLflFhxvwmdg/o.jpg", "is_closed": false, "url": "https://www.yelp.com/biz/greek-town-gyros-rutherford?adjust_creative=9gNmiWYX8uTbFBeTTvJMdA&utm_campaign=yelp_api_v3&utm_medium=api_v3_business_search&utm_source=9gNmiWYX8uTbFBeTTvJMdA", "review_count": 258, "categories": [{"alias": "greek", "title": "Greek"}, {"alias": "falafel", "title": "Falafel"}, {"alias": "wraps", "title": "Wraps"}], "rating": 4.5, "coordinates": {"latitude": 40.8270225524902, "longitude": -74.1044387817383}, "transactions": ["delivery", "pickup"], "price": "$", "location": {"address1": "65 Park Ave", "address2": "", "address3": "", "city": "Rutherford", "zip_code": "07070", "country": "US", "state": "NJ", "display_address": ["65 Park Ave", "Rutherford, NJ 07070"]}, "phone": "+12016720045", "display_phone": "(201) 672-0045", "distance": 13634.475286491699}, {"id": "D4f6htB176SAxS1q0rZX3A", "alias": "avos-grill-cliffside-park-4", "name": "Avos Grill", "image_url": "https://s3-media4.fl.yelpcdn.com/bphoto/TLoWBgtoWnyijhH_WsCigg/o.jpg", "is_closed": false, "url": "https://www.yelp.com/biz/avos-grill-cliffside-park-4?adjust_creative=9gNmiWYX8uTbFBeTTvJMdA&utm_campaign=yelp_api_v3&utm_medium=api_v3_business_search&utm_source=9gNmiWYX8uTbFBeTTvJMdA", "review_count": 237, "categories": [{"alias": "mediterranean", "title": "Mediterranean"}, {"alias": "newamerican", "title": "American (New)"}, {"alias": "cocktailbars", "title": "Cocktail Bars"}], "rating": 4.0, "coordinates": {"latitude": 40.829162, "longitude": -73.98592}, "transactions": ["delivery", "pickup"], "price": "$$", "location": {"address1": "720 Anderson Ave", "address2": "Ste 4", "address3": "", "city": "Cliffside Park", "zip_code": "07010", "country": "US", "state": "NJ", "display_address": ["720 Anderson Ave", "Ste 4", "Cliffside Park, NJ 07010"]}, "phone": "+12019459038", "display_phone": "(201) 945-9038", "distance": 7902.939821078697}, {"id": "3idAtiEXe_XfTcPoZC_DcQ", "alias": "westville-ny-5", "name": "Westville", "image_url": "https://s3-media1.fl.yelpcdn.com/bphoto/lNktPIQQ_HEhQMEC1IIj4Q/o.jpg", "is_closed": false, "url": "https://www.yelp.com/biz/westville-ny-5?adjust_creative=9gNmiWYX8uTbFBeTTvJMdA&utm_campaign=yelp_api_v3&utm_medium=api_v3_business_search&utm_source=9gNmiWYX8uTbFBeTTvJMdA", "review_count": 1134, "categories": [{"alias": "mediterranean", "title": "Mediterranean"}], "rating": 4.0, "coordinates": {"latitude": 40.728473, "longitude": -73.982104}, "transactions": ["delivery", "pickup"], "price": "$$", "location": {"address1": "173 Avenue A", "address2": "", "address3": "", "city": "NY", "zip_code": "10009", "country": "US", "state": "NY", "display_address": ["173 Avenue A", "NY, NY 10009"]}, "phone": "+12126772033", "display_phone": "(212) 677-2033", "distance": 3574.206374042469}, {"id": "Ptd1vzkvdeZUws9zuLR4FA", "alias": "omar-s-mediterranean-cuisine-new-york", "name": "Omar\u2019s Mediterranean Cuisine", "image_url": "https://s3-media2.fl.yelpcdn.com/bphoto/lhsOK41xj048_JYe3y-ZQA/o.jpg", "is_closed": false, "url": "https://www.yelp.com/biz/omar-s-mediterranean-cuisine-new-york?adjust_creative=9gNmiWYX8uTbFBeTTvJMdA&utm_campaign=yelp_api_v3&utm_medium=api_v3_business_search&utm_source=9gNmiWYX8uTbFBeTTvJMdA", "review_count": 21, "categories": [{"alias": "mediterranean", "title": "Mediterranean"}, {"alias": "salad", "title": "Salad"}, {"alias": "bbq", "title": "Barbeque"}], "rating": 5.0, "coordinates": {"latitude": 40.71096, "longitude": -74.00787}, "transactions": ["delivery", "pickup"], "location": {"address1": "15 Ann St", "address2": "", "address3": null, "city": "New York", "zip_code": "10038", "country": "US", "state": "NY", "display_address": ["15 Ann St", "New York, NY 10038"]}, "phone": "+16466660101", "display_phone": "(646) 666-0101", "distance": 6246.80760231101}, {"id": "j0n_poMVZnODYOFviLbh0Q", "alias": "ta\u00efm-mediterranean-kitchen-west-village-new-york-3", "name": "ta\u00efm mediterranean kitchen - West Village", "image_url": "https://s3-media2.fl.yelpcdn.com/bphoto/xeu7eHe1mOVv-MLHUSaAPg/o.jpg", "is_closed": false, "url": "https://www.yelp.com/biz/ta%C3%AFm-mediterranean-kitchen-west-village-new-york-3?adjust_creative=9gNmiWYX8uTbFBeTTvJMdA&utm_campaign=yelp_api_v3&utm_medium=api_v3_business_search&utm_source=9gNmiWYX8uTbFBeTTvJMdA", "review_count": 1570, "categories": [{"alias": "mediterranean", "title": "Mediterranean"}, {"alias": "kosher", "title": "Kosher"}, {"alias": "wraps", "title": "Wraps"}], "rating": 4.5, "coordinates": {"latitude": 40.736002376347, "longitude": -74.0019588366439}, "transactions": ["delivery", "pickup"], "price": "$$", "location": {"address1": "222 Waverly Pl", "address2": null, "address3": "", "city": "New York", "zip_code": "10014", "country": "US", "state": "NY", "display_address": ["222 Waverly Pl", "New York, NY 10014"]}, "phone": "+12126911287", "display_phone": "(212) 691-1287", "distance": 3752.556689829325}, {"id": "fJhzNx7t2QybrYudxULGoA", "alias": "marias-mediterranean-bayside", "name": "Maria's Mediterranean", "image_url": "https://s3-media2.fl.yelpcdn.com/bphoto/546cW1ju1k5S2SF39c9DDQ/o.jpg", "is_closed": false, "url": "https://www.yelp.com/biz/marias-mediterranean-bayside?adjust_creative=9gNmiWYX8uTbFBeTTvJMdA&utm_campaign=yelp_api_v3&utm_medium=api_v3_business_search&utm_source=9gNmiWYX8uTbFBeTTvJMdA", "review_count": 446, "categories": [{"alias": "seafood", "title": "Seafood"}, {"alias": "greek", "title": "Greek"}, {"alias": "mediterranean", "title": "Mediterranean"}], "rating": 4.0, "coordinates": {"latitude": 40.7661182, "longitude": -73.7721149}, "transactions": ["delivery", "pickup"], "price": "$$$", "location": {"address1": "38-11 Bell Blvd", "address2": null, "address3": "", "city": "Bayside", "zip_code": "11361", "country": "US", "state": "NY", "display_address": ["38-11 Bell Blvd", "Bayside, NY 11361"]}, "phone": "+17182791606", "display_phone": "(718) 279-1606", "distance": 16640.98031545207}, {"id": "OegAZK1p9HPL9i7BRSMywQ", "alias": "pancoan-society-long-island-city", "name": "Pancoan Society", "image_url": "https://s3-media1.fl.yelpcdn.com/bphoto/fC7_ViwYf-e66oZlN6E-hA/o.jpg", "is_closed": false, "url": "https://www.yelp.com/biz/pancoan-society-long-island-city?adjust_creative=9gNmiWYX8uTbFBeTTvJMdA&utm_campaign=yelp_api_v3&utm_medium=api_v3_business_search&utm_source=9gNmiWYX8uTbFBeTTvJMdA", "review_count": 23, "categories": [{"alias": "greek", "title": "Greek"}], "rating": 4.5, "coordinates": {"latitude": 40.77028413390203, "longitude": -73.90683048221045}, "transactions": [], "location": {"address1": "4119 23rd Ave", "address2": "", "address3": "", "city": "Long Island City", "zip_code": "11105", "country": "US", "state": "NY", "display_address": ["4119 23rd Ave", "Long Island City, NY 11105"]}, "phone": "+17187283325", "display_phone": "(718) 728-3325", "distance": 5426.6427742793585}, {"id": "WojnO4OcLHo8EBIRgJrGsQ", "alias": "dill-and-parsley-new-york", "name": "Dill & Parsley", "image_url": "https://s3-media2.fl.yelpcdn.com/bphoto/0TLk6nIz4tLkSFecixS0fA/o.jpg", "is_closed": false, "url": "https://www.yelp.com/biz/dill-and-parsley-new-york?adjust_creative=9gNmiWYX8uTbFBeTTvJMdA&utm_campaign=yelp_api_v3&utm_medium=api_v3_business_search&utm_source=9gNmiWYX8uTbFBeTTvJMdA", "review_count": 162, "categories": [{"alias": "mediterranean", "title": "Mediterranean"}, {"alias": "vegetarian", "title": "Vegetarian"}, {"alias": "turkish", "title": "Turkish"}], "rating": 3.5, "coordinates": {"latitude": 40.7560462224459, "longitude": -73.9703554478851}, "transactions": ["delivery", "pickup"], "price": "$$", "location": {"address1": "829 3rd Ave", "address2": "", "address3": "", "city": "New York", "zip_code": "10022", "country": "US", "state": "NY", "display_address": ["829 3rd Ave", "New York, NY 10022"]}, "phone": "+16469186949", "display_phone": "(646) 918-6949", "distance": 354.04353240773673}, {"id": "-jBC0Pc8a57x3_YdQfMtEg", "alias": "mezeh-new-york", "name": "Mezeh", "image_url": "https://s3-media1.fl.yelpcdn.com/bphoto/otN6Si2n1tqgOya08VwGig/o.jpg", "is_closed": false, "url": "https://www.yelp.com/biz/mezeh-new-york?adjust_creative=9gNmiWYX8uTbFBeTTvJMdA&utm_campaign=yelp_api_v3&utm_medium=api_v3_business_search&utm_source=9gNmiWYX8uTbFBeTTvJMdA", "review_count": 25, "categories": [{"alias": "mediterranean", "title": "Mediterranean"}, {"alias": "wraps", "title": "Wraps"}], "rating": 4.0, "coordinates": {"latitude": 40.73887278919948, "longitude": -73.9895743}, "transactions": ["delivery", "pickup"], "location": {"address1": "900 Broadway", "address2": "", "address3": null, "city": "New York", "zip_code": "10003", "country": "US", "state": "NY", "display_address": ["900 Broadway", "New York, NY 10003"]}, "phone": "+16465950078", "display_phone": "(646) 595-0078", "distance": 2816.8607128989647}, {"id": "HCW5HDT6YZU25rkJes9r6g", "alias": "cava-new-york-14", "name": "Cava", "image_url": "https://s3-media2.fl.yelpcdn.com/bphoto/Pe4WgkiIINp7FBMmsHE2ag/o.jpg", "is_closed": false, "url": "https://www.yelp.com/biz/cava-new-york-14?adjust_creative=9gNmiWYX8uTbFBeTTvJMdA&utm_campaign=yelp_api_v3&utm_medium=api_v3_business_search&utm_source=9gNmiWYX8uTbFBeTTvJMdA", "review_count": 102, "categories": [{"alias": "mediterranean", "title": "Mediterranean"}, {"alias": "salad", "title": "Salad"}], "rating": 3.5, "coordinates": {"latitude": 40.7528718388986, "longitude": -73.9876741598475}, "transactions": [], "price": "$$", "location": {"address1": "1385 Broadway", "address2": null, "address3": null, "city": "New York", "zip_code": "10018", "country": "US", "state": "NY", "display_address": ["1385 Broadway", "New York, NY 10018"]}, "phone": "+17182850070", "display_phone": "(718) 285-0070", "distance": 1677.947051786057}, {"id": "lnTPfdaqDqWjywWewsE2Lw", "alias": "miriam-brooklyn-2", "name": "Miriam", "image_url": "https://s3-media3.fl.yelpcdn.com/bphoto/tONRUqmVXTshXUq6dePMSw/o.jpg", "is_closed": false, "url": "https://www.yelp.com/biz/miriam-brooklyn-2?adjust_creative=9gNmiWYX8uTbFBeTTvJMdA&utm_campaign=yelp_api_v3&utm_medium=api_v3_business_search&utm_source=9gNmiWYX8uTbFBeTTvJMdA", "review_count": 1170, "categories": [{"alias": "wine_bars", "title": "Wine Bars"}, {"alias": "mediterranean", "title": "Mediterranean"}, {"alias": "breakfast_brunch", "title": "Breakfast & Brunch"}], "rating": 4.0, "coordinates": {"latitude": 40.6801719843659, "longitude": -73.9777555239717}, "transactions": ["delivery", "restaurant_reservation", "pickup"], "price": "$$", "location": {"address1": "79 5th Ave", "address2": null, "address3": "", "city": "Brooklyn", "zip_code": "11217", "country": "US", "state": "NY", "display_address": ["79 5th Ave", "Brooklyn, NY 11217"]}, "phone": "+17186222250", "display_phone": "(718) 622-2250", "distance": 8811.710030929358}, {"id": "et5zJqXua93IeR-VLsoSQg", "alias": "jimmys-spot-new-york-2", "name": "Jimmy's Spot", "image_url": "https://s3-media3.fl.yelpcdn.com/bphoto/zOXvoQVFElBEhz__YT6VNw/o.jpg", "is_closed": false, "url": "https://www.yelp.com/biz/jimmys-spot-new-york-2?adjust_creative=9gNmiWYX8uTbFBeTTvJMdA&utm_campaign=yelp_api_v3&utm_medium=api_v3_business_search&utm_source=9gNmiWYX8uTbFBeTTvJMdA", "review_count": 10, "categories": [{"alias": "mideastern", "title": "Middle Eastern"}, {"alias": "greek", "title": "Greek"}, {"alias": "foodtrucks", "title": "Food Trucks"}], "rating": 4.0, "coordinates": {"latitude": 40.7534455507994, "longitude": -73.9710726588964}, "transactions": [], "price": "$", "location": {"address1": "226 E 47th St", "address2": "", "address3": "", "city": "New York", "zip_code": "10017", "country": "US", "state": "NY", "display_address": ["226 E 47th St", "New York, NY 10017"]}, "phone": "", "display_phone": "", "distance": 664.2240012683034}, {"id": "yR0tHq3nDpx8GEJC2VjJYQ", "alias": "9-jones-new-york", "name": "9 Jones", "image_url": "https://s3-media2.fl.yelpcdn.com/bphoto/1xw8jLZrw2UjsQbh71LD1Q/o.jpg", "is_closed": false, "url": "https://www.yelp.com/biz/9-jones-new-york?adjust_creative=9gNmiWYX8uTbFBeTTvJMdA&utm_campaign=yelp_api_v3&utm_medium=api_v3_business_search&utm_source=9gNmiWYX8uTbFBeTTvJMdA", "review_count": 13, "categories": [{"alias": "supperclubs", "title": "Supper Clubs"}, {"alias": "greek", "title": "Greek"}, {"alias": "cocktailbars", "title": "Cocktail Bars"}], "rating": 3.0, "coordinates": {"latitude": 40.732346, "longitude": -74.00222}, "transactions": [], "location": {"address1": "9 Jones St", "address2": "", "address3": null, "city": "New York", "zip_code": "10014", "country": "US", "state": "NY", "display_address": ["9 Jones St", "New York, NY 10014"]}, "phone": "", "display_phone": "", "distance": 4058.8742619391337}, {"id": "WUu7ZxH0y5Fp1G1hLrFxRQ", "alias": "marmaris-cafe-edgewater-3", "name": "Marmaris Cafe", "image_url": "https://s3-media1.fl.yelpcdn.com/bphoto/LZDHge8dUFiW-_S642sLAA/o.jpg", "is_closed": false, "url": "https://www.yelp.com/biz/marmaris-cafe-edgewater-3?adjust_creative=9gNmiWYX8uTbFBeTTvJMdA&utm_campaign=yelp_api_v3&utm_medium=api_v3_business_search&utm_source=9gNmiWYX8uTbFBeTTvJMdA", "review_count": 375, "categories": [{"alias": "turkish", "title": "Turkish"}, {"alias": "halal", "title": "Halal"}, {"alias": "mideastern", "title": "Middle Eastern"}], "rating": 4.0, "coordinates": {"latitude": 40.8230585448331, "longitude": -73.9759795390396}, "transactions": ["delivery", "pickup"], "price": "$$", "location": {"address1": "820 River Rd", "address2": "", "address3": "", "city": "Edgewater", "zip_code": "07020", "country": "US", "state": "NJ", "display_address": ["820 River Rd", "Edgewater, NJ 07020"]}, "phone": "+12019439090", "display_phone": "(201) 943-9090", "distance": 7123.989698536165}, {"id": "ShZamNKgSkv8XKDnjE0kPw", "alias": "eros-cafe-east-rutherford", "name": "Eros Cafe", "image_url": "https://s3-media3.fl.yelpcdn.com/bphoto/yNoZ_1bWd07XAi2evAE1mA/o.jpg", "is_closed": false, "url": "https://www.yelp.com/biz/eros-cafe-east-rutherford?adjust_creative=9gNmiWYX8uTbFBeTTvJMdA&utm_campaign=yelp_api_v3&utm_medium=api_v3_business_search&utm_source=9gNmiWYX8uTbFBeTTvJMdA", "review_count": 138, "categories": [{"alias": "cafes", "title": "Cafes"}, {"alias": "greek", "title": "Greek"}], "rating": 3.5, "coordinates": {"latitude": 40.8284782, "longitude": -74.1001848}, "transactions": ["delivery", "pickup"], "price": "$$", "location": {"address1": "168 Union Ave", "address2": "", "address3": "", "city": "East Rutherford", "zip_code": "07073", "country": "US", "state": "NJ", "display_address": ["168 Union Ave", "East Rutherford, NJ 07073"]}, "phone": "+12017290005", "display_phone": "(201) 729-0005", "distance": 13451.163460372307}, {"id": "_-EQR2vNYg-b1eZwAgp6JQ", "alias": "tanoreen-brooklyn-2", "name": "Tanoreen", "image_url": "https://s3-media3.fl.yelpcdn.com/bphoto/Lg6wqZpukumsiprbw5_tzw/o.jpg", "is_closed": false, "url": "https://www.yelp.com/biz/tanoreen-brooklyn-2?adjust_creative=9gNmiWYX8uTbFBeTTvJMdA&utm_campaign=yelp_api_v3&utm_medium=api_v3_business_search&utm_source=9gNmiWYX8uTbFBeTTvJMdA", "review_count": 991, "categories": [{"alias": "mideastern", "title": "Middle Eastern"}, {"alias": "mediterranean", "title": "Mediterranean"}, {"alias": "halal", "title": "Halal"}], "rating": 4.0, "coordinates": {"latitude": 40.6308, "longitude": -74.02775}, "transactions": ["delivery", "pickup"], "price": "$$$", "location": {"address1": "7523 3rd Ave", "address2": "", "address3": "", "city": "Brooklyn", "zip_code": "11209", "country": "US", "state": "NY", "display_address": ["7523 3rd Ave", "Brooklyn, NY 11209"]}, "phone": "+17187485600", "display_phone": "(718) 748-5600", "distance": 15095.580921544555}, {"id": "p5PlsI9rZK5vkQo3njhuGQ", "alias": "blue-door-souvlakia-brooklyn", "name": "Blue Door Souvlakia", "image_url": "https://s3-media1.fl.yelpcdn.com/bphoto/nrqfb8b8KZhaZ8DKNFMeHw/o.jpg", "is_closed": false, "url": "https://www.yelp.com/biz/blue-door-souvlakia-brooklyn?adjust_creative=9gNmiWYX8uTbFBeTTvJMdA&utm_campaign=yelp_api_v3&utm_medium=api_v3_business_search&utm_source=9gNmiWYX8uTbFBeTTvJMdA", "review_count": 251, "categories": [{"alias": "greek", "title": "Greek"}], "rating": 4.0, "coordinates": {"latitude": 40.62458, "longitude": -74.0303}, "transactions": ["delivery", "pickup"], "price": "$$", "location": {"address1": "8413 3rd Ave", "address2": "", "address3": null, "city": "Brooklyn", "zip_code": "11209", "country": "US", "state": "NY", "display_address": ["8413 3rd Ave", "Brooklyn, NY 11209"]}, "phone": "+17186808600", "display_phone": "(718) 680-8600", "distance": 15818.250995100698}, {"id": "_IXwnlEd4DsiXuruRiRl9Q", "alias": "pera-mediterranean-brasserie-new-york", "name": "Pera Mediterranean Brasserie", "image_url": "https://s3-media1.fl.yelpcdn.com/bphoto/V39sS178w85tpmrV_xY9XQ/o.jpg", "is_closed": false, "url": "https://www.yelp.com/biz/pera-mediterranean-brasserie-new-york?adjust_creative=9gNmiWYX8uTbFBeTTvJMdA&utm_campaign=yelp_api_v3&utm_medium=api_v3_business_search&utm_source=9gNmiWYX8uTbFBeTTvJMdA", "review_count": 445, "categories": [{"alias": "turkish", "title": "Turkish"}, {"alias": "mediterranean", "title": "Mediterranean"}, {"alias": "mideastern", "title": "Middle Eastern"}], "rating": 3.5, "coordinates": {"latitude": 40.75228, "longitude": -73.9795}, "transactions": ["delivery", "pickup"], "price": "$$$", "location": {"address1": "303 Madison Ave", "address2": null, "address3": "", "city": "New York", "zip_code": "10017", "country": "US", "state": "NY", "display_address": ["303 Madison Ave", "New York, NY 10017"]}, "phone": "+12128786301", "display_phone": "(212) 878-6301", "distance": 1127.0115876835275}, {"id": "ymYhC5m27bUDe16ynByq7g", "alias": "svl-souvlaki-bar-astoria-3", "name": "SVL Souvlaki Bar", "image_url": "https://s3-media1.fl.yelpcdn.com/bphoto/aJ2Rjunfr5-AaJoFFM_EuQ/o.jpg", "is_closed": false, "url": "https://www.yelp.com/biz/svl-souvlaki-bar-astoria-3?adjust_creative=9gNmiWYX8uTbFBeTTvJMdA&utm_campaign=yelp_api_v3&utm_medium=api_v3_business_search&utm_source=9gNmiWYX8uTbFBeTTvJMdA", "review_count": 260, "categories": [{"alias": "mediterranean", "title": "Mediterranean"}, {"alias": "greek", "title": "Greek"}, {"alias": "burgers", "title": "Burgers"}], "rating": 4.0, "coordinates": {"latitude": 40.769956616595195, "longitude": -73.91847404744557}, "transactions": ["delivery", "pickup"], "price": "$$", "location": {"address1": "3018 Astoria Blvd", "address2": "Ste B", "address3": null, "city": "Astoria", "zip_code": "11102", "country": "US", "state": "NY", "display_address": ["3018 Astoria Blvd", "Ste B", "Astoria, NY 11102"]}, "phone": "+17184069141", "display_phone": "(718) 406-9141", "distance": 4467.450210793497}, {"id": "Bt6RoIcazXayp1a8lMSvzA", "alias": "shalel-lounge-new-york-3", "name": "Shalel Lounge", "image_url": "https://s3-media3.fl.yelpcdn.com/bphoto/m9a_Sy3hKzxBSFn4eAw5rA/o.jpg", "is_closed": false, "url": "https://www.yelp.com/biz/shalel-lounge-new-york-3?adjust_creative=9gNmiWYX8uTbFBeTTvJMdA&utm_campaign=yelp_api_v3&utm_medium=api_v3_business_search&utm_source=9gNmiWYX8uTbFBeTTvJMdA", "review_count": 661, "categories": [{"alias": "moroccan", "title": "Moroccan"}, {"alias": "mediterranean", "title": "Mediterranean"}, {"alias": "mideastern", "title": "Middle Eastern"}], "rating": 4.0, "coordinates": {"latitude": 40.7760977, "longitude": -73.9793291}, "transactions": ["delivery", "pickup"], "price": "$$", "location": {"address1": "65 W 70th St", "address2": "", "address3": "", "city": "New York", "zip_code": "10023", "country": "US", "state": "NY", "display_address": ["65 W 70th St", "New York, NY 10023"]}, "phone": "+12128732300", "display_phone": "(212) 873-2300", "distance": 2053.262352932197}, {"id": "s_YuHngBngWwzpcKNIM71A", "alias": "pi-bakerie-new-york-2", "name": "Pi Bakerie", "image_url": "https://s3-media2.fl.yelpcdn.com/bphoto/RUNrwymGMwXkEy9YbPDw3g/o.jpg", "is_closed": false, "url": "https://www.yelp.com/biz/pi-bakerie-new-york-2?adjust_creative=9gNmiWYX8uTbFBeTTvJMdA&utm_campaign=yelp_api_v3&utm_medium=api_v3_business_search&utm_source=9gNmiWYX8uTbFBeTTvJMdA", "review_count": 320, "categories": [{"alias": "bakeries", "title": "Bakeries"}, {"alias": "greek", "title": "Greek"}, {"alias": "catering", "title": "Caterers"}], "rating": 4.5, "coordinates": {"latitude": 40.723644, "longitude": -74.00325}, "transactions": ["delivery", "pickup"], "price": "$$", "location": {"address1": "512 Broome St", "address2": "", "address3": "", "city": "New York", "zip_code": "10013", "country": "US", "state": "NY", "display_address": ["512 Broome St", "New York, NY 10013"]}, "phone": "+12122262701", "display_phone": "(212) 226-2701", "distance": 4860.499901369937}, {"id": "VSPkVw9gSQx-5v4A6aC_YA", "alias": "manousheh-bleecker-new-york-8", "name": "Manousheh - Bleecker", "image_url": "https://s3-media3.fl.yelpcdn.com/bphoto/3R7CyTRhGpqwapBjFnOsgQ/o.jpg", "is_closed": false, "url": "https://www.yelp.com/biz/manousheh-bleecker-new-york-8?adjust_creative=9gNmiWYX8uTbFBeTTvJMdA&utm_campaign=yelp_api_v3&utm_medium=api_v3_business_search&utm_source=9gNmiWYX8uTbFBeTTvJMdA", "review_count": 504, "categories": [{"alias": "lebanese", "title": "Lebanese"}, {"alias": "halal", "title": "Halal"}, {"alias": "sandwiches", "title": "Sandwiches"}], "rating": 4.5, "coordinates": {"latitude": 40.729511, "longitude": -74.001275}, "transactions": ["delivery", "pickup"], "price": "$", "location": {"address1": "193 Bleecker St", "address2": "", "address3": "", "city": "New York", "zip_code": "10012", "country": "US", "state": "NY", "display_address": ["193 Bleecker St", "New York, NY 10012"]}, "phone": "+13479715778", "display_phone": "(347) 971-5778", "distance": 4244.062482848974}, {"id": "4aF0F8w7yXX9o5_QFky_ig", "alias": "celestine-brooklyn", "name": "Celestine", "image_url": "https://s3-media3.fl.yelpcdn.com/bphoto/p98BTWB9IIb4RQyDQw13ZQ/o.jpg", "is_closed": false, "url": "https://www.yelp.com/biz/celestine-brooklyn?adjust_creative=9gNmiWYX8uTbFBeTTvJMdA&utm_campaign=yelp_api_v3&utm_medium=api_v3_business_search&utm_source=9gNmiWYX8uTbFBeTTvJMdA", "review_count": 273, "categories": [{"alias": "mediterranean", "title": "Mediterranean"}, {"alias": "bars", "title": "Bars"}], "rating": 4.0, "coordinates": {"latitude": 40.704676, "longitude": -73.987975}, "transactions": ["delivery"], "price": "$$$", "location": {"address1": "1 John St", "address2": "", "address3": null, "city": "Brooklyn", "zip_code": "11201", "country": "US", "state": "NY", "display_address": ["1 John St", "Brooklyn, NY 11201"]}, "phone": "+17185225356", "display_phone": "(718) 522-5356", "distance": 6255.177066565077}, {"id": "B6eNhdBB0n5auXkRdpWr3Q", "alias": "king-souvlaki-new-york", "name": "King Souvlaki", "image_url": "https://s3-media4.fl.yelpcdn.com/bphoto/HZQyHu1kZIuUPuP1gArQkw/o.jpg", "is_closed": false, "url": "https://www.yelp.com/biz/king-souvlaki-new-york?adjust_creative=9gNmiWYX8uTbFBeTTvJMdA&utm_campaign=yelp_api_v3&utm_medium=api_v3_business_search&utm_source=9gNmiWYX8uTbFBeTTvJMdA", "review_count": 11, "categories": [{"alias": "greek", "title": "Greek"}, {"alias": "foodtrucks", "title": "Food Trucks"}], "rating": 4.0, "coordinates": {"latitude": 40.76473, "longitude": -73.9822}, "transactions": [], "location": {"address1": "West 55th Street and Broadway", "address2": null, "address3": "", "city": "New York", "zip_code": "10017", "country": "US", "state": "NY", "display_address": ["West 55th Street and Broadway", "New York, NY 10017"]}, "phone": "+13473840217", "display_phone": "(347) 384-0217", "distance": 1235.1714440834837}, {"id": "gjIctg7P18f6UocGVW2IMQ", "alias": "bite-new-york-6", "name": "Bite", "image_url": "https://s3-media2.fl.yelpcdn.com/bphoto/wG24AhAoy1giNDdq_kLqbg/o.jpg", "is_closed": false, "url": "https://www.yelp.com/biz/bite-new-york-6?adjust_creative=9gNmiWYX8uTbFBeTTvJMdA&utm_campaign=yelp_api_v3&utm_medium=api_v3_business_search&utm_source=9gNmiWYX8uTbFBeTTvJMdA", "review_count": 361, "categories": [{"alias": "salad", "title": "Salad"}, {"alias": "mediterranean", "title": "Mediterranean"}, {"alias": "sandwiches", "title": "Sandwiches"}], "rating": 4.0, "coordinates": {"latitude": 40.74189, "longitude": -73.99305}, "transactions": ["delivery", "pickup"], "price": "$$", "location": {"address1": "62 W 22nd St", "address2": "", "address3": "", "city": "New York", "zip_code": "10010", "country": "US", "state": "NY", "display_address": ["62 W 22nd St", "New York, NY 10010"]}, "phone": "+16466492768", "display_phone": "(646) 649-2768", "distance": 2753.7294176195082}, {"id": "IFZ3_d01uflGixWrrD8_gg", "alias": "ariana-afghan-kebab-restaurant-new-york", "name": "Ariana Afghan Kebab Restaurant", "image_url": "https://s3-media2.fl.yelpcdn.com/bphoto/0SWjr3Vd07P0bWjxnlY86Q/o.jpg", "is_closed": false, "url": "https://www.yelp.com/biz/ariana-afghan-kebab-restaurant-new-york?adjust_creative=9gNmiWYX8uTbFBeTTvJMdA&utm_campaign=yelp_api_v3&utm_medium=api_v3_business_search&utm_source=9gNmiWYX8uTbFBeTTvJMdA", "review_count": 551, "categories": [{"alias": "afghani", "title": "Afghan"}, {"alias": "halal", "title": "Halal"}, {"alias": "kebab", "title": "Kebab"}], "rating": 4.0, "coordinates": {"latitude": 40.76515, "longitude": -73.98813}, "transactions": ["delivery", "pickup"], "price": "$$", "location": {"address1": "787 9th Ave", "address2": "Apt 3N", "address3": "", "city": "New York", "zip_code": "10019", "country": "US", "state": "NY", "display_address": ["787 9th Ave", "Apt 3N", "New York, NY 10019"]}, "phone": "+12122622323", "display_phone": "(212) 262-2323", "distance": 1693.4824511131626}, {"id": "pAqrkEtry8PFVl-_PIksnw", "alias": "anixi-new-york", "name": "Anixi", "image_url": "https://s3-media2.fl.yelpcdn.com/bphoto/4_IlZg5RDwcEWOjQHuyLIg/o.jpg", "is_closed": false, "url": "https://www.yelp.com/biz/anixi-new-york?adjust_creative=9gNmiWYX8uTbFBeTTvJMdA&utm_campaign=yelp_api_v3&utm_medium=api_v3_business_search&utm_source=9gNmiWYX8uTbFBeTTvJMdA", "review_count": 23, "categories": [{"alias": "vegan", "title": "Vegan"}, {"alias": "mediterranean", "title": "Mediterranean"}, {"alias": "bars", "title": "Bars"}], "rating": 4.5, "coordinates": {"latitude": 40.74634820303653, "longitude": -73.99744489999999}, "transactions": ["delivery", "pickup"], "location": {"address1": "290 8th Ave New York 10001-4801", "address2": null, "address3": "", "city": "New York", "zip_code": "10001", "country": "US", "state": "NY", "display_address": ["290 8th Ave New York 10001-4801", "New York, NY 10001"]}, "phone": "+16464100946", "display_phone": "(646) 410-0946", "distance": 2746.949887981569}, {"id": "ggm-5YHqX5pXgk5Uh42dEA", "alias": "pergola-new-york-4", "name": "Pergola", "image_url": "https://s3-media3.fl.yelpcdn.com/bphoto/TjTfaO7Sc830BB-iV_qghA/o.jpg", "is_closed": false, "url": "https://www.yelp.com/biz/pergola-new-york-4?adjust_creative=9gNmiWYX8uTbFBeTTvJMdA&utm_campaign=yelp_api_v3&utm_medium=api_v3_business_search&utm_source=9gNmiWYX8uTbFBeTTvJMdA", "review_count": 951, "categories": [{"alias": "hookah_bars", "title": "Hookah Bars"}, {"alias": "mediterranean", "title": "Mediterranean"}, {"alias": "lounges", "title": "Lounges"}], "rating": 3.0, "coordinates": {"latitude": 40.745399, "longitude": -73.989588}, "transactions": ["delivery", "pickup"], "price": "$$$", "location": {"address1": "36 W 28th St", "address2": "", "address3": "", "city": "New York", "zip_code": "10001", "country": "US", "state": "NY", "display_address": ["36 W 28th St", "New York, NY 10001"]}, "phone": "+12126794842", "display_phone": "(212) 679-4842", "distance": 2277.8337048545986}, {"id": "arE6K4GreTjN3SJ3a4BfAA", "alias": "laila-mediterranean-cafe-and-grill-west-new-york", "name": "Laila Mediterranean Cafe & Grill", "image_url": "https://s3-media4.fl.yelpcdn.com/bphoto/90MZ7YIKT6KZgRElah4yRQ/o.jpg", "is_closed": false, "url": "https://www.yelp.com/biz/laila-mediterranean-cafe-and-grill-west-new-york?adjust_creative=9gNmiWYX8uTbFBeTTvJMdA&utm_campaign=yelp_api_v3&utm_medium=api_v3_business_search&utm_source=9gNmiWYX8uTbFBeTTvJMdA", "review_count": 19, "categories": [{"alias": "mediterranean", "title": "Mediterranean"}, {"alias": "halal", "title": "Halal"}, {"alias": "sandwiches", "title": "Sandwiches"}], "rating": 4.0, "coordinates": {"latitude": 40.78602342032438, "longitude": -74.01005487889051}, "transactions": ["delivery", "pickup"], "location": {"address1": "126 60th St", "address2": "", "address3": null, "city": "West New York", "zip_code": "07093", "country": "US", "state": "NJ", "display_address": ["126 60th St", "West New York, NJ 07093"]}, "phone": "+12014306568", "display_phone": "(201) 430-6568", "distance": 4531.340083913932}, {"id": "r4gt4Mb76WKJwx1xgrfTtQ", "alias": "souvlaki-shack-new-york", "name": "Souvlaki Shack", "image_url": "https://s3-media1.fl.yelpcdn.com/bphoto/HeqJlDtKytWGvRde4MJsmw/o.jpg", "is_closed": false, "url": "https://www.yelp.com/biz/souvlaki-shack-new-york?adjust_creative=9gNmiWYX8uTbFBeTTvJMdA&utm_campaign=yelp_api_v3&utm_medium=api_v3_business_search&utm_source=9gNmiWYX8uTbFBeTTvJMdA", "review_count": 1, "categories": [{"alias": "foodtrucks", "title": "Food Trucks"}, {"alias": "greek", "title": "Greek"}], "rating": 4.0, "coordinates": {"latitude": 40.72995969999999, "longitude": -73.9899512}, "transactions": ["delivery", "pickup"], "location": {"address1": "101 Astor Pl", "address2": "", "address3": null, "city": "New York", "zip_code": "10003", "country": "US", "state": "NY", "display_address": ["101 Astor Pl", "New York, NY 10003"]}, "phone": "+18455485042", "display_phone": "(845) 548-5042", "distance": 3674.241634923903}, {"id": "QzjF7OVV-WiJH1dILFrzgg", "alias": "baby-blues-luncheonette-brooklyn", "name": "Baby Blues Luncheonette", "image_url": "https://s3-media3.fl.yelpcdn.com/bphoto/2MPMWmJ9z39ZkYx675MiOw/o.jpg", "is_closed": false, "url": "https://www.yelp.com/biz/baby-blues-luncheonette-brooklyn?adjust_creative=9gNmiWYX8uTbFBeTTvJMdA&utm_campaign=yelp_api_v3&utm_medium=api_v3_business_search&utm_source=9gNmiWYX8uTbFBeTTvJMdA", "review_count": 10, "categories": [{"alias": "greek", "title": "Greek"}], "rating": 4.5, "coordinates": {"latitude": 40.707315, "longitude": -73.945808}, "transactions": [], "location": {"address1": "97 Montrose Ave", "address2": "", "address3": null, "city": "Brooklyn", "zip_code": "11206", "country": "US", "state": "NY", "display_address": ["97 Montrose Ave", "Brooklyn, NY 11206"]}, "phone": "", "display_phone": "", "distance": 6108.288258625632}, {"id": "rbb3TpbtzrBbzRxKOTxzEg", "alias": "naya-56-and-6th-new-york-3", "name": "NAYA - 56 & 6th", "image_url": "https://s3-media1.fl.yelpcdn.com/bphoto/Jvcdm230x3zXAOfuhnX7IQ/o.jpg", "is_closed": false, "url": "https://www.yelp.com/biz/naya-56-and-6th-new-york-3?adjust_creative=9gNmiWYX8uTbFBeTTvJMdA&utm_campaign=yelp_api_v3&utm_medium=api_v3_business_search&utm_source=9gNmiWYX8uTbFBeTTvJMdA", "review_count": 236, "categories": [{"alias": "lebanese", "title": "Lebanese"}, {"alias": "mediterranean", "title": "Mediterranean"}], "rating": 4.0, "coordinates": {"latitude": 40.763121, "longitude": -73.977025}, "transactions": ["delivery", "pickup"], "price": "$$", "location": {"address1": "54 W 56th St", "address2": "", "address3": "", "city": "New York", "zip_code": "10019", "country": "US", "state": "NY", "display_address": ["54 W 56th St", "New York, NY 10019"]}, "phone": "+12129447777", "display_phone": "(212) 944-7777", "distance": 765.7477209770927}, {"id": "q45SMZfNrF4XZZWzIC4tGw", "alias": "westville-ny-2", "name": "Westville", "image_url": "https://s3-media4.fl.yelpcdn.com/bphoto/tpvo8usZ6VIUe_wSojY93A/o.jpg", "is_closed": false, "url": "https://www.yelp.com/biz/westville-ny-2?adjust_creative=9gNmiWYX8uTbFBeTTvJMdA&utm_campaign=yelp_api_v3&utm_medium=api_v3_business_search&utm_source=9gNmiWYX8uTbFBeTTvJMdA", "review_count": 573, "categories": [{"alias": "mediterranean", "title": "Mediterranean"}], "rating": 4.0, "coordinates": {"latitude": 40.727125, "longitude": -74.007683}, "transactions": ["delivery", "pickup"], "price": "$$", "location": {"address1": "333 Hudson St", "address2": "", "address3": "", "city": "NY", "zip_code": "10013", "country": "US", "state": "NY", "display_address": ["333 Hudson St", "NY, NY 10013"]}, "phone": "+12127761404", "display_phone": "(212) 776-1404", "distance": 4796.655460842702}, {"id": "6ii5cphr65vt6zrP9N5RVg", "alias": "chamoun-s-way-new-york-4", "name": "Chamoun\u2019s Way", "image_url": "https://s3-media1.fl.yelpcdn.com/bphoto/lHJX7WDjBEIw6GonmPO-7Q/o.jpg", "is_closed": false, "url": "https://www.yelp.com/biz/chamoun-s-way-new-york-4?adjust_creative=9gNmiWYX8uTbFBeTTvJMdA&utm_campaign=yelp_api_v3&utm_medium=api_v3_business_search&utm_source=9gNmiWYX8uTbFBeTTvJMdA", "review_count": 129, "categories": [{"alias": "mediterranean", "title": "Mediterranean"}, {"alias": "lebanese", "title": "Lebanese"}], "rating": 5.0, "coordinates": {"latitude": 40.764614, "longitude": -73.95875}, "transactions": ["delivery", "pickup"], "price": "$$", "location": {"address1": "1237 1st Ave", "address2": null, "address3": "", "city": "New York", "zip_code": "10065", "country": "US", "state": "NY", "display_address": ["1237 1st Ave", "New York, NY 10065"]}, "phone": "+19176930690", "display_phone": "(917) 693-0690", "distance": 1093.5977298882676}, {"id": "CO90_8nlxQx10ATsM3b9AQ", "alias": "mythos-authentic-greek-cuisine-flushing", "name": "Mythos Authentic Greek Cuisine", "image_url": "https://s3-media2.fl.yelpcdn.com/bphoto/szbvqAgE5fLvCnRy_imYzg/o.jpg", "is_closed": false, "url": "https://www.yelp.com/biz/mythos-authentic-greek-cuisine-flushing?adjust_creative=9gNmiWYX8uTbFBeTTvJMdA&utm_campaign=yelp_api_v3&utm_medium=api_v3_business_search&utm_source=9gNmiWYX8uTbFBeTTvJMdA", "review_count": 141, "categories": [{"alias": "greek", "title": "Greek"}, {"alias": "mediterranean", "title": "Mediterranean"}, {"alias": "desserts", "title": "Desserts"}], "rating": 3.5, "coordinates": {"latitude": 40.7580291, "longitude": -73.7848921}, "transactions": ["delivery", "pickup"], "price": "$$", "location": {"address1": "19629 Northern Blvd", "address2": "", "address3": "", "city": "Flushing", "zip_code": "11358", "country": "US", "state": "NY", "display_address": ["19629 Northern Blvd", "Flushing, NY 11358"]}, "phone": "+17183576596", "display_phone": "(718) 357-6596", "distance": 15570.718781990456}, {"id": "9VLCikK2J1lqgnb9MOI-GQ", "alias": "taste-of-the-palace-the-bronx", "name": "Taste of the Palace", "image_url": "https://s3-media2.fl.yelpcdn.com/bphoto/_l_luHYPNdbBqnir7HYdWQ/o.jpg", "is_closed": false, "url": "https://www.yelp.com/biz/taste-of-the-palace-the-bronx?adjust_creative=9gNmiWYX8uTbFBeTTvJMdA&utm_campaign=yelp_api_v3&utm_medium=api_v3_business_search&utm_source=9gNmiWYX8uTbFBeTTvJMdA", "review_count": 17, "categories": [{"alias": "mideastern", "title": "Middle Eastern"}], "rating": 4.0, "coordinates": {"latitude": 40.88709, "longitude": -73.90465}, "transactions": ["delivery", "pickup"], "location": {"address1": "436 W 238th St", "address2": "", "address3": null, "city": "The Bronx", "zip_code": "10463", "country": "US", "state": "NY", "display_address": ["436 W 238th St", "The Bronx, NY 10463"]}, "phone": "", "display_phone": "", "distance": 15235.093928892375}, {"id": "-593H2__eJeiSBT4pU7Wfw", "alias": "viand-new-york", "name": "Viand", "image_url": "https://s3-media2.fl.yelpcdn.com/bphoto/8OgnwLSAJ-JVrupV7i8IMg/o.jpg", "is_closed": false, "url": "https://www.yelp.com/biz/viand-new-york?adjust_creative=9gNmiWYX8uTbFBeTTvJMdA&utm_campaign=yelp_api_v3&utm_medium=api_v3_business_search&utm_source=9gNmiWYX8uTbFBeTTvJMdA", "review_count": 183, "categories": [{"alias": "breakfast_brunch", "title": "Breakfast & Brunch"}, {"alias": "newamerican", "title": "American (New)"}, {"alias": "mediterranean", "title": "Mediterranean"}], "rating": 4.0, "coordinates": {"latitude": 40.7856907, "longitude": -73.972613}, "transactions": ["delivery", "pickup"], "price": "$$", "location": {"address1": "517 Columbus Ave", "address2": "", "address3": null, "city": "New York", "zip_code": "10024", "country": "US", "state": "NY", "display_address": ["517 Columbus Ave", "New York, NY 10024"]}, "phone": "+12123623333", "display_phone": "(212) 362-3333", "distance": 2947.524317268734}], "total": 701, "region": {"center": {"longitude": -73.96957397460938, "latitude": 40.75917470627005}}}