{"businesses": [{"id": "QOBD3cHJXON-kNtbsgWvmQ", "alias": "grill-point-new-york-4", "name": "Grill Point", "image_url": "https://s3-media1.fl.yelpcdn.com/bphoto/Q_Kxu4kz36IjVyRQky71YQ/o.jpg", "is_closed": false, "url": "https://www.yelp.com/biz/grill-point-new-york-4?adjust_creative=9gNmiWYX8uTbFBeTTvJMdA&utm_campaign=yelp_api_v3&utm_medium=api_v3_business_search&utm_source=9gNmiWYX8uTbFBeTTvJMdA", "review_count": 13, "categories": [{"alias": "kosher", "title": "Kosher"}, {"alias": "mideastern", "title": "Middle Eastern"}, {"alias": "mediterranean", "title": "Mediterranean"}], "rating": 3.5, "coordinates": {"latitude": 40.77706, "longitude": -73.9572}, "transactions": ["delivery", "pickup"], "location": {"address1": "1215 Lexington Ave", "address2": null, "address3": "", "city": "New York", "zip_code": "10028", "country": "US", "state": "NY", "display_address": ["1215 Lexington Ave", "New York, NY 10028"]}, "phone": "+16464389494", "display_phone": "(646) 438-9494", "distance": 2242.5304543450197}, {"id": "L-IuiVoFMDSw2K6OAciP1g", "alias": "mamouns-falafel-new-york-2", "name": "Mamoun's Falafel", "image_url": "https://s3-media1.fl.yelpcdn.com/bphoto/7Uvw0k2iRKjCUA9BqM-sgg/o.jpg", "is_closed": false, "url": "https://www.yelp.com/biz/mamouns-falafel-new-york-2?adjust_creative=9gNmiWYX8uTbFBeTTvJMdA&utm_campaign=yelp_api_v3&utm_medium=api_v3_business_search&utm_source=9gNmiWYX8uTbFBeTTvJMdA", "review_count": 2563, "categories": [{"alias": "mideastern", "title": "Middle Eastern"}, {"alias": "falafel", "title": "Falafel"}], "rating": 4.0, "coordinates": {"latitude": 40.7302874, "longitude": -74.0004383}, "transactions": ["delivery"], "price": "$", "location": {"address1": "119 MacDougal St", "address2": null, "address3": "", "city": "New York", "zip_code": "10012", "country": "US", "state": "NY", "display_address": ["119 MacDougal St", "New York, NY 10012"]}, "phone": "+12126748685", "display_phone": "(212) 674-8685", "distance": 4133.162450473403}, {"id": "Rr55bXbJcfdm4lIf-1f0Qw", "alias": "kwik-meal-new-york-2", "name": "Kwik Meal", "image_url": "https://s3-media1.fl.yelpcdn.com/bphoto/A8T4vZkIQ9BBO_UCdT9D2Q/o.jpg", "is_closed": false, "url": "https://www.yelp.com/biz/kwik-meal-new-york-2?adjust_creative=9gNmiWYX8uTbFBeTTvJMdA&utm_campaign=yelp_api_v3&utm_medium=api_v3_business_search&utm_source=9gNmiWYX8uTbFBeTTvJMdA", "review_count": 292, "categories": [{"alias": "streetvendors", "title": "Street Vendors"}, {"alias": "halal", "title": "Halal"}, {"alias": "mediterranean", "title": "Mediterranean"}], "rating": 4.0, "coordinates": {"latitude": 40.7567014, "longitude": -73.9828935}, "transactions": ["delivery", "pickup"], "price": "$", "location": {"address1": "100 W 45th St", "address2": null, "address3": "", "city": "New York", "zip_code": "10036", "country": "US", "state": "NY", "display_address": ["100 W 45th St", "New York, NY 10036"]}, "phone": "+19174124694", "display_phone": "(917) 412-4694", "distance": 1162.1400381138121}, {"id": "yVVbc0fYXw93ulhwA4kVUg", "alias": "efes-mediterranean-gyro-and-grill-brooklyn", "name": "Efes Mediterranean Gyro & Grill", "image_url": "https://s3-media2.fl.yelpcdn.com/bphoto/4hKLelDuy9SDG0seq7rMlw/o.jpg", "is_closed": false, "url": "https://www.yelp.com/biz/efes-mediterranean-gyro-and-grill-brooklyn?adjust_creative=9gNmiWYX8uTbFBeTTvJMdA&utm_campaign=yelp_api_v3&utm_medium=api_v3_business_search&utm_source=9gNmiWYX8uTbFBeTTvJMdA", "review_count": 27, "categories": [{"alias": "mediterranean", "title": "Mediterranean"}, {"alias": "kebab", "title": "Kebab"}, {"alias": "seafood", "title": "Seafood"}], "rating": 4.5, "coordinates": {"latitude": 40.683812, "longitude": -73.967688}, "transactions": ["delivery", "pickup"], "location": {"address1": "887 Fulton St", "address2": null, "address3": "", "city": "Brooklyn", "zip_code": "11238", "country": "US", "state": "NY", "display_address": ["887 Fulton St", "Brooklyn, NY 11238"]}, "phone": "+13477253300", "display_phone": "(347) 725-3300", "distance": 8381.418827101406}, {"id": "yB4YcbSpAFE8XGJuQT-6zA", "alias": "cava-jersey-city", "name": "Cava", "image_url": "https://s3-media1.fl.yelpcdn.com/bphoto/LNBFqbJ10HgEh_3T0LTLUA/o.jpg", "is_closed": false, "url": "https://www.yelp.com/biz/cava-jersey-city?adjust_creative=9gNmiWYX8uTbFBeTTvJMdA&utm_campaign=yelp_api_v3&utm_medium=api_v3_business_search&utm_source=9gNmiWYX8uTbFBeTTvJMdA", "review_count": 218, "categories": [{"alias": "mediterranean", "title": "Mediterranean"}, {"alias": "salad", "title": "Salad"}], "rating": 4.0, "coordinates": {"latitude": 40.716799944155, "longitude": -74.0355072729312}, "transactions": [], "price": "$$", "location": {"address1": "30 Montgomery St", "address2": "", "address3": null, "city": "Jersey City", "zip_code": "07302", "country": "US", "state": "NJ", "display_address": ["30 Montgomery St", "Jersey City, NJ 07302"]}, "phone": "+12012051309", "display_phone": "(201) 205-1309", "distance": 7284.235532194018}, {"id": "mg6pemwG9UOxAEwwMM6Tqg", "alias": "halal-n-out-brooklyn", "name": "Halal-N-out", "image_url": "https://s3-media3.fl.yelpcdn.com/bphoto/CG9uMQgWSZHLpDf4bmxfag/o.jpg", "is_closed": false, "url": "https://www.yelp.com/biz/halal-n-out-brooklyn?adjust_creative=9gNmiWYX8uTbFBeTTvJMdA&utm_campaign=yelp_api_v3&utm_medium=api_v3_business_search&utm_source=9gNmiWYX8uTbFBeTTvJMdA", "review_count": 34, "categories": [{"alias": "halal", "title": "Halal"}, {"alias": "mediterranean", "title": "Mediterranean"}, {"alias": "tradamerican", "title": "American (Traditional)"}], "rating": 4.5, "coordinates": {"latitude": 40.71003, "longitude": -73.9584}, "transactions": ["delivery", "pickup"], "location": {"address1": "197 Havemeyer St", "address2": null, "address3": "", "city": "Brooklyn", "zip_code": "11211", "country": "US", "state": "NY", "display_address": ["197 Havemeyer St", "Brooklyn, NY 11211"]}, "phone": "+19293376333", "display_phone": "(929) 337-6333", "distance": 5554.162892414984}, {"id": "Znj2D9i2Rsc_PqaJhE_kFw", "alias": "al-basha-restaurant-paterson-3", "name": "Al Basha Restaurant", "image_url": "https://s3-media3.fl.yelpcdn.com/bphoto/SbxLCTtMn0YpyQNgw8x_qg/o.jpg", "is_closed": false, "url": "https://www.yelp.com/biz/al-basha-restaurant-paterson-3?adjust_creative=9gNmiWYX8uTbFBeTTvJMdA&utm_campaign=yelp_api_v3&utm_medium=api_v3_business_search&utm_source=9gNmiWYX8uTbFBeTTvJMdA", "review_count": 614, "categories": [{"alias": "mideastern", "title": "Middle Eastern"}, {"alias": "newamerican", "title": "American (New)"}, {"alias": "breakfast_brunch", "title": "Breakfast & Brunch"}], "rating": 4.0, "coordinates": {"latitude": 40.8916, "longitude": -74.15694}, "transactions": ["delivery", "pickup"], "price": "$$", "location": {"address1": "1076 Main St", "address2": "", "address3": "", "city": "Paterson", "zip_code": "07503", "country": "US", "state": "NJ", "display_address": ["1076 Main St", "Paterson, NJ 07503"]}, "phone": "+19733453700", "display_phone": "(973) 345-3700", "distance": 21568.113572250935}, {"id": "lKgTNYp-oFL_hTddicAjzw", "alias": "cava-new-york-7", "name": "Cava", "image_url": "https://s3-media3.fl.yelpcdn.com/bphoto/qg8fKMh4HcTQtwH6STa_7A/o.jpg", "is_closed": false, "url": "https://www.yelp.com/biz/cava-new-york-7?adjust_creative=9gNmiWYX8uTbFBeTTvJMdA&utm_campaign=yelp_api_v3&utm_medium=api_v3_business_search&utm_source=9gNmiWYX8uTbFBeTTvJMdA", "review_count": 147, "categories": [{"alias": "mediterranean", "title": "Mediterranean"}, {"alias": "salad", "title": "Salad"}], "rating": 4.0, "coordinates": {"latitude": 40.72192791798716, "longitude": -73.99651188343245}, "transactions": [], "price": "$$", "location": {"address1": "50 Spring St", "address2": "", "address3": null, "city": "New York", "zip_code": "10012", "country": "US", "state": "NY", "display_address": ["50 Spring St", "New York, NY 10012"]}, "phone": "+17183030181", "display_phone": "(718) 303-0181", "distance": 4722.69872307007}, {"id": "c40x0H2nNwR9JyV0z2iuow", "alias": "hunkar-restaurant-carlstadt", "name": "Hunkar Restaurant", "image_url": "https://s3-media4.fl.yelpcdn.com/bphoto/mSMms6mmsv3MdsvfmomqLA/o.jpg", "is_closed": false, "url": "https://www.yelp.com/biz/hunkar-restaurant-carlstadt?adjust_creative=9gNmiWYX8uTbFBeTTvJMdA&utm_campaign=yelp_api_v3&utm_medium=api_v3_business_search&utm_source=9gNmiWYX8uTbFBeTTvJMdA", "review_count": 140, "categories": [{"alias": "turkish", "title": "Turkish"}], "rating": 4.0, "coordinates": {"latitude": 40.83626, "longitude": -74.09202}, "transactions": ["delivery", "pickup"], "price": "$$", "location": {"address1": "319 Hackensack St", "address2": "", "address3": "", "city": "Carlstadt", "zip_code": "07072", "country": "US", "state": "NJ", "display_address": ["319 Hackensack St", "Carlstadt, NJ 07072"]}, "phone": "+12015070606", "display_phone": "(201) 507-0606", "distance": 13405.075314015983}, {"id": "8t47wECGAKvODQwUOaZh1g", "alias": "tommys-family-restaurant-jersey-city-2", "name": "Tommy's Family Restaurant", "image_url": "https://s3-media2.fl.yelpcdn.com/bphoto/RxR1OsrROFM6jyKoy2TqyA/o.jpg", "is_closed": false, "url": "https://www.yelp.com/biz/tommys-family-restaurant-jersey-city-2?adjust_creative=9gNmiWYX8uTbFBeTTvJMdA&utm_campaign=yelp_api_v3&utm_medium=api_v3_business_search&utm_source=9gNmiWYX8uTbFBeTTvJMdA", "review_count": 123, "categories": [{"alias": "breakfast_brunch", "title": "Breakfast & Brunch"}, {"alias": "diners", "title": "Diners"}, {"alias": "greek", "title": "Greek"}], "rating": 4.0, "coordinates": {"latitude": 40.7470400135124, "longitude": -74.0488087829379}, "transactions": ["delivery", "pickup"], "price": "$$", "location": {"address1": "349 Central Ave", "address2": "", "address3": "", "city": "Jersey City", "zip_code": "07307", "country": "US", "state": "NJ", "display_address": ["349 Central Ave", "Jersey City, NJ 07307"]}, "phone": "+12012171211", "display_phone": "(201) 217-1211", "distance": 6809.241774618378}, {"id": "KjqBMZ0bE9VV2VP3DrDZvg", "alias": "first-oasis-brooklyn", "name": "First Oasis", "image_url": "https://s3-media1.fl.yelpcdn.com/bphoto/ETfkHVBmcE2s3oyEGra_pQ/o.jpg", "is_closed": false, "url": "https://www.yelp.com/biz/first-oasis-brooklyn?adjust_creative=9gNmiWYX8uTbFBeTTvJMdA&utm_campaign=yelp_api_v3&utm_medium=api_v3_business_search&utm_source=9gNmiWYX8uTbFBeTTvJMdA", "review_count": 188, "categories": [{"alias": "mideastern", "title": "Middle Eastern"}, {"alias": "halal", "title": "Halal"}, {"alias": "mediterranean", "title": "Mediterranean"}], "rating": 4.0, "coordinates": {"latitude": 40.61803, "longitude": -74.03065}, "transactions": ["delivery", "pickup"], "price": "$$", "location": {"address1": "9218 4th Ave", "address2": "", "address3": "", "city": "Brooklyn", "zip_code": "11209", "country": "US", "state": "NY", "display_address": ["9218 4th Ave", "Brooklyn, NY 11209"]}, "phone": "+17182384505", "display_phone": "(718) 238-4505", "distance": 16519.295974742792}, {"id": "Hg21xHHaEzX_5LJ_BF5RsA", "alias": "pita-bowl-nutley-2", "name": "Pita Bowl", "image_url": "https://s3-media1.fl.yelpcdn.com/bphoto/UdCva9eHBNuKkbLgqLGnVw/o.jpg", "is_closed": false, "url": "https://www.yelp.com/biz/pita-bowl-nutley-2?adjust_creative=9gNmiWYX8uTbFBeTTvJMdA&utm_campaign=yelp_api_v3&utm_medium=api_v3_business_search&utm_source=9gNmiWYX8uTbFBeTTvJMdA", "review_count": 23, "categories": [{"alias": "greek", "title": "Greek"}, {"alias": "mediterranean", "title": "Mediterranean"}, {"alias": "foodtrucks", "title": "Food Trucks"}], "rating": 4.0, "coordinates": {"latitude": 40.81182, "longitude": -74.14487}, "transactions": ["delivery", "pickup"], "location": {"address1": "174 Washington Ave", "address2": null, "address3": "", "city": "Nutley", "zip_code": "07110", "country": "US", "state": "NJ", "display_address": ["174 Washington Ave", "Nutley, NJ 07110"]}, "phone": "+19733435555", "display_phone": "(973) 343-5555", "distance": 15863.56964253028}, {"id": "KoIfOK7ir0EAYj5D3hc7gw", "alias": "ora-cafe-and-bistro-clifton-4", "name": "Ora Cafe & Bistro", "image_url": "https://s3-media3.fl.yelpcdn.com/bphoto/mwMhy-PMguyW5AN9R1Oudg/o.jpg", "is_closed": false, "url": "https://www.yelp.com/biz/ora-cafe-and-bistro-clifton-4?adjust_creative=9gNmiWYX8uTbFBeTTvJMdA&utm_campaign=yelp_api_v3&utm_medium=api_v3_business_search&utm_source=9gNmiWYX8uTbFBeTTvJMdA", "review_count": 12, "categories": [{"alias": "cafes", "title": "Cafes"}, {"alias": "mediterranean", "title": "Mediterranean"}, {"alias": "turkish", "title": "Turkish"}], "rating": 4.0, "coordinates": {"latitude": 40.89019, "longitude": -74.14978}, "transactions": ["delivery", "pickup"], "location": {"address1": "441 Crooks Ave", "address2": null, "address3": "", "city": "Clifton", "zip_code": "07011", "country": "US", "state": "NJ", "display_address": ["441 Crooks Ave", "Clifton, NJ 07011"]}, "phone": "+18565422451", "display_phone": "(856) 542-2451", "distance": 21034.62345553346}, {"id": "n_KosOPSHS81Yq0D6X3peQ", "alias": "falafel-on-broadway-new-york", "name": "Falafel On Broadway", "image_url": "https://s3-media4.fl.yelpcdn.com/bphoto/6kYyptmolpGXs0LpbpSVpQ/o.jpg", "is_closed": false, "url": "https://www.yelp.com/biz/falafel-on-broadway-new-york?adjust_creative=9gNmiWYX8uTbFBeTTvJMdA&utm_campaign=yelp_api_v3&utm_medium=api_v3_business_search&utm_source=9gNmiWYX8uTbFBeTTvJMdA", "review_count": 240, "categories": [{"alias": "mideastern", "title": "Middle Eastern"}, {"alias": "hotdogs", "title": "Fast Food"}], "rating": 4.0, "coordinates": {"latitude": 40.81452, "longitude": -73.95966}, "transactions": ["delivery", "pickup"], "price": "$", "location": {"address1": "3151 Broadway", "address2": "", "address3": "", "city": "New York", "zip_code": "10027", "country": "US", "state": "NY", "display_address": ["3151 Broadway", "New York, NY 10027"]}, "phone": "+12122222300", "display_phone": "(212) 222-2300", "distance": 6210.063817853547}, {"id": "WkPaDzqGSx0X7pFdIuWOww", "alias": "darna-restaurant-paterson", "name": "Darna Restaurant", "image_url": "https://s3-media1.fl.yelpcdn.com/bphoto/K2lWmz8WY7DWfoiL0kQhqw/o.jpg", "is_closed": false, "url": "https://www.yelp.com/biz/darna-restaurant-paterson?adjust_creative=9gNmiWYX8uTbFBeTTvJMdA&utm_campaign=yelp_api_v3&utm_medium=api_v3_business_search&utm_source=9gNmiWYX8uTbFBeTTvJMdA", "review_count": 74, "categories": [{"alias": "mediterranean", "title": "Mediterranean"}, {"alias": "lebanese", "title": "Lebanese"}], "rating": 4.0, "coordinates": {"latitude": 40.8910767, "longitude": -74.1561679}, "transactions": ["pickup"], "location": {"address1": "1090 Main St", "address2": "", "address3": "", "city": "Paterson", "zip_code": "07503", "country": "US", "state": "NJ", "display_address": ["1090 Main St", "Paterson, NJ 07503"]}, "phone": "+18622391504", "display_phone": "(862) 239-1504", "distance": 21488.573756542388}, {"id": "m0HUo-Vzs3Oxb9MqCu4V7Q", "alias": "balade-your-way-new-york-4", "name": "Balade Your Way", "image_url": "https://s3-media1.fl.yelpcdn.com/bphoto/_1q2YhQ-zGmGEHHAB_h5Xw/o.jpg", "is_closed": false, "url": "https://www.yelp.com/biz/balade-your-way-new-york-4?adjust_creative=9gNmiWYX8uTbFBeTTvJMdA&utm_campaign=yelp_api_v3&utm_medium=api_v3_business_search&utm_source=9gNmiWYX8uTbFBeTTvJMdA", "review_count": 44, "categories": [{"alias": "mediterranean", "title": "Mediterranean"}, {"alias": "lebanese", "title": "Lebanese"}, {"alias": "herbsandspices", "title": "Herbs & Spices"}], "rating": 4.5, "coordinates": {"latitude": 40.75245, "longitude": -73.98081}, "transactions": ["delivery", "pickup"], "location": {"address1": "8 E 41st St", "address2": null, "address3": "", "city": "New York", "zip_code": "10017", "country": "US", "state": "NY", "display_address": ["8 E 41st St", "New York, NY 10017"]}, "phone": "+12126897171", "display_phone": "(212) 689-7171", "distance": 1217.47026451728}, {"id": "NjDI7uiks5GO-GyeJ4L1zg", "alias": "abracadabra-magic-deli-brooklyn", "name": "Abracadabra Magic Deli", "image_url": "https://s3-media1.fl.yelpcdn.com/bphoto/Tg5rqeS4Td7XWgbpjyoGXg/o.jpg", "is_closed": false, "url": "https://www.yelp.com/biz/abracadabra-magic-deli-brooklyn?adjust_creative=9gNmiWYX8uTbFBeTTvJMdA&utm_campaign=yelp_api_v3&utm_medium=api_v3_business_search&utm_source=9gNmiWYX8uTbFBeTTvJMdA", "review_count": 52, "categories": [{"alias": "delis", "title": "Delis"}, {"alias": "turkish", "title": "Turkish"}], "rating": 4.5, "coordinates": {"latitude": 40.70359, "longitude": -73.92727}, "transactions": ["delivery", "pickup"], "location": {"address1": "190 Knickerbocker Ave", "address2": "", "address3": null, "city": "Brooklyn", "zip_code": "11237", "country": "US", "state": "NY", "display_address": ["190 Knickerbocker Ave", "Brooklyn, NY 11237"]}, "phone": "+13474138644", "display_phone": "(347) 413-8644", "distance": 7134.955015244529}, {"id": "S4SzD0dzdzNO7FW8JM0dkQ", "alias": "mezze-forest-hills-2", "name": "Mezze", "image_url": "https://s3-media3.fl.yelpcdn.com/bphoto/-2Z_zAhDwsIY4-EsgB2Tag/o.jpg", "is_closed": false, "url": "https://www.yelp.com/biz/mezze-forest-hills-2?adjust_creative=9gNmiWYX8uTbFBeTTvJMdA&utm_campaign=yelp_api_v3&utm_medium=api_v3_business_search&utm_source=9gNmiWYX8uTbFBeTTvJMdA", "review_count": 122, "categories": [{"alias": "mediterranean", "title": "Mediterranean"}, {"alias": "pizza", "title": "Pizza"}, {"alias": "kosher", "title": "Kosher"}], "rating": 4.0, "coordinates": {"latitude": 40.7265825, "longitude": -73.8536276}, "transactions": ["delivery", "pickup"], "location": {"address1": "100-18 Queens Blvd", "address2": null, "address3": "", "city": "Forest Hills", "zip_code": "11375", "country": "US", "state": "NY", "display_address": ["100-18 Queens Blvd", "Forest Hills, NY 11375"]}, "phone": "+17188969996", "display_phone": "(718) 896-9996", "distance": 10432.619405228024}, {"id": "TdAjlHUnsMyFsJheue8aRQ", "alias": "saharas-turkish-cuisine-new-york", "name": "Sahara's Turkish Cuisine", "image_url": "https://s3-media2.fl.yelpcdn.com/bphoto/w9X1Who4DTihIaKrLn4Oqw/o.jpg", "is_closed": false, "url": "https://www.yelp.com/biz/saharas-turkish-cuisine-new-york?adjust_creative=9gNmiWYX8uTbFBeTTvJMdA&utm_campaign=yelp_api_v3&utm_medium=api_v3_business_search&utm_source=9gNmiWYX8uTbFBeTTvJMdA", "review_count": 284, "categories": [{"alias": "turkish", "title": "Turkish"}, {"alias": "mideastern", "title": "Middle Eastern"}, {"alias": "mediterranean", "title": "Mediterranean"}], "rating": 3.5, "coordinates": {"latitude": 40.74143, "longitude": -73.97854}, "transactions": ["delivery", "pickup"], "price": "$$", "location": {"address1": "513 2nd Ave", "address2": null, "address3": "", "city": "New York", "zip_code": "10016", "country": "US", "state": "NY", "display_address": ["513 2nd Ave", "New York, NY 10016"]}, "phone": "+12125327589", "display_phone": "(212) 532-7589", "distance": 2112.4803726122805}, {"id": "U3bhHJsw7yP4uKpL0kSGRA", "alias": "dannys-athens-restaurant-bronx", "name": "Danny's Athens Restaurant", "image_url": "", "is_closed": false, "url": "https://www.yelp.com/biz/dannys-athens-restaurant-bronx?adjust_creative=9gNmiWYX8uTbFBeTTvJMdA&utm_campaign=yelp_api_v3&utm_medium=api_v3_business_search&utm_source=9gNmiWYX8uTbFBeTTvJMdA", "review_count": 2, "categories": [{"alias": "greek", "title": "Greek"}, {"alias": "mediterranean", "title": "Mediterranean"}], "rating": 4.5, "coordinates": {"latitude": 40.82969, "longitude": -73.87451}, "transactions": ["delivery"], "location": {"address1": "1621 Westchester Ave", "address2": "", "address3": "", "city": "Bronx", "zip_code": "10472", "country": "US", "state": "NY", "display_address": ["1621 Westchester Ave", "Bronx, NY 10472"]}, "phone": "+17188609055", "display_phone": "(718) 860-9055", "distance": 11207.909565903023}, {"id": "cXSmZdm0zG6bG8nXwCN69g", "alias": "georges-greek-grill-new-york-2", "name": "George's Greek Grill", "image_url": "", "is_closed": false, "url": "https://www.yelp.com/biz/georges-greek-grill-new-york-2?adjust_creative=9gNmiWYX8uTbFBeTTvJMdA&utm_campaign=yelp_api_v3&utm_medium=api_v3_business_search&utm_source=9gNmiWYX8uTbFBeTTvJMdA", "review_count": 1, "categories": [{"alias": "breakfast_brunch", "title": "Breakfast & Brunch"}, {"alias": "greek", "title": "Greek"}, {"alias": "sandwiches", "title": "Sandwiches"}], "rating": 2.0, "coordinates": {"latitude": 40.76172, "longitude": -73.96067}, "transactions": ["delivery"], "location": {"address1": "1133 1st Avenue", "address2": null, "address3": null, "city": "New York", "zip_code": "10065", "country": "US", "state": "NY", "display_address": ["1133 1st Avenue", "New York, NY 10065"]}, "phone": "+16466096984", "display_phone": "(646) 609-6984", "distance": 801.0732439811177}, {"id": "kmLRmhYTsdeiYLQpC06yxw", "alias": "alhamadanya-sweets-paterson-2", "name": "Alhamadanya Sweets", "image_url": "https://s3-media2.fl.yelpcdn.com/bphoto/AVGIyKbv55pDgn6PUhru_w/o.jpg", "is_closed": false, "url": "https://www.yelp.com/biz/alhamadanya-sweets-paterson-2?adjust_creative=9gNmiWYX8uTbFBeTTvJMdA&utm_campaign=yelp_api_v3&utm_medium=api_v3_business_search&utm_source=9gNmiWYX8uTbFBeTTvJMdA", "review_count": 90, "categories": [{"alias": "desserts", "title": "Desserts"}, {"alias": "mideastern", "title": "Middle Eastern"}], "rating": 5.0, "coordinates": {"latitude": 40.899639, "longitude": -74.1575614}, "transactions": ["delivery", "pickup"], "price": "$", "location": {"address1": "52 E Railway Ave", "address2": null, "address3": "", "city": "Paterson", "zip_code": "07503", "country": "US", "state": "NJ", "display_address": ["52 E Railway Ave", "Paterson, NJ 07503"]}, "phone": "+19739255808", "display_phone": "(973) 925-5808", "distance": 22226.57698149086}, {"id": "hHg8ADXX-0z0-oHGySXNFg", "alias": "cafe-nana-new-york", "name": "Cafe Nana", "image_url": "https://s3-media2.fl.yelpcdn.com/bphoto/rdP-7IlVkQrjqg6R0y7CJA/o.jpg", "is_closed": false, "url": "https://www.yelp.com/biz/cafe-nana-new-york?adjust_creative=9gNmiWYX8uTbFBeTTvJMdA&utm_campaign=yelp_api_v3&utm_medium=api_v3_business_search&utm_source=9gNmiWYX8uTbFBeTTvJMdA", "review_count": 7, "categories": [{"alias": "mediterranean", "title": "Mediterranean"}, {"alias": "kosher", "title": "Kosher"}], "rating": 3.5, "coordinates": {"latitude": 40.7999210787734, "longitude": -73.9683099836111}, "transactions": ["delivery", "pickup"], "price": "$$", "location": {"address1": "606 W 115th St", "address2": "", "address3": "", "city": "New York", "zip_code": "10025", "country": "US", "state": "NY", "display_address": ["606 W 115th St", "New York, NY 10025"]}, "phone": "+19176225222", "display_phone": "(917) 622-5222", "distance": 4532.034695568538}, {"id": "9XmT_XmK1y5s_GXfj7Iz5A", "alias": "yasou-paros-hackensack", "name": "Yasou Paros", "image_url": "https://s3-media2.fl.yelpcdn.com/bphoto/EEmL_s-54jhdGixxHUSEnA/o.jpg", "is_closed": false, "url": "https://www.yelp.com/biz/yasou-paros-hackensack?adjust_creative=9gNmiWYX8uTbFBeTTvJMdA&utm_campaign=yelp_api_v3&utm_medium=api_v3_business_search&utm_source=9gNmiWYX8uTbFBeTTvJMdA", "review_count": 1, "categories": [{"alias": "greek", "title": "Greek"}], "rating": 4.0, "coordinates": {"latitude": 40.88263, "longitude": -74.04374}, "transactions": ["delivery"], "location": {"address1": "137 1/2 Main St", "address2": "", "address3": null, "city": "Hackensack", "zip_code": "07601", "country": "US", "state": "NJ", "display_address": ["137 1/2 Main St", "Hackensack, NJ 07601"]}, "phone": "+12015183580", "display_phone": "(201) 518-3580", "distance": 15068.731788571069}, {"id": "zKGv7E_UNpL8vCiyfUkJEw", "alias": "gyro-king-staten-island-staten-island-2", "name": "Gyro King - Staten island", "image_url": "https://s3-media4.fl.yelpcdn.com/bphoto/gsDh5j_c7U4PC2BktDxrdA/o.jpg", "is_closed": false, "url": "https://www.yelp.com/biz/gyro-king-staten-island-staten-island-2?adjust_creative=9gNmiWYX8uTbFBeTTvJMdA&utm_campaign=yelp_api_v3&utm_medium=api_v3_business_search&utm_source=9gNmiWYX8uTbFBeTTvJMdA", "review_count": 106, "categories": [{"alias": "newamerican", "title": "American (New)"}, {"alias": "halal", "title": "Halal"}, {"alias": "mideastern", "title": "Middle Eastern"}], "rating": 4.0, "coordinates": {"latitude": 40.62666, "longitude": -74.13177}, "transactions": ["delivery", "pickup"], "price": "$", "location": {"address1": "1267 Forest Ave", "address2": "", "address3": "", "city": "Staten Island", "zip_code": "10302", "country": "US", "state": "NY", "display_address": ["1267 Forest Ave", "Staten Island, NY 10302"]}, "phone": "+17185247875", "display_phone": "(718) 524-7875", "distance": 20090.702368316575}, {"id": "8Y5Ytn30Wup9sNf2n99s1A", "alias": "nomo-kitchen-new-york", "name": "NOMO Kitchen", "image_url": "https://s3-media2.fl.yelpcdn.com/bphoto/Nx2Ao6hYK0FqB4NGCIB-1w/o.jpg", "is_closed": false, "url": "https://www.yelp.com/biz/nomo-kitchen-new-york?adjust_creative=9gNmiWYX8uTbFBeTTvJMdA&utm_campaign=yelp_api_v3&utm_medium=api_v3_business_search&utm_source=9gNmiWYX8uTbFBeTTvJMdA", "review_count": 729, "categories": [{"alias": "newamerican", "title": "American (New)"}, {"alias": "mediterranean", "title": "Mediterranean"}, {"alias": "breakfast_brunch", "title": "Breakfast & Brunch"}], "rating": 3.5, "coordinates": {"latitude": 40.7198301, "longitude": -74.0000708}, "transactions": ["delivery", "pickup"], "price": "$$", "location": {"address1": "9 Crosby St", "address2": "", "address3": "NOMO SOHO Hotel", "city": "New York", "zip_code": "10013", "country": "US", "state": "NY", "display_address": ["9 Crosby St", "NOMO SOHO Hotel", "New York, NY 10013"]}, "phone": "+16462186400", "display_phone": "(646) 218-6400", "distance": 5073.615777789718}, {"id": "XwxGe5lDUtrZTr37JU6z-Q", "alias": "sido-grill-new-york", "name": "Sido Grill", "image_url": "https://s3-media3.fl.yelpcdn.com/bphoto/aIA8qPxQ9o9kK_-MpbnucQ/o.jpg", "is_closed": false, "url": "https://www.yelp.com/biz/sido-grill-new-york?adjust_creative=9gNmiWYX8uTbFBeTTvJMdA&utm_campaign=yelp_api_v3&utm_medium=api_v3_business_search&utm_source=9gNmiWYX8uTbFBeTTvJMdA", "review_count": 35, "categories": [{"alias": "falafel", "title": "Falafel"}, {"alias": "sandwiches", "title": "Sandwiches"}], "rating": 4.0, "coordinates": {"latitude": 40.8086721255731, "longitude": -73.9520373567939}, "transactions": ["delivery", "pickup"], "location": {"address1": "2288 Frederick Douglass Blvd", "address2": "", "address3": null, "city": "New York", "zip_code": "10027", "country": "US", "state": "NY", "display_address": ["2288 Frederick Douglass Blvd", "New York, NY 10027"]}, "phone": "+16463295650", "display_phone": "(646) 329-5650", "distance": 5698.458658031745}, {"id": "ox_EiMYKyVFYThbJppGYkQ", "alias": "pita-grill-new-york-3", "name": "Pita Grill", "image_url": "https://s3-media3.fl.yelpcdn.com/bphoto/mJuvZxkT3Jh0CFLms-Y-Mg/o.jpg", "is_closed": false, "url": "https://www.yelp.com/biz/pita-grill-new-york-3?adjust_creative=9gNmiWYX8uTbFBeTTvJMdA&utm_campaign=yelp_api_v3&utm_medium=api_v3_business_search&utm_source=9gNmiWYX8uTbFBeTTvJMdA", "review_count": 14, "categories": [{"alias": "mideastern", "title": "Middle Eastern"}, {"alias": "mediterranean", "title": "Mediterranean"}], "rating": 2.0, "coordinates": {"latitude": 40.7307091, "longitude": -73.986557}, "transactions": [], "price": "$", "location": {"address1": "175 2nd Ave", "address2": "", "address3": "", "city": "New York", "zip_code": "10003", "country": "US", "state": "NY", "display_address": ["175 2nd Ave", "New York, NY 10003"]}, "phone": "+12125292820", "display_phone": "(212) 529-2820", "distance": 3474.17445565756}, {"id": "goxRP7RFyv3tGBqp6x7dYg", "alias": "pita-grill-new-york-22", "name": "Pita Grill", "image_url": "https://s3-media4.fl.yelpcdn.com/bphoto/zsiyGeJsWwLJXvkcfUDRpw/o.jpg", "is_closed": false, "url": "https://www.yelp.com/biz/pita-grill-new-york-22?adjust_creative=9gNmiWYX8uTbFBeTTvJMdA&utm_campaign=yelp_api_v3&utm_medium=api_v3_business_search&utm_source=9gNmiWYX8uTbFBeTTvJMdA", "review_count": 4, "categories": [{"alias": "greek", "title": "Greek"}, {"alias": "mediterranean", "title": "Mediterranean"}, {"alias": "sandwiches", "title": "Sandwiches"}], "rating": 4.0, "coordinates": {"latitude": 40.70138, "longitude": -73.92195}, "transactions": ["delivery", "pickup"], "location": {"address1": "1480 Dekalb Ave", "address2": "", "address3": "", "city": "New York", "zip_code": "11237", "country": "US", "state": "NY", "display_address": ["1480 Dekalb Ave", "New York, NY 11237"]}, "phone": "+13473654810", "display_phone": "(347) 365-4810", "distance": 7585.483870139034}, {"id": "u0-YeqDrlTYkoenXsQaSqg", "alias": "the-hummus-and-pita-new-york-9", "name": "The Hummus & Pita", "image_url": "https://s3-media2.fl.yelpcdn.com/bphoto/utnYggoF_FqUe9NjXddGDw/o.jpg", "is_closed": false, "url": "https://www.yelp.com/biz/the-hummus-and-pita-new-york-9?adjust_creative=9gNmiWYX8uTbFBeTTvJMdA&utm_campaign=yelp_api_v3&utm_medium=api_v3_business_search&utm_source=9gNmiWYX8uTbFBeTTvJMdA", "review_count": 54, "categories": [{"alias": "mediterranean", "title": "Mediterranean"}, {"alias": "mideastern", "title": "Middle Eastern"}, {"alias": "greek", "title": "Greek"}], "rating": 4.5, "coordinates": {"latitude": 40.77869457645689, "longitude": -73.95302561311347}, "transactions": ["delivery", "pickup"], "location": {"address1": "215 E 86th St", "address2": "", "address3": null, "city": "New York", "zip_code": "10028", "country": "US", "state": "NY", "display_address": ["215 E 86th St", "New York, NY 10028"]}, "phone": "+16469444500", "display_phone": "(646) 944-4500", "distance": 2579.3806227862106}, {"id": "kDmGjuRFRX8Wfq5l-RqGSA", "alias": "ali-babas-turkish-cuisine-new-york", "name": "Ali Baba's Turkish Cuisine", "image_url": "https://s3-media2.fl.yelpcdn.com/bphoto/JpU2zyY4vH_loyIYcCvvRA/o.jpg", "is_closed": false, "url": "https://www.yelp.com/biz/ali-babas-turkish-cuisine-new-york?adjust_creative=9gNmiWYX8uTbFBeTTvJMdA&utm_campaign=yelp_api_v3&utm_medium=api_v3_business_search&utm_source=9gNmiWYX8uTbFBeTTvJMdA", "review_count": 312, "categories": [{"alias": "turkish", "title": "Turkish"}, {"alias": "mediterranean", "title": "Mediterranean"}, {"alias": "kebab", "title": "Kebab"}], "rating": 3.0, "coordinates": {"latitude": 40.75236, "longitude": -73.97001}, "transactions": ["delivery", "pickup"], "price": "$$", "location": {"address1": "862 2nd Ave", "address2": "", "address3": "", "city": "New York", "zip_code": "10017", "country": "US", "state": "NY", "display_address": ["862 2nd Ave", "New York, NY 10017"]}, "phone": "+12128888622", "display_phone": "(212) 888-8622", "distance": 759.9851505669947}, {"id": "Lst7wAYH_Dlxocz3nYPnow", "alias": "pera-soho-new-york", "name": "Pera Soho", "image_url": "https://s3-media2.fl.yelpcdn.com/bphoto/lTcEG_QEI7wCouf8bvpTMw/o.jpg", "is_closed": false, "url": "https://www.yelp.com/biz/pera-soho-new-york?adjust_creative=9gNmiWYX8uTbFBeTTvJMdA&utm_campaign=yelp_api_v3&utm_medium=api_v3_business_search&utm_source=9gNmiWYX8uTbFBeTTvJMdA", "review_count": 749, "categories": [{"alias": "mediterranean", "title": "Mediterranean"}, {"alias": "turkish", "title": "Turkish"}, {"alias": "breakfast_brunch", "title": "Breakfast & Brunch"}], "rating": 3.5, "coordinates": {"latitude": 40.7238251309896, "longitude": -74.0032896944427}, "transactions": ["delivery", "pickup"], "price": "$$$", "location": {"address1": "54 Thompson St", "address2": "", "address3": "", "city": "New York", "zip_code": "10012", "country": "US", "state": "NY", "display_address": ["54 Thompson St", "New York, NY 10012"]}, "phone": "+12128786305", "display_phone": "(212) 878-6305", "distance": 4849.604548429445}, {"id": "FVGTLWis-xBCrLmprgVXEg", "alias": "miraj-healthy-grill-new-york", "name": "Miraj Healthy Grill", "image_url": "https://s3-media3.fl.yelpcdn.com/bphoto/ofHQ1GC9a_hW7khHmpap8A/o.jpg", "is_closed": false, "url": "https://www.yelp.com/biz/miraj-healthy-grill-new-york?adjust_creative=9gNmiWYX8uTbFBeTTvJMdA&utm_campaign=yelp_api_v3&utm_medium=api_v3_business_search&utm_source=9gNmiWYX8uTbFBeTTvJMdA", "review_count": 190, "categories": [{"alias": "persian", "title": "Persian/Iranian"}, {"alias": "mediterranean", "title": "Mediterranean"}, {"alias": "halal", "title": "Halal"}], "rating": 4.0, "coordinates": {"latitude": 40.7464441, "longitude": -73.9802022}, "transactions": ["delivery", "pickup"], "price": "$$", "location": {"address1": "120 E 34th St", "address2": null, "address3": "", "city": "New York", "zip_code": "10016", "country": "US", "state": "NY", "display_address": ["120 E 34th St", "New York, NY 10016"]}, "phone": "+12126962818", "display_phone": "(212) 696-2818", "distance": 1674.9151056706667}, {"id": "DKAVCg08eo2JTaS8HhSgrA", "alias": "mamouns-falafel-hoboken-3", "name": "Mamoun's Falafel", "image_url": "https://s3-media4.fl.yelpcdn.com/bphoto/rR6Ivz99z8g5AbX7Ewxrxw/o.jpg", "is_closed": false, "url": "https://www.yelp.com/biz/mamouns-falafel-hoboken-3?adjust_creative=9gNmiWYX8uTbFBeTTvJMdA&utm_campaign=yelp_api_v3&utm_medium=api_v3_business_search&utm_source=9gNmiWYX8uTbFBeTTvJMdA", "review_count": 829, "categories": [{"alias": "mideastern", "title": "Middle Eastern"}, {"alias": "falafel", "title": "Falafel"}, {"alias": "sandwiches", "title": "Sandwiches"}], "rating": 4.0, "coordinates": {"latitude": 40.740146996903825, "longitude": -74.0303276273842}, "transactions": ["delivery", "pickup"], "price": "$", "location": {"address1": "300 Washington St", "address2": "", "address3": "", "city": "Hoboken", "zip_code": "07030", "country": "US", "state": "NJ", "display_address": ["300 Washington St", "Hoboken, NJ 07030"]}, "phone": "+12016560310", "display_phone": "(201) 656-0310", "distance": 5537.859654882591}, {"id": "yWhXiBrycr5h4oVSMB_8zQ", "alias": "sultan-restaurant-and-cafe-lounge-brooklyn", "name": "Sultan Restaurant & Cafe Lounge", "image_url": "https://s3-media1.fl.yelpcdn.com/bphoto/wAX9OA4h8K3DVqgB7VnEbw/o.jpg", "is_closed": false, "url": "https://www.yelp.com/biz/sultan-restaurant-and-cafe-lounge-brooklyn?adjust_creative=9gNmiWYX8uTbFBeTTvJMdA&utm_campaign=yelp_api_v3&utm_medium=api_v3_business_search&utm_source=9gNmiWYX8uTbFBeTTvJMdA", "review_count": 109, "categories": [{"alias": "mideastern", "title": "Middle Eastern"}, {"alias": "mediterranean", "title": "Mediterranean"}, {"alias": "moroccan", "title": "Moroccan"}], "rating": 4.5, "coordinates": {"latitude": 40.69027, "longitude": -73.99503}, "transactions": ["delivery", "pickup"], "price": "$$", "location": {"address1": "144 Atlantic Ave", "address2": "", "address3": "", "city": "Brooklyn", "zip_code": "11201", "country": "US", "state": "NY", "display_address": ["144 Atlantic Ave", "Brooklyn, NY 11201"]}, "phone": "+17184888886", "display_phone": "(718) 488-8886", "distance": 7967.457486774133}, {"id": "DGDgn4lEjpKkMW8U1lzHxA", "alias": "hummus-and-guac-lyndhurst", "name": "Hummus & Guac", "image_url": "https://s3-media2.fl.yelpcdn.com/bphoto/hXOcbcn0KPU4kp-7TdVPtQ/o.jpg", "is_closed": false, "url": "https://www.yelp.com/biz/hummus-and-guac-lyndhurst?adjust_creative=9gNmiWYX8uTbFBeTTvJMdA&utm_campaign=yelp_api_v3&utm_medium=api_v3_business_search&utm_source=9gNmiWYX8uTbFBeTTvJMdA", "review_count": 135, "categories": [{"alias": "mediterranean", "title": "Mediterranean"}, {"alias": "mexican", "title": "Mexican"}, {"alias": "halal", "title": "Halal"}], "rating": 4.0, "coordinates": {"latitude": 40.8120567920045, "longitude": -74.1247057337114}, "transactions": ["delivery", "pickup"], "price": "$$", "location": {"address1": "402 Valley Brook Ave", "address2": null, "address3": "", "city": "Lyndhurst", "zip_code": "07071", "country": "US", "state": "NJ", "display_address": ["402 Valley Brook Ave", "Lyndhurst, NJ 07071"]}, "phone": "+12019352136", "display_phone": "(201) 935-2136", "distance": 14325.281739780725}, {"id": "Ue9zGenIOzlBQY_FC2fXaw", "alias": "milos-caf\u00e9-and-yogurt-bar-new-york", "name": "Milos Caf\u00e9 & Yogurt Bar", "image_url": "", "is_closed": false, "url": "https://www.yelp.com/biz/milos-caf%C3%A9-and-yogurt-bar-new-york?adjust_creative=9gNmiWYX8uTbFBeTTvJMdA&utm_campaign=yelp_api_v3&utm_medium=api_v3_business_search&utm_source=9gNmiWYX8uTbFBeTTvJMdA", "review_count": 1, "categories": [{"alias": "greek", "title": "Greek"}], "rating": 1.0, "coordinates": {"latitude": 40.76368, "longitude": -73.97922}, "transactions": [], "location": {"address1": "125 W 55th St", "address2": "", "address3": null, "city": "New York", "zip_code": "10022", "country": "US", "state": "NY", "display_address": ["125 W 55th St", "New York, NY 10022"]}, "phone": "+19177175802", "display_phone": "(917) 717-5802", "distance": 930.9628453554819}, {"id": "cAcazXWgluB_2-n0KbDQXQ", "alias": "old-baku-brooklyn", "name": "Old Baku", "image_url": "https://s3-media1.fl.yelpcdn.com/bphoto/Kto9SKsqrsqik5Pw2PrNUQ/o.jpg", "is_closed": false, "url": "https://www.yelp.com/biz/old-baku-brooklyn?adjust_creative=9gNmiWYX8uTbFBeTTvJMdA&utm_campaign=yelp_api_v3&utm_medium=api_v3_business_search&utm_source=9gNmiWYX8uTbFBeTTvJMdA", "review_count": 66, "categories": [{"alias": "mideastern", "title": "Middle Eastern"}, {"alias": "russian", "title": "Russian"}, {"alias": "hookah_bars", "title": "Hookah Bars"}], "rating": 4.0, "coordinates": {"latitude": 40.635906, "longitude": -73.977561}, "transactions": ["delivery", "pickup"], "price": "$$", "location": {"address1": "115 Ditmas Ave", "address2": "", "address3": "", "city": "Brooklyn", "zip_code": "11218", "country": "US", "state": "NY", "display_address": ["115 Ditmas Ave", "Brooklyn, NY 11218"]}, "phone": "+17185766399", "display_phone": "(718) 576-6399", "distance": 13730.453780948636}, {"id": "dTeQYgyfKt6GCl_UI5Dd1w", "alias": "fountain-diner-bronx", "name": "Fountain Diner", "image_url": "https://s3-media4.fl.yelpcdn.com/bphoto/vTJ4gIsWXZQq21m1vz-9qA/o.jpg", "is_closed": false, "url": "https://www.yelp.com/biz/fountain-diner-bronx?adjust_creative=9gNmiWYX8uTbFBeTTvJMdA&utm_campaign=yelp_api_v3&utm_medium=api_v3_business_search&utm_source=9gNmiWYX8uTbFBeTTvJMdA", "review_count": 4, "categories": [{"alias": "diners", "title": "Diners"}, {"alias": "mideastern", "title": "Middle Eastern"}, {"alias": "mexican", "title": "Mexican"}], "rating": 4.0, "coordinates": {"latitude": 40.8816, "longitude": -73.87919}, "transactions": ["delivery", "pickup"], "location": {"address1": "131 E Gun Hill Rd", "address2": "", "address3": null, "city": "Bronx", "zip_code": "10467", "country": "US", "state": "NY", "display_address": ["131 E Gun Hill Rd", "Bronx, NY 10467"]}, "phone": "+17187087979", "display_phone": "(718) 708-7979", "distance": 15597.575168157815}, {"id": "03953w_N5CLwi82qt0UIMw", "alias": "halva-mediterranean-grill-paterson-2", "name": "Halva Mediterranean Grill ", "image_url": "https://s3-media3.fl.yelpcdn.com/bphoto/bowLevbCZZ75MQdRqKqzeA/o.jpg", "is_closed": false, "url": "https://www.yelp.com/biz/halva-mediterranean-grill-paterson-2?adjust_creative=9gNmiWYX8uTbFBeTTvJMdA&utm_campaign=yelp_api_v3&utm_medium=api_v3_business_search&utm_source=9gNmiWYX8uTbFBeTTvJMdA", "review_count": 47, "categories": [{"alias": "mediterranean", "title": "Mediterranean"}, {"alias": "burgers", "title": "Burgers"}, {"alias": "turkish", "title": "Turkish"}], "rating": 4.0, "coordinates": {"latitude": 40.89484, "longitude": -74.15995}, "transactions": ["delivery", "pickup"], "location": {"address1": "960 Main St", "address2": null, "address3": "", "city": "Paterson", "zip_code": "07503", "country": "US", "state": "NJ", "display_address": ["960 Main St", "Paterson, NJ 07503"]}, "phone": "+19735532730", "display_phone": "(973) 553-2730", "distance": 22005.299330000886}, {"id": "IgeFI4klLym7f7BV0wMNiA", "alias": "peters-greek-empire-east-elmhurst", "name": "Peter's Greek Empire", "image_url": "https://s3-media3.fl.yelpcdn.com/bphoto/MFe_FPB9yrC2xZ6hzDOdAA/o.jpg", "is_closed": false, "url": "https://www.yelp.com/biz/peters-greek-empire-east-elmhurst?adjust_creative=9gNmiWYX8uTbFBeTTvJMdA&utm_campaign=yelp_api_v3&utm_medium=api_v3_business_search&utm_source=9gNmiWYX8uTbFBeTTvJMdA", "review_count": 15, "categories": [{"alias": "foodtrucks", "title": "Food Trucks"}, {"alias": "greek", "title": "Greek"}], "rating": 4.5, "coordinates": {"latitude": 40.762202, "longitude": -73.895073}, "transactions": [], "price": "$", "location": {"address1": "25 Ave And 73 St", "address2": "", "address3": "", "city": "East Elmhurst", "zip_code": "11370", "country": "US", "state": "NY", "display_address": ["25 Ave And 73 St", "East Elmhurst, NY 11370"]}, "phone": "+15165092375", "display_phone": "(516) 509-2375", "distance": 6283.7738627883155}, {"id": "OMRkRHFXmS9txTWirA-yMA", "alias": "taheni-mediterranean-grill-brooklyn", "name": "Taheni Mediterranean Grill", "image_url": "https://s3-media3.fl.yelpcdn.com/bphoto/7lFILz_VP3wMMAmwClod-g/o.jpg", "is_closed": false, "url": "https://www.yelp.com/biz/taheni-mediterranean-grill-brooklyn?adjust_creative=9gNmiWYX8uTbFBeTTvJMdA&utm_campaign=yelp_api_v3&utm_medium=api_v3_business_search&utm_source=9gNmiWYX8uTbFBeTTvJMdA", "review_count": 268, "categories": [{"alias": "falafel", "title": "Falafel"}, {"alias": "mideastern", "title": "Middle Eastern"}], "rating": 4.0, "coordinates": {"latitude": 40.67742, "longitude": -73.98343}, "transactions": ["delivery", "pickup"], "price": "$", "location": {"address1": "224 4th Ave", "address2": "", "address3": null, "city": "Brooklyn", "zip_code": "11215", "country": "US", "state": "NY", "display_address": ["224 4th Ave", "Brooklyn, NY 11215"]}, "phone": "+17185222083", "display_phone": "(718) 522-2083", "distance": 9167.259689418861}, {"id": "cF2GhXD8v4cfc9i0CTJtwg", "alias": "gyro-loco-and-prince-fried-chicken-fairview", "name": "Gyro Loco & Prince Fried Chicken", "image_url": "https://s3-media3.fl.yelpcdn.com/bphoto/89kcaCTcVSvkyH4t55DP5A/o.jpg", "is_closed": false, "url": "https://www.yelp.com/biz/gyro-loco-and-prince-fried-chicken-fairview?adjust_creative=9gNmiWYX8uTbFBeTTvJMdA&utm_campaign=yelp_api_v3&utm_medium=api_v3_business_search&utm_source=9gNmiWYX8uTbFBeTTvJMdA", "review_count": 36, "categories": [{"alias": "mideastern", "title": "Middle Eastern"}, {"alias": "hotdogs", "title": "Fast Food"}], "rating": 4.5, "coordinates": {"latitude": 40.810624810337785, "longitude": -74.00065648200739}, "transactions": ["delivery", "pickup"], "price": "$$", "location": {"address1": "11 Anderson Ave", "address2": null, "address3": "", "city": "Fairview", "zip_code": "07022", "country": "US", "state": "NJ", "display_address": ["11 Anderson Ave", "Fairview, NJ 07022"]}, "phone": "+12019454555", "display_phone": "(201) 945-4555", "distance": 6291.103959500769}, {"id": "lIV6srdtoTyzRffIPe0AFA", "alias": "louies-gyros-brooklyn", "name": "Louie's Gyros", "image_url": "https://s3-media4.fl.yelpcdn.com/bphoto/pDtA9MJ2nf5NJ4uTefjDPQ/o.jpg", "is_closed": false, "url": "https://www.yelp.com/biz/louies-gyros-brooklyn?adjust_creative=9gNmiWYX8uTbFBeTTvJMdA&utm_campaign=yelp_api_v3&utm_medium=api_v3_business_search&utm_source=9gNmiWYX8uTbFBeTTvJMdA", "review_count": 52, "categories": [{"alias": "greek", "title": "Greek"}, {"alias": "comfortfood", "title": "Comfort Food"}, {"alias": "sandwiches", "title": "Sandwiches"}], "rating": 4.5, "coordinates": {"latitude": 40.62959155568596, "longitude": -74.02878841255159}, "transactions": ["delivery", "pickup"], "location": {"address1": "7720 3rd Ave", "address2": "", "address3": null, "city": "Brooklyn", "zip_code": "11209", "country": "US", "state": "NY", "display_address": ["7720 3rd Ave", "Brooklyn, NY 11209"]}, "phone": "+13479097121", "display_phone": "(347) 909-7121", "distance": 15249.290504914616}, {"id": "LHZcsxl8-XTwPzIh8dhbgA", "alias": "jimbos-restaurant-and-bar-astoria", "name": "Jimbos Restaurant and Bar", "image_url": "https://s3-media4.fl.yelpcdn.com/bphoto/IT3YXmvK40D3Hi8bbhisug/o.jpg", "is_closed": false, "url": "https://www.yelp.com/biz/jimbos-restaurant-and-bar-astoria?adjust_creative=9gNmiWYX8uTbFBeTTvJMdA&utm_campaign=yelp_api_v3&utm_medium=api_v3_business_search&utm_source=9gNmiWYX8uTbFBeTTvJMdA", "review_count": 36, "categories": [{"alias": "greek", "title": "Greek"}, {"alias": "bars", "title": "Bars"}, {"alias": "mediterranean", "title": "Mediterranean"}], "rating": 4.0, "coordinates": {"latitude": 40.770411, "longitude": -73.918582}, "transactions": ["delivery", "pickup"], "price": "$$", "location": {"address1": "3005 Astoria Blvd", "address2": "", "address3": "", "city": "Astoria", "zip_code": "11102", "country": "US", "state": "NY", "display_address": ["3005 Astoria Blvd", "Astoria, NY 11102"]}, "phone": "+17182042087", "display_phone": "(718) 204-2087", "distance": 4471.680026276371}, {"id": "NZJpUCeZxnxQdOf_Zfv-pQ", "alias": "gyro-joint-nj-union-city", "name": "Gyro Joint NJ", "image_url": "https://s3-media2.fl.yelpcdn.com/bphoto/erRYHcbBD1_w8gaRkUFBXw/o.jpg", "is_closed": false, "url": "https://www.yelp.com/biz/gyro-joint-nj-union-city?adjust_creative=9gNmiWYX8uTbFBeTTvJMdA&utm_campaign=yelp_api_v3&utm_medium=api_v3_business_search&utm_source=9gNmiWYX8uTbFBeTTvJMdA", "review_count": 12, "categories": [{"alias": "falafel", "title": "Falafel"}, {"alias": "salad", "title": "Salad"}, {"alias": "tacos", "title": "Tacos"}], "rating": 3.0, "coordinates": {"latitude": 40.77422701466651, "longitude": -74.0248387809003}, "transactions": ["delivery", "pickup"], "location": {"address1": "3800 Palisade Ave", "address2": "", "address3": null, "city": "Union City", "zip_code": "07087", "country": "US", "state": "NJ", "display_address": ["3800 Palisade Ave", "Union City, NJ 07087"]}, "phone": "+12012043982", "display_phone": "(201) 204-3982", "distance": 4945.994919133608}, {"id": "xefmiLAsKURFc6FDGSRgfQ", "alias": "westville-ny-3", "name": "Westville", "image_url": "https://s3-media1.fl.yelpcdn.com/bphoto/_O4D1UjnQ9GNf4ocli5vCw/o.jpg", "is_closed": false, "url": "https://www.yelp.com/biz/westville-ny-3?adjust_creative=9gNmiWYX8uTbFBeTTvJMdA&utm_campaign=yelp_api_v3&utm_medium=api_v3_business_search&utm_source=9gNmiWYX8uTbFBeTTvJMdA", "review_count": 251, "categories": [{"alias": "mediterranean", "title": "Mediterranean"}], "rating": 4.0, "coordinates": {"latitude": 40.704847720599815, "longitude": -74.00642874102088}, "transactions": ["delivery", "pickup"], "price": "$$", "location": {"address1": "110 Wall St", "address2": null, "address3": "", "city": "NY", "zip_code": "10005", "country": "US", "state": "NY", "display_address": ["110 Wall St", "NY, NY 10005"]}, "phone": "+12127414780", "display_phone": "(212) 741-4780", "distance": 6792.321291439031}, {"id": "D4yoqzZ7ycSXGL2xjwJeMg", "alias": "la-tabun-brooklyn", "name": "la tabun", "image_url": "https://s3-media4.fl.yelpcdn.com/bphoto/plP447ZexvMJacosKOSC3Q/o.jpg", "is_closed": false, "url": "https://www.yelp.com/biz/la-tabun-brooklyn?adjust_creative=9gNmiWYX8uTbFBeTTvJMdA&utm_campaign=yelp_api_v3&utm_medium=api_v3_business_search&utm_source=9gNmiWYX8uTbFBeTTvJMdA", "review_count": 17, "categories": [{"alias": "cafes", "title": "Cafes"}, {"alias": "mideastern", "title": "Middle Eastern"}, {"alias": "mediterranean", "title": "Mediterranean"}], "rating": 4.0, "coordinates": {"latitude": 40.62255, "longitude": -73.96441}, "transactions": ["delivery", "pickup"], "location": {"address1": "1111 Avenue K", "address2": "", "address3": null, "city": "Brooklyn", "zip_code": "11230", "country": "US", "state": "NY", "display_address": ["1111 Avenue K", "Brooklyn, NY 11230"]}, "phone": "+17186767928", "display_phone": "(718) 676-7928", "distance": 15198.16280461704}, {"id": "drpQ5_-53Azk3JiGj0Itrg", "alias": "1927-cafe-bar-popularr-new-york-2", "name": "1927 Cafe Bar Popularr", "image_url": "https://s3-media2.fl.yelpcdn.com/bphoto/aCEJMBjFBA0lZX0luFEYiA/o.jpg", "is_closed": false, "url": "https://www.yelp.com/biz/1927-cafe-bar-popularr-new-york-2?adjust_creative=9gNmiWYX8uTbFBeTTvJMdA&utm_campaign=yelp_api_v3&utm_medium=api_v3_business_search&utm_source=9gNmiWYX8uTbFBeTTvJMdA", "review_count": 33, "categories": [{"alias": "cafes", "title": "Cafes"}, {"alias": "coffee", "title": "Coffee & Tea"}, {"alias": "mediterranean", "title": "Mediterranean"}], "rating": 4.5, "coordinates": {"latitude": 40.7998119435347, "longitude": -73.9526442065835}, "transactions": ["delivery", "pickup"], "location": {"address1": "17-25 St Nicholas Ave", "address2": null, "address3": null, "city": "New York", "zip_code": "10026", "country": "US", "state": "NY", "display_address": ["17-25 St Nicholas Ave", "New York, NY 10026"]}, "phone": "+19174091717", "display_phone": "(917) 409-1717", "distance": 4738.1643664778285}, {"id": "_CHgmuCIXI5H_EzjyPATWQ", "alias": "perivoli-long-island-city", "name": "Perivoli", "image_url": "https://s3-media2.fl.yelpcdn.com/bphoto/3u7QaxUvUe7UG7GvJ53-Ww/o.jpg", "is_closed": false, "url": "https://www.yelp.com/biz/perivoli-long-island-city?adjust_creative=9gNmiWYX8uTbFBeTTvJMdA&utm_campaign=yelp_api_v3&utm_medium=api_v3_business_search&utm_source=9gNmiWYX8uTbFBeTTvJMdA", "review_count": 4, "categories": [{"alias": "mediterranean", "title": "Mediterranean"}, {"alias": "greek", "title": "Greek"}, {"alias": "cocktailbars", "title": "Cocktail Bars"}], "rating": 2.5, "coordinates": {"latitude": 40.753804, "longitude": -73.949438}, "transactions": [], "location": {"address1": "8-08 Queens Plz S", "address2": "", "address3": null, "city": "Long Island City", "zip_code": "11101", "country": "US", "state": "NY", "display_address": ["8-08 Queens Plz S", "Long Island City, NY 11101"]}, "phone": "+17182896118", "display_phone": "(718) 289-6118", "distance": 1796.9745811920727}], "total": 701, "region": {"center": {"longitude": -73.96957397460938, "latitude": 40.75917470627005}}}