{"businesses": [{"id": "HVKKciOXD4k9VWXqgM9hqw", "alias": "bedawi-cafe-brooklyn", "name": "Bedawi Cafe", "image_url": "https://s3-media4.fl.yelpcdn.com/bphoto/ahFBmhU9Q4_f_4ZEF5T25Q/o.jpg", "is_closed": false, "url": "https://www.yelp.com/biz/bedawi-cafe-brooklyn?adjust_creative=9gNmiWYX8uTbFBeTTvJMdA&utm_campaign=yelp_api_v3&utm_medium=api_v3_business_search&utm_source=9gNmiWYX8uTbFBeTTvJMdA", "review_count": 181, "categories": [{"alias": "mideastern", "title": "Middle Eastern"}, {"alias": "halal", "title": "Halal"}], "rating": 4.0, "coordinates": {"latitude": 40.65865, "longitude": -73.98222}, "transactions": ["delivery", "pickup"], "price": "$", "location": {"address1": "266 Prospect Park W", "address2": null, "address3": "", "city": "Brooklyn", "zip_code": "11215", "country": "US", "state": "NY", "display_address": ["266 Prospect Park W", "Brooklyn, NY 11215"]}, "phone": "+17184993444", "display_phone": "(718) 499-3444", "distance": 11230.35107512083}, {"id": "43mQbsfP4ZiCN0z8SM475Q", "alias": "cafe-talya-bayonne", "name": "Cafe Talya", "image_url": "https://s3-media4.fl.yelpcdn.com/bphoto/7-5QOlcaWJudlPnmnusPSw/o.jpg", "is_closed": false, "url": "https://www.yelp.com/biz/cafe-talya-bayonne?adjust_creative=9gNmiWYX8uTbFBeTTvJMdA&utm_campaign=yelp_api_v3&utm_medium=api_v3_business_search&utm_source=9gNmiWYX8uTbFBeTTvJMdA", "review_count": 290, "categories": [{"alias": "cafes", "title": "Cafes"}, {"alias": "mediterranean", "title": "Mediterranean"}, {"alias": "tradamerican", "title": "American (Traditional)"}], "rating": 5.0, "coordinates": {"latitude": 40.6844885741496, "longitude": -74.1073497064864}, "transactions": ["delivery", "pickup"], "price": "$", "location": {"address1": "218 Ave B", "address2": "", "address3": "", "city": "Bayonne", "zip_code": "07002", "country": "US", "state": "NJ", "display_address": ["218 Ave B", "Bayonne, NJ 07002"]}, "phone": "+12015355333", "display_phone": "(201) 535-5333", "distance": 14275.085893624895}, {"id": "vj5FPx1Cu5W0Jsf-BCFApA", "alias": "cross-bay-diner-howard-beach-3", "name": "Cross Bay Diner", "image_url": "https://s3-media1.fl.yelpcdn.com/bphoto/0Oig8j_dT1pAkmo_fG9VtQ/o.jpg", "is_closed": false, "url": "https://www.yelp.com/biz/cross-bay-diner-howard-beach-3?adjust_creative=9gNmiWYX8uTbFBeTTvJMdA&utm_campaign=yelp_api_v3&utm_medium=api_v3_business_search&utm_source=9gNmiWYX8uTbFBeTTvJMdA", "review_count": 372, "categories": [{"alias": "tradamerican", "title": "American (Traditional)"}, {"alias": "diners", "title": "Diners"}, {"alias": "greek", "title": "Greek"}], "rating": 3.5, "coordinates": {"latitude": 40.6566038513545, "longitude": -73.8388371675194}, "transactions": ["delivery", "pickup"], "price": "$$", "location": {"address1": "160-31 Cross Bay Blvd", "address2": "", "address3": null, "city": "Howard Beach", "zip_code": "11414", "country": "US", "state": "NY", "display_address": ["160-31 Cross Bay Blvd", "Howard Beach, NY 11414"]}, "phone": "+17188489401", "display_phone": "(718) 848-9401", "distance": 15859.371724698352}, {"id": "N51w2HM8ODZWyDKn9KcVvA", "alias": "kofte-piyaz-brooklyn", "name": "Kofte Piyaz", "image_url": "https://s3-media1.fl.yelpcdn.com/bphoto/Bf_oM1vqmnG_FfCczfIMOw/o.jpg", "is_closed": false, "url": "https://www.yelp.com/biz/kofte-piyaz-brooklyn?adjust_creative=9gNmiWYX8uTbFBeTTvJMdA&utm_campaign=yelp_api_v3&utm_medium=api_v3_business_search&utm_source=9gNmiWYX8uTbFBeTTvJMdA", "review_count": 231, "categories": [{"alias": "turkish", "title": "Turkish"}], "rating": 4.0, "coordinates": {"latitude": 40.6514550017949, "longitude": -74.0035843849182}, "transactions": ["delivery", "pickup"], "price": "$", "location": {"address1": "881 5th Ave", "address2": "", "address3": "", "city": "Brooklyn", "zip_code": "11232", "country": "US", "state": "NY", "display_address": ["881 5th Ave", "Brooklyn, NY 11232"]}, "phone": "+13472277036", "display_phone": "(347) 227-7036", "distance": 12316.181757204253}, {"id": "wyVK8IgxdpsyuBCIiVJttA", "alias": "lava-shawarma-new-york-2", "name": "Lava Shawarma", "image_url": "https://s3-media4.fl.yelpcdn.com/bphoto/wO9EayqnB2WANl34eXKkqQ/o.jpg", "is_closed": false, "url": "https://www.yelp.com/biz/lava-shawarma-new-york-2?adjust_creative=9gNmiWYX8uTbFBeTTvJMdA&utm_campaign=yelp_api_v3&utm_medium=api_v3_business_search&utm_source=9gNmiWYX8uTbFBeTTvJMdA", "review_count": 11, "categories": [{"alias": "mideastern", "title": "Middle Eastern"}], "rating": 4.5, "coordinates": {"latitude": 40.729184, "longitude": -73.998725}, "transactions": ["delivery", "pickup"], "location": {"address1": "226 Thompson St", "address2": "", "address3": null, "city": "New York", "zip_code": "10012", "country": "US", "state": "NY", "display_address": ["226 Thompson St", "New York, NY 10012"]}, "phone": "+16464905080", "display_phone": "(646) 490-5080", "distance": 4142.706632809963}, {"id": "DWR54ugpSThnDub4xeHWow", "alias": "karam-restaurant-brooklyn-2", "name": "Karam Restaurant", "image_url": "https://s3-media2.fl.yelpcdn.com/bphoto/3q7ZvJtSw-xpyD3qCxTv9A/o.jpg", "is_closed": false, "url": "https://www.yelp.com/biz/karam-restaurant-brooklyn-2?adjust_creative=9gNmiWYX8uTbFBeTTvJMdA&utm_campaign=yelp_api_v3&utm_medium=api_v3_business_search&utm_source=9gNmiWYX8uTbFBeTTvJMdA", "review_count": 383, "categories": [{"alias": "mideastern", "title": "Middle Eastern"}, {"alias": "halal", "title": "Halal"}], "rating": 4.0, "coordinates": {"latitude": 40.62297, "longitude": -74.02807}, "transactions": ["delivery", "pickup"], "price": "$", "location": {"address1": "8519 4th Ave", "address2": "", "address3": "", "city": "Brooklyn", "zip_code": "11209", "country": "US", "state": "NY", "display_address": ["8519 4th Ave", "Brooklyn, NY 11209"]}, "phone": "+17187455227", "display_phone": "(718) 745-5227", "distance": 15931.669910231196}, {"id": "ncx0b2sNw3dZnxK_ArZ0tQ", "alias": "tasty-grill-whitestone", "name": "Tasty Grill", "image_url": "https://s3-media2.fl.yelpcdn.com/bphoto/GJNhBCEH_wpJTtsirf9erQ/o.jpg", "is_closed": false, "url": "https://www.yelp.com/biz/tasty-grill-whitestone?adjust_creative=9gNmiWYX8uTbFBeTTvJMdA&utm_campaign=yelp_api_v3&utm_medium=api_v3_business_search&utm_source=9gNmiWYX8uTbFBeTTvJMdA", "review_count": 226, "categories": [{"alias": "greek", "title": "Greek"}, {"alias": "burgers", "title": "Burgers"}, {"alias": "newamerican", "title": "American (New)"}], "rating": 3.5, "coordinates": {"latitude": 40.78819, "longitude": -73.81382}, "transactions": ["delivery", "pickup"], "price": "$$", "location": {"address1": "14-22 150th St", "address2": null, "address3": "", "city": "Whitestone", "zip_code": "11357", "country": "US", "state": "NY", "display_address": ["14-22 150th St", "Whitestone, NY 11357"]}, "phone": "+17187677200", "display_phone": "(718) 767-7200", "distance": 13511.344589033391}, {"id": "bR2IOg3D1l3G4TzKYbEwfA", "alias": "ta\u00efm-mediterranean-kitchen-park-slope-brooklyn-6", "name": "ta\u00efm mediterranean kitchen - Park Slope", "image_url": "https://s3-media2.fl.yelpcdn.com/bphoto/9UuDVQSG9h6CSFqsrMXOjw/o.jpg", "is_closed": false, "url": "https://www.yelp.com/biz/ta%C3%AFm-mediterranean-kitchen-park-slope-brooklyn-6?adjust_creative=9gNmiWYX8uTbFBeTTvJMdA&utm_campaign=yelp_api_v3&utm_medium=api_v3_business_search&utm_source=9gNmiWYX8uTbFBeTTvJMdA", "review_count": 45, "categories": [{"alias": "mediterranean", "title": "Mediterranean"}, {"alias": "wraps", "title": "Wraps"}], "rating": 3.5, "coordinates": {"latitude": 40.6665, "longitude": -73.98174}, "transactions": ["delivery", "pickup"], "location": {"address1": "341 7th Ave", "address2": "", "address3": null, "city": "Brooklyn", "zip_code": "11215", "country": "US", "state": "NY", "display_address": ["341 7th Ave", "Brooklyn, NY 11215"]}, "phone": "+13475990119", "display_phone": "(347) 599-0119", "distance": 10355.837118097552}, {"id": "fKl-XzMrRQyW9tjg9mhIGA", "alias": "sinbad-cafe-and-grill-secaucus-2", "name": "Sinbad Cafe & Grill", "image_url": "https://s3-media2.fl.yelpcdn.com/bphoto/fwxeB-UJbEpbUy4AU25dGw/o.jpg", "is_closed": false, "url": "https://www.yelp.com/biz/sinbad-cafe-and-grill-secaucus-2?adjust_creative=9gNmiWYX8uTbFBeTTvJMdA&utm_campaign=yelp_api_v3&utm_medium=api_v3_business_search&utm_source=9gNmiWYX8uTbFBeTTvJMdA", "review_count": 122, "categories": [{"alias": "mideastern", "title": "Middle Eastern"}, {"alias": "halal", "title": "Halal"}, {"alias": "diners", "title": "Diners"}], "rating": 4.0, "coordinates": {"latitude": 40.79783, "longitude": -74.0657}, "transactions": ["delivery", "pickup"], "price": "$$", "location": {"address1": "20 Meadowlands Pkwy", "address2": "", "address3": "", "city": "Secaucus", "zip_code": "07094", "country": "US", "state": "NJ", "display_address": ["20 Meadowlands Pkwy", "Secaucus, NJ 07094"]}, "phone": "+12017709300", "display_phone": "(201) 770-9300", "distance": 9063.997485115098}, {"id": "HYW2O2qycmFiGUNt_TlyPA", "alias": "shawarmania-astoria", "name": "Shawarmania", "image_url": "https://s3-media3.fl.yelpcdn.com/bphoto/iZk_GvQNhd2fiakzmD-Dgg/o.jpg", "is_closed": false, "url": "https://www.yelp.com/biz/shawarmania-astoria?adjust_creative=9gNmiWYX8uTbFBeTTvJMdA&utm_campaign=yelp_api_v3&utm_medium=api_v3_business_search&utm_source=9gNmiWYX8uTbFBeTTvJMdA", "review_count": 263, "categories": [{"alias": "halal", "title": "Halal"}, {"alias": "mideastern", "title": "Middle Eastern"}, {"alias": "mediterranean", "title": "Mediterranean"}], "rating": 4.0, "coordinates": {"latitude": 40.774947, "longitude": -73.911846}, "transactions": ["delivery", "pickup"], "price": "$", "location": {"address1": "22-49 31st St", "address2": "", "address3": "", "city": "Astoria", "zip_code": "11105", "country": "US", "state": "NY", "display_address": ["22-49 31st St", "Astoria, NY 11105"]}, "phone": "+17185451800", "display_phone": "(718) 545-1800", "distance": 5168.264656678978}, {"id": "Vx-X9dRYvecFALrpxo2w5g", "alias": "teddys-place-bayonne", "name": "Teddy's Place", "image_url": "https://s3-media1.fl.yelpcdn.com/bphoto/Zbieps_bvmcuPs2a7ilpMA/o.jpg", "is_closed": false, "url": "https://www.yelp.com/biz/teddys-place-bayonne?adjust_creative=9gNmiWYX8uTbFBeTTvJMdA&utm_campaign=yelp_api_v3&utm_medium=api_v3_business_search&utm_source=9gNmiWYX8uTbFBeTTvJMdA", "review_count": 142, "categories": [{"alias": "mideastern", "title": "Middle Eastern"}, {"alias": "greek", "title": "Greek"}, {"alias": "mediterranean", "title": "Mediterranean"}], "rating": 4.0, "coordinates": {"latitude": 40.6658802, "longitude": -74.1170519}, "transactions": ["delivery"], "price": "$", "location": {"address1": "5 W 25th St", "address2": "", "address3": "", "city": "Bayonne", "zip_code": "07002", "country": "US", "state": "NJ", "display_address": ["5 W 25th St", "Bayonne, NJ 07002"]}, "phone": "+12013399333", "display_phone": "(201) 339-9333", "distance": 16194.700989950934}, {"id": "RoIl1F0_4A94DdP_xy8Mwg", "alias": "sabrys-astoria", "name": "Sabry's", "image_url": "https://s3-media1.fl.yelpcdn.com/bphoto/zgDBeyZvBUjPHQ39Iv8gfg/o.jpg", "is_closed": false, "url": "https://www.yelp.com/biz/sabrys-astoria?adjust_creative=9gNmiWYX8uTbFBeTTvJMdA&utm_campaign=yelp_api_v3&utm_medium=api_v3_business_search&utm_source=9gNmiWYX8uTbFBeTTvJMdA", "review_count": 318, "categories": [{"alias": "seafood", "title": "Seafood"}, {"alias": "mideastern", "title": "Middle Eastern"}], "rating": 4.5, "coordinates": {"latitude": 40.76835316283952, "longitude": -73.9111827338491}, "transactions": ["delivery", "pickup"], "price": "$$", "location": {"address1": "2425 Steinway St", "address2": "", "address3": "", "city": "Astoria", "zip_code": "11103", "country": "US", "state": "NY", "display_address": ["2425 Steinway St", "Astoria, NY 11103"]}, "phone": "+17187219010", "display_phone": "(718) 721-9010", "distance": 5022.489945674656}, {"id": "ONXsF7KBawsPF4fvzSbd9g", "alias": "krichians-grill-and-bistro-paterson", "name": "Krichian's Grill & Bistro", "image_url": "https://s3-media1.fl.yelpcdn.com/bphoto/_RApnFfK-kyPfeFMCqyhbg/o.jpg", "is_closed": false, "url": "https://www.yelp.com/biz/krichians-grill-and-bistro-paterson?adjust_creative=9gNmiWYX8uTbFBeTTvJMdA&utm_campaign=yelp_api_v3&utm_medium=api_v3_business_search&utm_source=9gNmiWYX8uTbFBeTTvJMdA", "review_count": 56, "categories": [{"alias": "mideastern", "title": "Middle Eastern"}, {"alias": "armenian", "title": "Armenian"}], "rating": 4.5, "coordinates": {"latitude": 40.89200254141359, "longitude": -74.14192744316242}, "transactions": ["delivery", "pickup"], "price": "$$", "location": {"address1": "399 Crooks Ave", "address2": "", "address3": "", "city": "Paterson", "zip_code": "07503", "country": "US", "state": "NJ", "display_address": ["399 Crooks Ave", "Paterson, NJ 07503"]}, "phone": "+19735691033", "display_phone": "(973) 569-1033", "distance": 20699.171146507244}, {"id": "8KotY_L_CXJTD63YrRAdeA", "alias": "gabriellas-place-lebanese-cuisine-nutley", "name": "Gabriella's Place Lebanese Cuisine", "image_url": "https://s3-media1.fl.yelpcdn.com/bphoto/NiEWDQ-n1fJ_xPYKQBw-vw/o.jpg", "is_closed": false, "url": "https://www.yelp.com/biz/gabriellas-place-lebanese-cuisine-nutley?adjust_creative=9gNmiWYX8uTbFBeTTvJMdA&utm_campaign=yelp_api_v3&utm_medium=api_v3_business_search&utm_source=9gNmiWYX8uTbFBeTTvJMdA", "review_count": 111, "categories": [{"alias": "lebanese", "title": "Lebanese"}], "rating": 4.5, "coordinates": {"latitude": 40.8141352096874, "longitude": -74.1635080235389}, "transactions": ["delivery", "pickup"], "price": "$$", "location": {"address1": "177 Franklin Ave", "address2": "", "address3": "", "city": "Nutley", "zip_code": "07110", "country": "US", "state": "NJ", "display_address": ["177 Franklin Ave", "Nutley, NJ 07110"]}, "phone": "+19736677676", "display_phone": "(973) 667-7676", "distance": 17433.713298866758}, {"id": "7Ui-wOox7975OuoQpLIUvg", "alias": "viand-caf\u00e9-new-york-3", "name": "Viand Caf\u00e9", "image_url": "https://s3-media1.fl.yelpcdn.com/bphoto/0MnrxCvbbMsnmKtzzY-Phg/o.jpg", "is_closed": false, "url": "https://www.yelp.com/biz/viand-caf%C3%A9-new-york-3?adjust_creative=9gNmiWYX8uTbFBeTTvJMdA&utm_campaign=yelp_api_v3&utm_medium=api_v3_business_search&utm_source=9gNmiWYX8uTbFBeTTvJMdA", "review_count": 299, "categories": [{"alias": "diners", "title": "Diners"}, {"alias": "greek", "title": "Greek"}], "rating": 3.5, "coordinates": {"latitude": 40.78066, "longitude": -73.98112}, "transactions": ["delivery", "pickup"], "price": "$$", "location": {"address1": "2130 Broadway", "address2": null, "address3": "", "city": "New York", "zip_code": "10023", "country": "US", "state": "NY", "display_address": ["2130 Broadway", "New York, NY 10023"]}, "phone": "+12128772888", "display_phone": "(212) 877-2888", "distance": 2579.4409502488234}, {"id": "maZVyQ0jQ24MeaP9-72XxQ", "alias": "pita-hot-astoria-2", "name": "Pita Hot", "image_url": "https://s3-media2.fl.yelpcdn.com/bphoto/GN8VIS7uMxiV9QoCX9ccyw/o.jpg", "is_closed": false, "url": "https://www.yelp.com/biz/pita-hot-astoria-2?adjust_creative=9gNmiWYX8uTbFBeTTvJMdA&utm_campaign=yelp_api_v3&utm_medium=api_v3_business_search&utm_source=9gNmiWYX8uTbFBeTTvJMdA", "review_count": 301, "categories": [{"alias": "mideastern", "title": "Middle Eastern"}, {"alias": "mediterranean", "title": "Mediterranean"}, {"alias": "halal", "title": "Halal"}], "rating": 4.0, "coordinates": {"latitude": 40.768571, "longitude": -73.924437}, "transactions": ["delivery", "pickup"], "price": "$", "location": {"address1": "25-13 30th Ave", "address2": "", "address3": "", "city": "Astoria", "zip_code": "11102", "country": "US", "state": "NY", "display_address": ["25-13 30th Ave", "Astoria, NY 11102"]}, "phone": "+17189328282", "display_phone": "(718) 932-8282", "distance": 3942.3931081129854}, {"id": "gXrj1hbH0cz_-GddzL1gDQ", "alias": "istanbul-borek-and-kebab-cliffside-park", "name": "Istanbul Borek & Kebab", "image_url": "https://s3-media4.fl.yelpcdn.com/bphoto/s5XHY9cyoPZHeotS0VDAHg/o.jpg", "is_closed": false, "url": "https://www.yelp.com/biz/istanbul-borek-and-kebab-cliffside-park?adjust_creative=9gNmiWYX8uTbFBeTTvJMdA&utm_campaign=yelp_api_v3&utm_medium=api_v3_business_search&utm_source=9gNmiWYX8uTbFBeTTvJMdA", "review_count": 166, "categories": [{"alias": "turkish", "title": "Turkish"}, {"alias": "bakeries", "title": "Bakeries"}, {"alias": "breakfast_brunch", "title": "Breakfast & Brunch"}], "rating": 3.5, "coordinates": {"latitude": 40.8278494765447, "longitude": -73.9875280798444}, "transactions": ["delivery", "pickup"], "price": "$$", "location": {"address1": "360 Lawton Ave", "address2": "", "address3": "", "city": "Cliffside Park", "zip_code": "07010", "country": "US", "state": "NJ", "display_address": ["360 Lawton Ave", "Cliffside Park, NJ 07010"]}, "phone": "+12019453030", "display_phone": "(201) 945-3030", "distance": 7784.4145420232035}, {"id": "VkjEkhPUg-_JaK6-AL5Vsg", "alias": "mombar-astoria", "name": "Mombar", "image_url": "https://s3-media1.fl.yelpcdn.com/bphoto/LZUDXuff02bZbXHPcJXLSQ/o.jpg", "is_closed": false, "url": "https://www.yelp.com/biz/mombar-astoria?adjust_creative=9gNmiWYX8uTbFBeTTvJMdA&utm_campaign=yelp_api_v3&utm_medium=api_v3_business_search&utm_source=9gNmiWYX8uTbFBeTTvJMdA", "review_count": 183, "categories": [{"alias": "egyptian", "title": "Egyptian"}, {"alias": "mediterranean", "title": "Mediterranean"}], "rating": 4.0, "coordinates": {"latitude": 40.76741, "longitude": -73.91243}, "transactions": ["delivery"], "price": "$$", "location": {"address1": "2522 Steinway St", "address2": "", "address3": "", "city": "Astoria", "zip_code": "11103", "country": "US", "state": "NY", "display_address": ["2522 Steinway St", "Astoria, NY 11103"]}, "phone": "+17187262356", "display_phone": "(718) 726-2356", "distance": 4902.80944437052}, {"id": "dYan0dlBcbyOrcNet_Mfmg", "alias": "el-jardin-north-bergen", "name": "El Jardin", "image_url": "https://s3-media2.fl.yelpcdn.com/bphoto/zLHoaiIOl6mnrcs1LHyrGg/o.jpg", "is_closed": false, "url": "https://www.yelp.com/biz/el-jardin-north-bergen?adjust_creative=9gNmiWYX8uTbFBeTTvJMdA&utm_campaign=yelp_api_v3&utm_medium=api_v3_business_search&utm_source=9gNmiWYX8uTbFBeTTvJMdA", "review_count": 7, "categories": [{"alias": "turkish", "title": "Turkish"}, {"alias": "mediterranean", "title": "Mediterranean"}, {"alias": "kebab", "title": "Kebab"}], "rating": 4.5, "coordinates": {"latitude": 40.7907309, "longitude": -74.0230121}, "transactions": ["delivery", "pickup"], "location": {"address1": "5819 John F Kennedy Blvd", "address2": null, "address3": "", "city": "North Bergen", "zip_code": "07047", "country": "US", "state": "NJ", "display_address": ["5819 John F Kennedy Blvd", "North Bergen, NJ 07047"]}, "phone": "+12014306280", "display_phone": "(201) 430-6280", "distance": 5706.172859531114}, {"id": "iZIJKQeJ7oSXHzxCmUyhZQ", "alias": "sofra-mediterranean-grill-sunnyside", "name": "Sofra Mediterranean Grill", "image_url": "https://s3-media3.fl.yelpcdn.com/bphoto/aEa0geLi-19e00V69Apvcg/o.jpg", "is_closed": false, "url": "https://www.yelp.com/biz/sofra-mediterranean-grill-sunnyside?adjust_creative=9gNmiWYX8uTbFBeTTvJMdA&utm_campaign=yelp_api_v3&utm_medium=api_v3_business_search&utm_source=9gNmiWYX8uTbFBeTTvJMdA", "review_count": 102, "categories": [{"alias": "mediterranean", "title": "Mediterranean"}, {"alias": "turkish", "title": "Turkish"}, {"alias": "halal", "title": "Halal"}], "rating": 4.0, "coordinates": {"latitude": 40.7427447283466, "longitude": -73.9188283760369}, "transactions": ["delivery", "pickup"], "price": "$$", "location": {"address1": "45-8 46th St", "address2": "", "address3": null, "city": "Sunnyside", "zip_code": "11104", "country": "US", "state": "NY", "display_address": ["45-8 46th St", "Sunnyside, NY 11104"]}, "phone": "+19173964777", "display_phone": "(917) 396-4777", "distance": 4637.146341816537}, {"id": "kdVfRqGWwZiBYS2zlKBcMA", "alias": "empire-shwarma-mediterranean-new-york", "name": "Empire Shwarma Mediterranean", "image_url": "", "is_closed": false, "url": "https://www.yelp.com/biz/empire-shwarma-mediterranean-new-york?adjust_creative=9gNmiWYX8uTbFBeTTvJMdA&utm_campaign=yelp_api_v3&utm_medium=api_v3_business_search&utm_source=9gNmiWYX8uTbFBeTTvJMdA", "review_count": 2, "categories": [{"alias": "mediterranean", "title": "Mediterranean"}, {"alias": "vegetarian", "title": "Vegetarian"}], "rating": 3.5, "coordinates": {"latitude": 40.811392, "longitude": -73.953498}, "transactions": ["delivery", "pickup"], "location": {"address1": "377 W 125th St", "address2": "", "address3": null, "city": "New York", "zip_code": "10027", "country": "US", "state": "NY", "display_address": ["377 W 125th St", "New York, NY 10027"]}, "phone": "+16467915022", "display_phone": "(646) 791-5022", "distance": 5963.459796623124}, {"id": "1hbAbWZ3bdJCSg_EoS4zyQ", "alias": "pita-grill-new-york-20", "name": "Pita Grill", "image_url": "https://s3-media3.fl.yelpcdn.com/bphoto/eWW-YvqxJ3Pf6nFwDm1LqQ/o.jpg", "is_closed": false, "url": "https://www.yelp.com/biz/pita-grill-new-york-20?adjust_creative=9gNmiWYX8uTbFBeTTvJMdA&utm_campaign=yelp_api_v3&utm_medium=api_v3_business_search&utm_source=9gNmiWYX8uTbFBeTTvJMdA", "review_count": 166, "categories": [{"alias": "mideastern", "title": "Middle Eastern"}, {"alias": "kosher", "title": "Kosher"}, {"alias": "tradamerican", "title": "American (Traditional)"}], "rating": 2.5, "coordinates": {"latitude": 40.759541, "longitude": -73.965394}, "transactions": ["delivery", "pickup"], "price": "$$", "location": {"address1": "1083 2nd Ave", "address2": "", "address3": "", "city": "New York", "zip_code": "10022", "country": "US", "state": "NY", "display_address": ["1083 2nd Ave", "New York, NY 10022"]}, "phone": "+12127501122", "display_phone": "(212) 750-1122", "distance": 354.408374035117}, {"id": "TYUcE9t6bA9kCEqRNud5Dg", "alias": "kabab-caf\u00e9-astoria-2", "name": "Kabab Caf\u00e9", "image_url": "https://s3-media1.fl.yelpcdn.com/bphoto/yP1zA7rltqoMyJEiqi5t_w/o.jpg", "is_closed": false, "url": "https://www.yelp.com/biz/kabab-caf%C3%A9-astoria-2?adjust_creative=9gNmiWYX8uTbFBeTTvJMdA&utm_campaign=yelp_api_v3&utm_medium=api_v3_business_search&utm_source=9gNmiWYX8uTbFBeTTvJMdA", "review_count": 227, "categories": [{"alias": "mideastern", "title": "Middle Eastern"}, {"alias": "cafes", "title": "Cafes"}], "rating": 4.0, "coordinates": {"latitude": 40.7678122049352, "longitude": -73.9119970122338}, "transactions": ["delivery"], "price": "$$$", "location": {"address1": "2512 Steinway St", "address2": "", "address3": "", "city": "Astoria", "zip_code": "11103", "country": "US", "state": "NY", "display_address": ["2512 Steinway St", "Astoria, NY 11103"]}, "phone": "+17187289858", "display_phone": "(718) 728-9858", "distance": 4943.343041264604}, {"id": "IuYN46e7DbCq9EjCvpqaZw", "alias": "nyc-platters-teaneck-2", "name": "NYC Platters", "image_url": "https://s3-media1.fl.yelpcdn.com/bphoto/SImEacr_eyVUlnyAs7bBQQ/o.jpg", "is_closed": false, "url": "https://www.yelp.com/biz/nyc-platters-teaneck-2?adjust_creative=9gNmiWYX8uTbFBeTTvJMdA&utm_campaign=yelp_api_v3&utm_medium=api_v3_business_search&utm_source=9gNmiWYX8uTbFBeTTvJMdA", "review_count": 47, "categories": [{"alias": "mediterranean", "title": "Mediterranean"}, {"alias": "juicebars", "title": "Juice Bars & Smoothies"}, {"alias": "halal", "title": "Halal"}], "rating": 2.5, "coordinates": {"latitude": 40.8760615, "longitude": -74.0204602}, "transactions": ["delivery", "pickup"], "price": "$", "location": {"address1": "378 Queen Anne Rd", "address2": "", "address3": "", "city": "Teaneck", "zip_code": "07666", "country": "US", "state": "NJ", "display_address": ["378 Queen Anne Rd", "Teaneck, NJ 07666"]}, "phone": "+12015305774", "display_phone": "(201) 530-5774", "distance": 13684.449203491857}, {"id": "BaTfJjz2DoJwOQz5eOrqNA", "alias": "mahmouds-corner-astoria", "name": "Mahmoud's Corner", "image_url": "https://s3-media2.fl.yelpcdn.com/bphoto/PJcNMdAbVBAJjMsdONuwig/o.jpg", "is_closed": false, "url": "https://www.yelp.com/biz/mahmouds-corner-astoria?adjust_creative=9gNmiWYX8uTbFBeTTvJMdA&utm_campaign=yelp_api_v3&utm_medium=api_v3_business_search&utm_source=9gNmiWYX8uTbFBeTTvJMdA", "review_count": 206, "categories": [{"alias": "halal", "title": "Halal"}, {"alias": "mideastern", "title": "Middle Eastern"}, {"alias": "foodtrucks", "title": "Food Trucks"}], "rating": 4.5, "coordinates": {"latitude": 40.756975652065854, "longitude": -73.92088932142887}, "transactions": ["delivery", "pickup"], "price": "$", "location": {"address1": "34th Ave and Steinway St", "address2": "", "address3": "", "city": "Astoria", "zip_code": "11106", "country": "US", "state": "NY", "display_address": ["34th Ave and Steinway St", "Astoria, NY 11106"]}, "phone": "+19172952281", "display_phone": "(917) 295-2281", "distance": 4107.849287791382}, {"id": "RnMFZ_1O8yFb5iGEq1-kBA", "alias": "pamir-kabab-house-and-grill-kew-gardens-5", "name": "Pamir Kabab House & Grill", "image_url": "https://s3-media2.fl.yelpcdn.com/bphoto/zHnXh8XyllGP3hrJOoKV3w/o.jpg", "is_closed": false, "url": "https://www.yelp.com/biz/pamir-kabab-house-and-grill-kew-gardens-5?adjust_creative=9gNmiWYX8uTbFBeTTvJMdA&utm_campaign=yelp_api_v3&utm_medium=api_v3_business_search&utm_source=9gNmiWYX8uTbFBeTTvJMdA", "review_count": 61, "categories": [{"alias": "afghani", "title": "Afghan"}, {"alias": "mideastern", "title": "Middle Eastern"}, {"alias": "halal", "title": "Halal"}], "rating": 4.0, "coordinates": {"latitude": 40.7285972489951, "longitude": -73.811123482883}, "transactions": ["delivery", "pickup"], "price": "$$", "location": {"address1": "70-74 Kissena Blvd", "address2": null, "address3": "", "city": "Kew Gardens", "zip_code": "11367", "country": "US", "state": "NY", "display_address": ["70-74 Kissena Blvd", "Kew Gardens, NY 11367"]}, "phone": "+17185207232", "display_phone": "(718) 520-7232", "distance": 13774.87645317274}, {"id": "PGQX5sI4N56SIwbpo2itiA", "alias": "king-souvlaki-bayside-2", "name": "King Souvlaki", "image_url": "https://s3-media2.fl.yelpcdn.com/bphoto/K8M0iXk8E_STKrNapMAHVA/o.jpg", "is_closed": false, "url": "https://www.yelp.com/biz/king-souvlaki-bayside-2?adjust_creative=9gNmiWYX8uTbFBeTTvJMdA&utm_campaign=yelp_api_v3&utm_medium=api_v3_business_search&utm_source=9gNmiWYX8uTbFBeTTvJMdA", "review_count": 200, "categories": [{"alias": "foodtrucks", "title": "Food Trucks"}, {"alias": "greek", "title": "Greek"}], "rating": 4.0, "coordinates": {"latitude": 40.7625, "longitude": -73.76961}, "transactions": [], "price": "$$", "location": {"address1": "", "address2": "", "address3": "", "city": "Bayside", "zip_code": "11361", "country": "US", "state": "NY", "display_address": ["Bayside, NY 11361"]}, "phone": "+13479518316", "display_phone": "(347) 951-8316", "distance": 16453.584772907023}, {"id": "PvxKXXFeaVFnMwMrvydiFg", "alias": "gyro-world-ridgewood-ridgewood", "name": "Gyro World Ridgewood", "image_url": "https://s3-media1.fl.yelpcdn.com/bphoto/fSV7nEUjYys9M3vlNW17Lg/o.jpg", "is_closed": false, "url": "https://www.yelp.com/biz/gyro-world-ridgewood-ridgewood?adjust_creative=9gNmiWYX8uTbFBeTTvJMdA&utm_campaign=yelp_api_v3&utm_medium=api_v3_business_search&utm_source=9gNmiWYX8uTbFBeTTvJMdA", "review_count": 166, "categories": [{"alias": "greek", "title": "Greek"}], "rating": 3.5, "coordinates": {"latitude": 40.707240503413, "longitude": -73.8971290568964}, "transactions": ["delivery", "pickup"], "price": "$$", "location": {"address1": "66-57 Fresh Pond Rd", "address2": "", "address3": "", "city": "Ridgewood", "zip_code": "11385", "country": "US", "state": "NY", "display_address": ["66-57 Fresh Pond Rd", "Ridgewood, NY 11385"]}, "phone": "+17183664976", "display_phone": "(718) 366-4976", "distance": 8402.889402075634}, {"id": "A05StjzdDTbkWvHxespDPA", "alias": "platter-house-teaneck", "name": "Platter House", "image_url": "https://s3-media3.fl.yelpcdn.com/bphoto/Oh0UznyX6ltohgJdVqAt6g/o.jpg", "is_closed": false, "url": "https://www.yelp.com/biz/platter-house-teaneck?adjust_creative=9gNmiWYX8uTbFBeTTvJMdA&utm_campaign=yelp_api_v3&utm_medium=api_v3_business_search&utm_source=9gNmiWYX8uTbFBeTTvJMdA", "review_count": 6, "categories": [{"alias": "halal", "title": "Halal"}, {"alias": "mediterranean", "title": "Mediterranean"}], "rating": 4.0, "coordinates": {"latitude": 40.8897411778318, "longitude": -74.02496992780434}, "transactions": ["delivery", "pickup"], "location": {"address1": "540 Cedar Ln", "address2": "", "address3": null, "city": "Teaneck", "zip_code": "07666", "country": "US", "state": "NJ", "display_address": ["540 Cedar Ln", "Teaneck, NJ 07666"]}, "phone": "+12015307266", "display_phone": "(201) 530-7266", "distance": 15248.211191769667}, {"id": "l9dCKe-0EO1XQFkuFi8YRQ", "alias": "garbanzo-grill-weehawken", "name": "Garbanzo Grill", "image_url": "https://s3-media1.fl.yelpcdn.com/bphoto/Mqids0W8GbRLBSUOwb0qdw/o.jpg", "is_closed": false, "url": "https://www.yelp.com/biz/garbanzo-grill-weehawken?adjust_creative=9gNmiWYX8uTbFBeTTvJMdA&utm_campaign=yelp_api_v3&utm_medium=api_v3_business_search&utm_source=9gNmiWYX8uTbFBeTTvJMdA", "review_count": 159, "categories": [{"alias": "mediterranean", "title": "Mediterranean"}], "rating": 3.5, "coordinates": {"latitude": 40.77227, "longitude": -74.02148}, "transactions": ["delivery", "pickup"], "price": "$$", "location": {"address1": "3706 Park Ave", "address2": "", "address3": "", "city": "Weehawken", "zip_code": "07086", "country": "US", "state": "NJ", "display_address": ["3706 Park Ave", "Weehawken, NJ 07086"]}, "phone": "+12017664012", "display_phone": "(201) 766-4012", "distance": 4617.869946348799}, {"id": "X155pxtcrY7l7Awh5zzm7g", "alias": "tripoli-restaurant-brooklyn-2", "name": "Tripoli Restaurant", "image_url": "https://s3-media3.fl.yelpcdn.com/bphoto/4BteGpPj-wPf1JzHib2RyQ/o.jpg", "is_closed": false, "url": "https://www.yelp.com/biz/tripoli-restaurant-brooklyn-2?adjust_creative=9gNmiWYX8uTbFBeTTvJMdA&utm_campaign=yelp_api_v3&utm_medium=api_v3_business_search&utm_source=9gNmiWYX8uTbFBeTTvJMdA", "review_count": 112, "categories": [{"alias": "lebanese", "title": "Lebanese"}], "rating": 3.5, "coordinates": {"latitude": 40.690063, "longitude": -73.994621}, "transactions": ["delivery", "pickup"], "price": "$$", "location": {"address1": "156 Atlantic Ave", "address2": "", "address3": "Lower Level", "city": "Brooklyn", "zip_code": "11201", "country": "US", "state": "NY", "display_address": ["156 Atlantic Ave", "Lower Level", "Brooklyn, NY 11201"]}, "phone": "+17185965800", "display_phone": "(718) 596-5800", "distance": 7968.193844970634}, {"id": "D_Rjd2js4_lkk51Obvlveg", "alias": "kfar-brooklyn", "name": "K'Far", "image_url": "https://s3-media4.fl.yelpcdn.com/bphoto/0aUMvxO56G89jveIGuaPpA/o.jpg", "is_closed": false, "url": "https://www.yelp.com/biz/kfar-brooklyn?adjust_creative=9gNmiWYX8uTbFBeTTvJMdA&utm_campaign=yelp_api_v3&utm_medium=api_v3_business_search&utm_source=9gNmiWYX8uTbFBeTTvJMdA", "review_count": 42, "categories": [{"alias": "breakfast_brunch", "title": "Breakfast & Brunch"}, {"alias": "bagels", "title": "Bagels"}, {"alias": "mideastern", "title": "Middle Eastern"}], "rating": 4.5, "coordinates": {"latitude": 40.7209634, "longitude": -73.9586038582844}, "transactions": [], "location": {"address1": "97 Wythe Ave", "address2": null, "address3": null, "city": "Brooklyn", "zip_code": "11249", "country": "US", "state": "NY", "display_address": ["97 Wythe Ave", "Brooklyn, NY 11249"]}, "phone": "+17182157100", "display_phone": "(718) 215-7100", "distance": 4348.257423481108}, {"id": "vDJLLv3K5OtXdVq83Bw95g", "alias": "hush-cafe-lounge-and-garden-maspeth", "name": "Hush Cafe Lounge & Garden", "image_url": "https://s3-media1.fl.yelpcdn.com/bphoto/-t__HlFPw_vVqvpodg6ehg/o.jpg", "is_closed": false, "url": "https://www.yelp.com/biz/hush-cafe-lounge-and-garden-maspeth?adjust_creative=9gNmiWYX8uTbFBeTTvJMdA&utm_campaign=yelp_api_v3&utm_medium=api_v3_business_search&utm_source=9gNmiWYX8uTbFBeTTvJMdA", "review_count": 108, "categories": [{"alias": "mediterranean", "title": "Mediterranean"}, {"alias": "lounges", "title": "Lounges"}], "rating": 3.5, "coordinates": {"latitude": 40.727355, "longitude": -73.892555}, "transactions": ["delivery", "pickup"], "price": "$$", "location": {"address1": "70-10 Grand Ave", "address2": "", "address3": "", "city": "Maspeth", "zip_code": "11378", "country": "US", "state": "NY", "display_address": ["70-10 Grand Ave", "Maspeth, NY 11378"]}, "phone": "+17187796061", "display_phone": "(718) 779-6061", "distance": 7388.616805970904}, {"id": "XCpvVDi-eMDid3s6LrDIuw", "alias": "sido-falafel-and-more-new-york-2", "name": "Sido Falafel & More", "image_url": "https://s3-media2.fl.yelpcdn.com/bphoto/hi4gTgUaHxNqcAkccmgXeA/o.jpg", "is_closed": false, "url": "https://www.yelp.com/biz/sido-falafel-and-more-new-york-2?adjust_creative=9gNmiWYX8uTbFBeTTvJMdA&utm_campaign=yelp_api_v3&utm_medium=api_v3_business_search&utm_source=9gNmiWYX8uTbFBeTTvJMdA", "review_count": 206, "categories": [{"alias": "falafel", "title": "Falafel"}], "rating": 4.0, "coordinates": {"latitude": 40.7775898, "longitude": -73.9785419}, "transactions": ["delivery", "pickup"], "price": "$", "location": {"address1": "267 Columbus Ave", "address2": "", "address3": "", "city": "New York", "zip_code": "10023", "country": "US", "state": "NY", "display_address": ["267 Columbus Ave", "New York, NY 10023"]}, "phone": "+12124962803", "display_phone": "(212) 496-2803", "distance": 2179.152623004763}, {"id": "krQheRsb-0GeXKFSAMVxBA", "alias": "somethingreek-brooklyn", "name": "Somethingreek", "image_url": "https://s3-media4.fl.yelpcdn.com/bphoto/5KWAavDA826sq84w49uS1w/o.jpg", "is_closed": false, "url": "https://www.yelp.com/biz/somethingreek-brooklyn?adjust_creative=9gNmiWYX8uTbFBeTTvJMdA&utm_campaign=yelp_api_v3&utm_medium=api_v3_business_search&utm_source=9gNmiWYX8uTbFBeTTvJMdA", "review_count": 286, "categories": [{"alias": "greek", "title": "Greek"}], "rating": 3.5, "coordinates": {"latitude": 40.6303825378418, "longitude": -74.0285263061523}, "transactions": ["delivery", "pickup"], "price": "$$", "location": {"address1": "7616 3rd Ave", "address2": "", "address3": "", "city": "Brooklyn", "zip_code": "11209", "country": "US", "state": "NY", "display_address": ["7616 3rd Ave", "Brooklyn, NY 11209"]}, "phone": "+17187488200", "display_phone": "(718) 748-8200", "distance": 15158.343597966914}, {"id": "7zUYzHfjVdln5TYgkazgDg", "alias": "hummus-elite-englewood", "name": "Hummus Elite", "image_url": "https://s3-media2.fl.yelpcdn.com/bphoto/cOGdj_3J2iJL_EXkBhDDfw/o.jpg", "is_closed": false, "url": "https://www.yelp.com/biz/hummus-elite-englewood?adjust_creative=9gNmiWYX8uTbFBeTTvJMdA&utm_campaign=yelp_api_v3&utm_medium=api_v3_business_search&utm_source=9gNmiWYX8uTbFBeTTvJMdA", "review_count": 167, "categories": [{"alias": "mediterranean", "title": "Mediterranean"}, {"alias": "kosher", "title": "Kosher"}, {"alias": "mideastern", "title": "Middle Eastern"}], "rating": 4.0, "coordinates": {"latitude": 40.893301216705, "longitude": -73.973325151939}, "transactions": ["delivery", "pickup"], "price": "$$", "location": {"address1": "39 E Palisade Ave", "address2": "", "address3": "", "city": "Englewood", "zip_code": "07631", "country": "US", "state": "NJ", "display_address": ["39 E Palisade Ave", "Englewood, NJ 07631"]}, "phone": "+12015695600", "display_phone": "(201) 569-5600", "distance": 14917.510347151925}, {"id": "oucUhaQjSEeJb2F3rVRR_Q", "alias": "antique-garage-soho-new-york", "name": "Antique Garage Soho", "image_url": "https://s3-media1.fl.yelpcdn.com/bphoto/Hf7Jh1jFQIemFbKwEbsbEA/o.jpg", "is_closed": false, "url": "https://www.yelp.com/biz/antique-garage-soho-new-york?adjust_creative=9gNmiWYX8uTbFBeTTvJMdA&utm_campaign=yelp_api_v3&utm_medium=api_v3_business_search&utm_source=9gNmiWYX8uTbFBeTTvJMdA", "review_count": 496, "categories": [{"alias": "lounges", "title": "Lounges"}, {"alias": "mediterranean", "title": "Mediterranean"}, {"alias": "turkish", "title": "Turkish"}], "rating": 3.5, "coordinates": {"latitude": 40.72152, "longitude": -74.00142}, "transactions": ["delivery"], "price": "$$", "location": {"address1": "41 Mercer St", "address2": null, "address3": "", "city": "New York", "zip_code": "10013", "country": "US", "state": "NY", "display_address": ["41 Mercer St", "New York, NY 10013"]}, "phone": "+12122191019", "display_phone": "(212) 219-1019", "distance": 4973.269953304268}, {"id": "krV7j6LMGErBLcw66TwnOg", "alias": "mamouns-falafel-new-york-city-new-york-city-2", "name": "Mamoun's Falafel", "image_url": "https://s3-media4.fl.yelpcdn.com/bphoto/sjePd11wz__O19EPhxz95w/o.jpg", "is_closed": false, "url": "https://www.yelp.com/biz/mamouns-falafel-new-york-city-new-york-city-2?adjust_creative=9gNmiWYX8uTbFBeTTvJMdA&utm_campaign=yelp_api_v3&utm_medium=api_v3_business_search&utm_source=9gNmiWYX8uTbFBeTTvJMdA", "review_count": 80, "categories": [{"alias": "mideastern", "title": "Middle Eastern"}, {"alias": "falafel", "title": "Falafel"}, {"alias": "sandwiches", "title": "Sandwiches"}], "rating": 3.5, "coordinates": {"latitude": 40.7856285, "longitude": -73.9731151}, "transactions": ["delivery", "pickup"], "location": {"address1": "508 Columbus Ave", "address2": "", "address3": "", "city": "New York", "zip_code": "10024", "country": "US", "state": "NY", "display_address": ["508 Columbus Ave", "New York, NY 10024"]}, "phone": "+13473797676", "display_phone": "(347) 379-7676", "distance": 2956.6003400033405}, {"id": "U7aH5Sy4Z5QfEpzeccz56w", "alias": "pahal-zan-forest-hills", "name": "Pahal Zan", "image_url": "https://s3-media3.fl.yelpcdn.com/bphoto/BsCf9Jf-HDgmGjHb716Yuw/o.jpg", "is_closed": false, "url": "https://www.yelp.com/biz/pahal-zan-forest-hills?adjust_creative=9gNmiWYX8uTbFBeTTvJMdA&utm_campaign=yelp_api_v3&utm_medium=api_v3_business_search&utm_source=9gNmiWYX8uTbFBeTTvJMdA", "review_count": 334, "categories": [{"alias": "mideastern", "title": "Middle Eastern"}, {"alias": "falafel", "title": "Falafel"}, {"alias": "kosher", "title": "Kosher"}], "rating": 4.0, "coordinates": {"latitude": 40.7197288162693, "longitude": -73.8449875895475}, "transactions": ["delivery", "pickup"], "price": "$$", "location": {"address1": "106-12 71st Ave", "address2": "", "address3": "", "city": "Forest Hills", "zip_code": "11375", "country": "US", "state": "NY", "display_address": ["106-12 71st Ave", "Forest Hills, NY 11375"]}, "phone": "+17187937177", "display_phone": "(718) 793-7177", "distance": 11376.058255161199}, {"id": "1l_valla-LACnhfXh8VEPg", "alias": "gyro-uno-astoria", "name": "Gyro Uno", "image_url": "https://s3-media4.fl.yelpcdn.com/bphoto/ojjdKNrJCJ7nuYrLeU9x-w/o.jpg", "is_closed": false, "url": "https://www.yelp.com/biz/gyro-uno-astoria?adjust_creative=9gNmiWYX8uTbFBeTTvJMdA&utm_campaign=yelp_api_v3&utm_medium=api_v3_business_search&utm_source=9gNmiWYX8uTbFBeTTvJMdA", "review_count": 147, "categories": [{"alias": "greek", "title": "Greek"}], "rating": 4.0, "coordinates": {"latitude": 40.7652236, "longitude": -73.913692}, "transactions": ["delivery", "pickup"], "price": "$", "location": {"address1": "2801 Steinway St", "address2": "", "address3": "", "city": "Astoria", "zip_code": "11103", "country": "US", "state": "NY", "display_address": ["2801 Steinway St", "Astoria, NY 11103"]}, "phone": "+17182744870", "display_phone": "(718) 274-4870", "distance": 4762.647062196032}, {"id": "y6U7NWV5WK3tBmn53fK_8g", "alias": "madison-cafe-and-grill-edgewater", "name": "Madison Cafe & Grill", "image_url": "https://s3-media2.fl.yelpcdn.com/bphoto/ibipZrdUtp52_WFHG4FdBQ/o.jpg", "is_closed": false, "url": "https://www.yelp.com/biz/madison-cafe-and-grill-edgewater?adjust_creative=9gNmiWYX8uTbFBeTTvJMdA&utm_campaign=yelp_api_v3&utm_medium=api_v3_business_search&utm_source=9gNmiWYX8uTbFBeTTvJMdA", "review_count": 32, "categories": [{"alias": "lebanese", "title": "Lebanese"}, {"alias": "breakfast_brunch", "title": "Breakfast & Brunch"}, {"alias": "tradamerican", "title": "American (Traditional)"}], "rating": 5.0, "coordinates": {"latitude": 40.80238, "longitude": -73.99317}, "transactions": ["delivery", "pickup"], "location": {"address1": "4 Pembroke Pl", "address2": "Ste 101", "address3": "", "city": "Edgewater", "zip_code": "07020", "country": "US", "state": "NJ", "display_address": ["4 Pembroke Pl", "Ste 101", "Edgewater, NJ 07020"]}, "phone": "+12015714546", "display_phone": "(201) 571-4546", "distance": 5265.025068136112}, {"id": "-OplSkpDk33uikS5fO-JQw", "alias": "addictive-wine-and-tapas-bar-jackson-heights-4", "name": "Addictive Wine and Tapas Bar", "image_url": "https://s3-media1.fl.yelpcdn.com/bphoto/_MZ38cNLFhhs0RpVppA3Wg/o.jpg", "is_closed": false, "url": "https://www.yelp.com/biz/addictive-wine-and-tapas-bar-jackson-heights-4?adjust_creative=9gNmiWYX8uTbFBeTTvJMdA&utm_campaign=yelp_api_v3&utm_medium=api_v3_business_search&utm_source=9gNmiWYX8uTbFBeTTvJMdA", "review_count": 245, "categories": [{"alias": "wine_bars", "title": "Wine Bars"}, {"alias": "tapas", "title": "Tapas Bars"}, {"alias": "mediterranean", "title": "Mediterranean"}], "rating": 4.5, "coordinates": {"latitude": 40.756282, "longitude": -73.8806}, "transactions": ["pickup", "delivery", "restaurant_reservation"], "price": "$$", "location": {"address1": "87-01 Northern Blvd", "address2": null, "address3": "", "city": "Jackson Heights", "zip_code": "11372", "country": "US", "state": "NY", "display_address": ["87-01 Northern Blvd", "Jackson Heights, NY 11372"]}, "phone": "+13478320951", "display_phone": "(347) 832-0951", "distance": 7499.599607274596}, {"id": "Y8YaI0YUb3zZgcqbdueaFw", "alias": "shashlik-house-brooklyn", "name": "Shashlik House", "image_url": "https://s3-media1.fl.yelpcdn.com/bphoto/JlNqn2O9Q0ULmvKZN2SJ_A/o.jpg", "is_closed": false, "url": "https://www.yelp.com/biz/shashlik-house-brooklyn?adjust_creative=9gNmiWYX8uTbFBeTTvJMdA&utm_campaign=yelp_api_v3&utm_medium=api_v3_business_search&utm_source=9gNmiWYX8uTbFBeTTvJMdA", "review_count": 12, "categories": [{"alias": "kebab", "title": "Kebab"}, {"alias": "steak", "title": "Steakhouses"}, {"alias": "bbq", "title": "Barbeque"}], "rating": 4.0, "coordinates": {"latitude": 40.6379138112, "longitude": -73.9782704764}, "transactions": [], "location": {"address1": "102 Cortelyou Rd", "address2": null, "address3": "", "city": "Brooklyn", "zip_code": "11218", "country": "US", "state": "NY", "display_address": ["102 Cortelyou Rd", "Brooklyn, NY 11218"]}, "phone": "+19294209476", "display_phone": "(929) 420-9476", "distance": 13503.497879822475}, {"id": "AoZ_kDSEDKQvLISAfWkmCA", "alias": "hummus-kitchen-new-york-9", "name": "Hummus Kitchen", "image_url": "https://s3-media4.fl.yelpcdn.com/bphoto/r__UflDt7MZbA-8zM8Mw7g/o.jpg", "is_closed": false, "url": "https://www.yelp.com/biz/hummus-kitchen-new-york-9?adjust_creative=9gNmiWYX8uTbFBeTTvJMdA&utm_campaign=yelp_api_v3&utm_medium=api_v3_business_search&utm_source=9gNmiWYX8uTbFBeTTvJMdA", "review_count": 322, "categories": [{"alias": "mideastern", "title": "Middle Eastern"}, {"alias": "kosher", "title": "Kosher"}], "rating": 4.0, "coordinates": {"latitude": 40.743718, "longitude": -73.979859}, "transactions": ["delivery", "pickup"], "price": "$$", "location": {"address1": "444 3rd Ave", "address2": "", "address3": "", "city": "New York", "zip_code": "10016", "country": "US", "state": "NY", "display_address": ["444 3rd Ave", "New York, NY 10016"]}, "phone": "+12126960055", "display_phone": "(212) 696-0055", "distance": 1926.4068264239606}, {"id": "zQjaTAxYSKpNNj0F4kgjXQ", "alias": "chicken-ranch-new-york", "name": "Chicken Ranch", "image_url": "https://s3-media2.fl.yelpcdn.com/bphoto/2SkyuwSXBidMupQeTEQ0yg/o.jpg", "is_closed": false, "url": "https://www.yelp.com/biz/chicken-ranch-new-york?adjust_creative=9gNmiWYX8uTbFBeTTvJMdA&utm_campaign=yelp_api_v3&utm_medium=api_v3_business_search&utm_source=9gNmiWYX8uTbFBeTTvJMdA", "review_count": 111, "categories": [{"alias": "spanish", "title": "Spanish"}, {"alias": "greek", "title": "Greek"}, {"alias": "chickenshop", "title": "Chicken Shop"}], "rating": 4.5, "coordinates": {"latitude": 40.84839, "longitude": -73.9324}, "transactions": ["delivery", "pickup"], "price": "$$", "location": {"address1": "315 Audubon Ave", "address2": null, "address3": "", "city": "New York", "zip_code": "10033", "country": "US", "state": "NY", "display_address": ["315 Audubon Ave", "New York, NY 10033"]}, "phone": "+16469228564", "display_phone": "(646) 922-8564", "distance": 10408.920333544987}, {"id": "PSpGb8041o_FXpj3V4Y-iw", "alias": "gyro-world-flushing-2", "name": "Gyro World", "image_url": "https://s3-media1.fl.yelpcdn.com/bphoto/6Lljcesu99VHoJkrGifn2A/o.jpg", "is_closed": false, "url": "https://www.yelp.com/biz/gyro-world-flushing-2?adjust_creative=9gNmiWYX8uTbFBeTTvJMdA&utm_campaign=yelp_api_v3&utm_medium=api_v3_business_search&utm_source=9gNmiWYX8uTbFBeTTvJMdA", "review_count": 628, "categories": [{"alias": "greek", "title": "Greek"}, {"alias": "tradamerican", "title": "American (Traditional)"}], "rating": 3.5, "coordinates": {"latitude": 40.7581424, "longitude": -73.7869091}, "transactions": ["delivery", "pickup"], "price": "$$", "location": {"address1": "194-21 Northern Blvd", "address2": null, "address3": "", "city": "Flushing", "zip_code": "11358", "country": "US", "state": "NY", "display_address": ["194-21 Northern Blvd", "Flushing, NY 11358"]}, "phone": "+17184283800", "display_phone": "(718) 428-3800", "distance": 15385.615538762766}, {"id": "tmF3_qr6l2YWczmUf5l1CQ", "alias": "reef-restaurant-forest-hills", "name": "Reef Restaurant", "image_url": "https://s3-media2.fl.yelpcdn.com/bphoto/t7uPmXWkrKV17XqwKH7LhQ/o.jpg", "is_closed": false, "url": "https://www.yelp.com/biz/reef-restaurant-forest-hills?adjust_creative=9gNmiWYX8uTbFBeTTvJMdA&utm_campaign=yelp_api_v3&utm_medium=api_v3_business_search&utm_source=9gNmiWYX8uTbFBeTTvJMdA", "review_count": 370, "categories": [{"alias": "seafood", "title": "Seafood"}, {"alias": "mediterranean", "title": "Mediterranean"}, {"alias": "steak", "title": "Steakhouses"}], "rating": 3.5, "coordinates": {"latitude": 40.7194939424271, "longitude": -73.8424916924209}, "transactions": ["delivery", "pickup"], "price": "$$", "location": {"address1": "108-02 72nd Ave", "address2": null, "address3": "", "city": "Forest Hills", "zip_code": "11375", "country": "US", "state": "NY", "display_address": ["108-02 72nd Ave", "Forest Hills, NY 11375"]}, "phone": "+17184874564", "display_phone": "(718) 487-4564", "distance": 11580.307894305555}, {"id": "tg2I4TLCUNr_llG2xLE4sg", "alias": "turkish-grill-sunnyside", "name": "Turkish Grill", "image_url": "https://s3-media2.fl.yelpcdn.com/bphoto/CB6Coek9xAXnGjCBZSfmqw/o.jpg", "is_closed": false, "url": "https://www.yelp.com/biz/turkish-grill-sunnyside?adjust_creative=9gNmiWYX8uTbFBeTTvJMdA&utm_campaign=yelp_api_v3&utm_medium=api_v3_business_search&utm_source=9gNmiWYX8uTbFBeTTvJMdA", "review_count": 425, "categories": [{"alias": "turkish", "title": "Turkish"}], "rating": 4.0, "coordinates": {"latitude": 40.7437839950329, "longitude": -73.9221807731946}, "transactions": ["delivery", "pickup"], "price": "$$", "location": {"address1": "42-03 Queens Blvd", "address2": "", "address3": "", "city": "Sunnyside", "zip_code": "11104", "country": "US", "state": "NY", "display_address": ["42-03 Queens Blvd", "Sunnyside, NY 11104"]}, "phone": "+17183923838", "display_phone": "(718) 392-3838", "distance": 4342.564623433659}, {"id": "5TJdeGTJSOPjfJvGGO9cRw", "alias": "sahara-east-new-york-2", "name": "Sahara East", "image_url": "https://s3-media2.fl.yelpcdn.com/bphoto/wB3rXU12EOqdzIGrrF2WvA/o.jpg", "is_closed": false, "url": "https://www.yelp.com/biz/sahara-east-new-york-2?adjust_creative=9gNmiWYX8uTbFBeTTvJMdA&utm_campaign=yelp_api_v3&utm_medium=api_v3_business_search&utm_source=9gNmiWYX8uTbFBeTTvJMdA", "review_count": 319, "categories": [{"alias": "mideastern", "title": "Middle Eastern"}, {"alias": "hookah_bars", "title": "Hookah Bars"}, {"alias": "coffee", "title": "Coffee & Tea"}], "rating": 3.5, "coordinates": {"latitude": 40.7294197096977, "longitude": -73.9835608443846}, "transactions": ["delivery", "pickup"], "price": "$$", "location": {"address1": "184 1st Ave", "address2": "", "address3": "", "city": "New York", "zip_code": "10009", "country": "US", "state": "NY", "display_address": ["184 1st Ave", "New York, NY 10009"]}, "phone": "+12123539000", "display_phone": "(212) 353-9000", "distance": 3512.1605119584206}, {"id": "cZ4TwM7VnDhgNB6kapneSg", "alias": "casa-la-femme-new-york-2", "name": "Casa La Femme", "image_url": "https://s3-media2.fl.yelpcdn.com/bphoto/F67V9BgIpIoDhRWOdsFKPA/o.jpg", "is_closed": false, "url": "https://www.yelp.com/biz/casa-la-femme-new-york-2?adjust_creative=9gNmiWYX8uTbFBeTTvJMdA&utm_campaign=yelp_api_v3&utm_medium=api_v3_business_search&utm_source=9gNmiWYX8uTbFBeTTvJMdA", "review_count": 1092, "categories": [{"alias": "egyptian", "title": "Egyptian"}, {"alias": "moroccan", "title": "Moroccan"}, {"alias": "mediterranean", "title": "Mediterranean"}], "rating": 3.5, "coordinates": {"latitude": 40.73404, "longitude": -74.0083499}, "transactions": ["delivery", "pickup"], "price": "$$$", "location": {"address1": "140 Charles St", "address2": "", "address3": "", "city": "New York", "zip_code": "10014", "country": "US", "state": "NY", "display_address": ["140 Charles St", "New York, NY 10014"]}, "phone": "+12125050005", "display_phone": "(212) 505-0005", "distance": 4283.304572599372}], "total": 701, "region": {"center": {"longitude": -73.96957397460938, "latitude": 40.75917470627005}}}