{"businesses": [{"id": "Xjswj531-FkRZPpcccU6kQ", "alias": "vida-verde-new-york", "name": "Vida Verde", "image_url": "https://s3-media3.fl.yelpcdn.com/bphoto/KzHgTkK-AENRGO3Q2K9GzQ/o.jpg", "is_closed": false, "url": "https://www.yelp.com/biz/vida-verde-new-york?adjust_creative=9gNmiWYX8uTbFBeTTvJMdA&utm_campaign=yelp_api_v3&utm_medium=api_v3_business_search&utm_source=9gNmiWYX8uTbFBeTTvJMdA", "review_count": 1490, "categories": [{"alias": "cocktailbars", "title": "Cocktail Bars"}, {"alias": "mexican", "title": "Mexican"}, {"alias": "venues", "title": "Venues & Event Spaces"}], "rating": 4.5, "coordinates": {"latitude": 40.7649503286729, "longitude": -73.9828372257363}, "transactions": ["delivery", "pickup"], "price": "$$", "location": {"address1": "248 W 55th St", "address2": "", "address3": null, "city": "New York", "zip_code": "10019", "country": "US", "state": "NY", "display_address": ["248 W 55th St", "New York, NY 10019"]}, "phone": "+16466570565", "display_phone": "(646) 657-0565", "distance": 1299.3976595487566}, {"id": "MaoCNdHni6MLjM9iYQqHcg", "alias": "frida-midtown-new-york", "name": "Frida Midtown", "image_url": "https://s3-media4.fl.yelpcdn.com/bphoto/rTLmxvP5qs15XvsE2OC6_w/o.jpg", "is_closed": false, "url": "https://www.yelp.com/biz/frida-midtown-new-york?adjust_creative=9gNmiWYX8uTbFBeTTvJMdA&utm_campaign=yelp_api_v3&utm_medium=api_v3_business_search&utm_source=9gNmiWYX8uTbFBeTTvJMdA", "review_count": 119, "categories": [{"alias": "mexican", "title": "Mexican"}, {"alias": "peruvian", "title": "Peruvian"}, {"alias": "cocktailbars", "title": "Cocktail Bars"}], "rating": 4.5, "coordinates": {"latitude": 40.756610894855896, "longitude": -73.96919065816803}, "transactions": ["pickup", "delivery", "restaurant_reservation"], "price": "$$$", "location": {"address1": "214 E 52nd St", "address2": null, "address3": "", "city": "New York", "zip_code": "10022", "country": "US", "state": "NY", "display_address": ["214 E 52nd St", "New York, NY 10022"]}, "phone": "+12126885200", "display_phone": "(212) 688-5200", "distance": 286.90486566488204}, {"id": "Wx6lMnEh7dCmX-9PQF1Ifw", "alias": "toloache-50-new-york", "name": "Toloache 50", "image_url": "https://s3-media4.fl.yelpcdn.com/bphoto/m5yGUnpSxMB0KaxgwwXMQA/o.jpg", "is_closed": false, "url": "https://www.yelp.com/biz/toloache-50-new-york?adjust_creative=9gNmiWYX8uTbFBeTTvJMdA&utm_campaign=yelp_api_v3&utm_medium=api_v3_business_search&utm_source=9gNmiWYX8uTbFBeTTvJMdA", "review_count": 2220, "categories": [{"alias": "mexican", "title": "Mexican"}], "rating": 4.0, "coordinates": {"latitude": 40.762227, "longitude": -73.9856178382696}, "transactions": ["delivery", "pickup"], "price": "$$$", "location": {"address1": "251 West 50th St", "address2": "", "address3": "", "city": "New York", "zip_code": "10012", "country": "US", "state": "NY", "display_address": ["251 West 50th St", "New York, NY 10012"]}, "phone": "+12125811818", "display_phone": "(212) 581-1818", "distance": 1393.2456451937026}, {"id": "6Ct7OeTRn4caY9g0swFBsw", "alias": "la-contenta-new-york", "name": "La Contenta", "image_url": "https://s3-media2.fl.yelpcdn.com/bphoto/FwZAyPgdKdPGQ8aAGKh3-w/o.jpg", "is_closed": false, "url": "https://www.yelp.com/biz/la-contenta-new-york?adjust_creative=9gNmiWYX8uTbFBeTTvJMdA&utm_campaign=yelp_api_v3&utm_medium=api_v3_business_search&utm_source=9gNmiWYX8uTbFBeTTvJMdA", "review_count": 886, "categories": [{"alias": "mexican", "title": "Mexican"}, {"alias": "bars", "title": "Bars"}, {"alias": "breakfast_brunch", "title": "Breakfast & Brunch"}], "rating": 4.5, "coordinates": {"latitude": 40.71873, "longitude": -73.98691}, "transactions": ["delivery", "pickup"], "price": "$$", "location": {"address1": "102 Norfolk St", "address2": "", "address3": "", "city": "New York", "zip_code": "10002", "country": "US", "state": "NY", "display_address": ["102 Norfolk St", "New York, NY 10002"]}, "phone": "+12124324180", "display_phone": "(212) 432-4180", "distance": 4725.036921320154}, {"id": "xWLSJOiN1mMRHmBmHyjAfw", "alias": "mad-dog-and-beans-mexican-cantina-new-york", "name": "Mad Dog & Beans Mexican Cantina", "image_url": "https://s3-media1.fl.yelpcdn.com/bphoto/YE_aFUDdu5GpWMVj7IUK4A/o.jpg", "is_closed": false, "url": "https://www.yelp.com/biz/mad-dog-and-beans-mexican-cantina-new-york?adjust_creative=9gNmiWYX8uTbFBeTTvJMdA&utm_campaign=yelp_api_v3&utm_medium=api_v3_business_search&utm_source=9gNmiWYX8uTbFBeTTvJMdA", "review_count": 654, "categories": [{"alias": "mexican", "title": "Mexican"}], "rating": 4.0, "coordinates": {"latitude": 40.75081210000001, "longitude": -73.9819335}, "transactions": ["delivery", "restaurant_reservation", "pickup"], "price": "$$", "location": {"address1": "5 E 38th St", "address2": "", "address3": null, "city": "New York", "zip_code": "10016", "country": "US", "state": "NY", "display_address": ["5 E 38th St", "New York, NY 10016"]}, "phone": "+16469985722", "display_phone": "(646) 998-5722", "distance": 1395.8756059056816}, {"id": "ihzI-4yGesoQuAoIocao8g", "alias": "tacuba-hells-kitchen-new-york", "name": "Tacuba Hell's Kitchen", "image_url": "https://s3-media1.fl.yelpcdn.com/bphoto/swZQbw3CYfGNaMyNJclLgA/o.jpg", "is_closed": false, "url": "https://www.yelp.com/biz/tacuba-hells-kitchen-new-york?adjust_creative=9gNmiWYX8uTbFBeTTvJMdA&utm_campaign=yelp_api_v3&utm_medium=api_v3_business_search&utm_source=9gNmiWYX8uTbFBeTTvJMdA", "review_count": 797, "categories": [{"alias": "mexican", "title": "Mexican"}, {"alias": "latin", "title": "Latin American"}, {"alias": "tapas", "title": "Tapas Bars"}], "rating": 4.0, "coordinates": {"latitude": 40.76545, "longitude": -73.98729}, "transactions": ["delivery", "pickup"], "price": "$$", "location": {"address1": "802 9th Ave", "address2": "", "address3": "", "city": "New York", "zip_code": "10019", "country": "US", "state": "NY", "display_address": ["802 9th Ave", "New York, NY 10019"]}, "phone": "+12122454500", "display_phone": "(212) 245-4500", "distance": 1640.0360454563424}, {"id": "SOWmvC20kikJBoWE3TmppA", "alias": "rosa-mexicano-new-york-12", "name": "Rosa Mexicano", "image_url": "https://s3-media4.fl.yelpcdn.com/bphoto/cSLDdpHdFQTULhNfZaSMNg/o.jpg", "is_closed": false, "url": "https://www.yelp.com/biz/rosa-mexicano-new-york-12?adjust_creative=9gNmiWYX8uTbFBeTTvJMdA&utm_campaign=yelp_api_v3&utm_medium=api_v3_business_search&utm_source=9gNmiWYX8uTbFBeTTvJMdA", "review_count": 76, "categories": [{"alias": "mexican", "title": "Mexican"}], "rating": 3.5, "coordinates": {"latitude": 40.75648947211715, "longitude": -73.96785410691132}, "transactions": [], "location": {"address1": "251 E 52nd St", "address2": null, "address3": null, "city": "New York", "zip_code": "10022", "country": "US", "state": "NY", "display_address": ["251 E 52nd St", "New York, NY 10022"]}, "phone": "+12127537407", "display_phone": "(212) 753-7407", "distance": 331.8687292947673}, {"id": "tvqtAjAyc7dplVVwhw3VZQ", "alias": "la-contenta-oeste-new-york", "name": "La Contenta Oeste", "image_url": "https://s3-media4.fl.yelpcdn.com/bphoto/REnuRJEbMXWlGRRFv6KPfQ/o.jpg", "is_closed": false, "url": "https://www.yelp.com/biz/la-contenta-oeste-new-york?adjust_creative=9gNmiWYX8uTbFBeTTvJMdA&utm_campaign=yelp_api_v3&utm_medium=api_v3_business_search&utm_source=9gNmiWYX8uTbFBeTTvJMdA", "review_count": 309, "categories": [{"alias": "mexican", "title": "Mexican"}, {"alias": "breakfast_brunch", "title": "Breakfast & Brunch"}, {"alias": "cocktailbars", "title": "Cocktail Bars"}], "rating": 4.5, "coordinates": {"latitude": 40.7352, "longitude": -73.99808}, "transactions": ["delivery", "pickup"], "price": "$$", "location": {"address1": "78 W 11th St", "address2": null, "address3": "", "city": "New York", "zip_code": "10011", "country": "US", "state": "NY", "display_address": ["78 W 11th St", "New York, NY 10011"]}, "phone": "+12125332233", "display_phone": "(212) 533-2233", "distance": 3590.5694566634156}, {"id": "xGoSAOhQBNdJMJmPn7CMDQ", "alias": "mexicue-new-york-4", "name": "MEXiCUE", "image_url": "https://s3-media4.fl.yelpcdn.com/bphoto/9awDMhfzm5zAmxkJrg46sg/o.jpg", "is_closed": false, "url": "https://www.yelp.com/biz/mexicue-new-york-4?adjust_creative=9gNmiWYX8uTbFBeTTvJMdA&utm_campaign=yelp_api_v3&utm_medium=api_v3_business_search&utm_source=9gNmiWYX8uTbFBeTTvJMdA", "review_count": 664, "categories": [{"alias": "mexican", "title": "Mexican"}], "rating": 4.0, "coordinates": {"latitude": 40.754109, "longitude": -73.986015}, "transactions": ["delivery", "pickup"], "price": "$$", "location": {"address1": "1440 Broadway", "address2": null, "address3": "", "city": "New York", "zip_code": "10018", "country": "US", "state": "NY", "display_address": ["1440 Broadway", "New York, NY 10018"]}, "phone": "+13322498600", "display_phone": "(332) 249-8600", "distance": 1494.9851998454658}, {"id": "PAJdNrD4HFBN16OAFeDx4A", "alias": "ponche-taqueria-and-cantina-new-york", "name": "Ponche Taqueria & Cantina", "image_url": "https://s3-media3.fl.yelpcdn.com/bphoto/Oz9i1TgKPQjjROUDPgQFgA/o.jpg", "is_closed": false, "url": "https://www.yelp.com/biz/ponche-taqueria-and-cantina-new-york?adjust_creative=9gNmiWYX8uTbFBeTTvJMdA&utm_campaign=yelp_api_v3&utm_medium=api_v3_business_search&utm_source=9gNmiWYX8uTbFBeTTvJMdA", "review_count": 558, "categories": [{"alias": "mexican", "title": "Mexican"}], "rating": 4.0, "coordinates": {"latitude": 40.76319, "longitude": -73.99045}, "transactions": ["delivery"], "price": "$$", "location": {"address1": "420 W 49th St", "address2": "", "address3": "", "city": "New York", "zip_code": "10019", "country": "US", "state": "NY", "display_address": ["420 W 49th St", "New York, NY 10019"]}, "phone": "+12125811235", "display_phone": "(212) 581-1235", "distance": 1817.2889068979844}, {"id": "IfIyjm4SfORGYPbaAWST3g", "alias": "mexicue-new-york-6", "name": "MEXiCUE", "image_url": "https://s3-media3.fl.yelpcdn.com/bphoto/zIsyf_t-IAliTxTae_s-4g/o.jpg", "is_closed": false, "url": "https://www.yelp.com/biz/mexicue-new-york-6?adjust_creative=9gNmiWYX8uTbFBeTTvJMdA&utm_campaign=yelp_api_v3&utm_medium=api_v3_business_search&utm_source=9gNmiWYX8uTbFBeTTvJMdA", "review_count": 658, "categories": [{"alias": "mexican", "title": "Mexican"}], "rating": 4.0, "coordinates": {"latitude": 40.743617, "longitude": -73.987867}, "transactions": ["delivery", "pickup"], "price": "$$", "location": {"address1": "225 5th Ave", "address2": "", "address3": "", "city": "New York", "zip_code": "10010", "country": "US", "state": "NY", "display_address": ["225 5th Ave", "New York, NY 10010"]}, "phone": "+13322633200", "display_phone": "(332) 263-3200", "distance": 2316.704782358361}, {"id": "WyiTT3VHjzowMnOnUpZ7TQ", "alias": "empell\u00f3n-new-york-3", "name": "Empell\u00f3n", "image_url": "https://s3-media3.fl.yelpcdn.com/bphoto/MiInYFJPie-YA8kjN1z-gw/o.jpg", "is_closed": false, "url": "https://www.yelp.com/biz/empell%C3%B3n-new-york-3?adjust_creative=9gNmiWYX8uTbFBeTTvJMdA&utm_campaign=yelp_api_v3&utm_medium=api_v3_business_search&utm_source=9gNmiWYX8uTbFBeTTvJMdA", "review_count": 417, "categories": [{"alias": "mexican", "title": "Mexican"}, {"alias": "cocktailbars", "title": "Cocktail Bars"}, {"alias": "desserts", "title": "Desserts"}], "rating": 4.0, "coordinates": {"latitude": 40.75972, "longitude": -73.97472}, "transactions": ["delivery", "pickup"], "price": "$$$", "location": {"address1": "510 Madison Ave", "address2": null, "address3": "", "city": "New York", "zip_code": "10022", "country": "US", "state": "NY", "display_address": ["510 Madison Ave", "New York, NY 10022"]}, "phone": "+12123801215", "display_phone": "(212) 380-1215", "distance": 437.64625362077044}, {"id": "BsDu_kup3lJ2QHb-Botpeg", "alias": "covacha-new-york", "name": "Covacha", "image_url": "https://s3-media4.fl.yelpcdn.com/bphoto/8JLKNy0d0RU_ReMYCIhCXA/o.jpg", "is_closed": false, "url": "https://www.yelp.com/biz/covacha-new-york?adjust_creative=9gNmiWYX8uTbFBeTTvJMdA&utm_campaign=yelp_api_v3&utm_medium=api_v3_business_search&utm_source=9gNmiWYX8uTbFBeTTvJMdA", "review_count": 149, "categories": [{"alias": "mexican", "title": "Mexican"}], "rating": 4.0, "coordinates": {"latitude": 40.78110489839311, "longitude": -73.97644500326436}, "transactions": ["delivery", "pickup"], "price": "$$", "location": {"address1": "368 Columbus Ave", "address2": "", "address3": null, "city": "New York", "zip_code": "10023", "country": "US", "state": "NY", "display_address": ["368 Columbus Ave", "New York, NY 10023"]}, "phone": "+12127122929", "display_phone": "(212) 712-2929", "distance": 2506.232069571922}, {"id": "xemN4tP9RlK5c-yUT-M71Q", "alias": "mamasita-bar-and-grill-new-york", "name": "Mamasita Bar & Grill", "image_url": "https://s3-media3.fl.yelpcdn.com/bphoto/f3Gcpda9NsCVVUKTh1b1ng/o.jpg", "is_closed": false, "url": "https://www.yelp.com/biz/mamasita-bar-and-grill-new-york?adjust_creative=9gNmiWYX8uTbFBeTTvJMdA&utm_campaign=yelp_api_v3&utm_medium=api_v3_business_search&utm_source=9gNmiWYX8uTbFBeTTvJMdA", "review_count": 1519, "categories": [{"alias": "mexican", "title": "Mexican"}, {"alias": "bars", "title": "Bars"}, {"alias": "vegetarian", "title": "Vegetarian"}], "rating": 4.0, "coordinates": {"latitude": 40.76733, "longitude": -73.98945}, "transactions": ["delivery", "pickup"], "price": "$$$", "location": {"address1": "818 10th Ave", "address2": "", "address3": "", "city": "New York", "zip_code": "10019", "country": "US", "state": "NY", "display_address": ["818 10th Ave", "New York, NY 10019"]}, "phone": "+12123159444", "display_phone": "(212) 315-9444", "distance": 1908.3156870016792}, {"id": "sTu5z5HUcIYykg97HHj8xA", "alias": "el-centro-new-york", "name": "El Centro", "image_url": "https://s3-media4.fl.yelpcdn.com/bphoto/slZaYlmA64T2Jn6gZILScw/o.jpg", "is_closed": false, "url": "https://www.yelp.com/biz/el-centro-new-york?adjust_creative=9gNmiWYX8uTbFBeTTvJMdA&utm_campaign=yelp_api_v3&utm_medium=api_v3_business_search&utm_source=9gNmiWYX8uTbFBeTTvJMdA", "review_count": 905, "categories": [{"alias": "mexican", "title": "Mexican"}, {"alias": "bars", "title": "Bars"}], "rating": 4.0, "coordinates": {"latitude": 40.76602, "longitude": -73.98688}, "transactions": ["delivery"], "price": "$$", "location": {"address1": "824 9th Ave", "address2": null, "address3": "", "city": "New York", "zip_code": "10019", "country": "US", "state": "NY", "display_address": ["824 9th Ave", "New York, NY 10019"]}, "phone": "", "display_phone": "", "distance": 1640.3721336352005}, {"id": "SH3ZyDP30_WTsU4gXaAgHw", "alias": "tortazo-new-york-2", "name": "Tortazo", "image_url": "https://s3-media3.fl.yelpcdn.com/bphoto/kFxfjSoy7-7EVp7A3YpuxA/o.jpg", "is_closed": false, "url": "https://www.yelp.com/biz/tortazo-new-york-2?adjust_creative=9gNmiWYX8uTbFBeTTvJMdA&utm_campaign=yelp_api_v3&utm_medium=api_v3_business_search&utm_source=9gNmiWYX8uTbFBeTTvJMdA", "review_count": 10, "categories": [{"alias": "mexican", "title": "Mexican"}], "rating": 4.0, "coordinates": {"latitude": 40.754987, "longitude": -73.987176}, "transactions": ["delivery", "pickup"], "location": {"address1": "1441 Broadway", "address2": null, "address3": "", "city": "New York", "zip_code": "10018", "country": "US", "state": "NY", "display_address": ["1441 Broadway", "New York, NY 10018"]}, "phone": "", "display_phone": "", "distance": 1554.8162670312456}, {"id": "DFRpXRHjOHBxYHiuvwaEQQ", "alias": "rosa-mexicano-new-york-6", "name": "Rosa Mexicano", "image_url": "https://s3-media2.fl.yelpcdn.com/bphoto/j2dxKQ3gYtsCxg0YdlCkwA/o.jpg", "is_closed": false, "url": "https://www.yelp.com/biz/rosa-mexicano-new-york-6?adjust_creative=9gNmiWYX8uTbFBeTTvJMdA&utm_campaign=yelp_api_v3&utm_medium=api_v3_business_search&utm_source=9gNmiWYX8uTbFBeTTvJMdA", "review_count": 1469, "categories": [{"alias": "mexican", "title": "Mexican"}], "rating": 3.5, "coordinates": {"latitude": 40.77115637915222, "longitude": -73.9831131}, "transactions": ["delivery", "pickup"], "price": "$$", "location": {"address1": "61 Columbus Ave", "address2": "", "address3": "", "city": "New York", "zip_code": "10023", "country": "US", "state": "NY", "display_address": ["61 Columbus Ave", "New York, NY 10023"]}, "phone": "+12129777700", "display_phone": "(212) 977-7700", "distance": 1753.6156274566354}, {"id": "SULHf6nGQ8sK0UpG1XU30w", "alias": "los-tacos-no-1-new-york-3", "name": "Los Tacos No.1", "image_url": "https://s3-media4.fl.yelpcdn.com/bphoto/5wEe4FCwda16knmBHSsX0Q/o.jpg", "is_closed": false, "url": "https://www.yelp.com/biz/los-tacos-no-1-new-york-3?adjust_creative=9gNmiWYX8uTbFBeTTvJMdA&utm_campaign=yelp_api_v3&utm_medium=api_v3_business_search&utm_source=9gNmiWYX8uTbFBeTTvJMdA", "review_count": 2637, "categories": [{"alias": "tacos", "title": "Tacos"}], "rating": 4.5, "coordinates": {"latitude": 40.7575067, "longitude": -73.9877717}, "transactions": ["delivery"], "price": "$", "location": {"address1": "229 W 43rd St", "address2": "", "address3": null, "city": "New York", "zip_code": "10036", "country": "US", "state": "NY", "display_address": ["229 W 43rd St", "New York, NY 10036"]}, "phone": "+12125744696", "display_phone": "(212) 574-4696", "distance": 1543.9159030334724}, {"id": "7bD22UAtH56ikWYslOSIQg", "alias": "calexico-upper-east-side-new-york-2", "name": "Calexico - Upper East Side", "image_url": "https://s3-media3.fl.yelpcdn.com/bphoto/If17MxTRNkk2CbzlFkW_8g/o.jpg", "is_closed": false, "url": "https://www.yelp.com/biz/calexico-upper-east-side-new-york-2?adjust_creative=9gNmiWYX8uTbFBeTTvJMdA&utm_campaign=yelp_api_v3&utm_medium=api_v3_business_search&utm_source=9gNmiWYX8uTbFBeTTvJMdA", "review_count": 814, "categories": [{"alias": "salad", "title": "Salad"}, {"alias": "breakfast_brunch", "title": "Breakfast & Brunch"}, {"alias": "tacos", "title": "Tacos"}], "rating": 4.0, "coordinates": {"latitude": 40.77259, "longitude": -73.95588}, "transactions": ["delivery", "pickup"], "price": "$$", "location": {"address1": "1491 2nd Ave", "address2": "", "address3": "", "city": "New York", "zip_code": "10075", "country": "US", "state": "NY", "display_address": ["1491 2nd Ave", "New York, NY 10075"]}, "phone": "+13479675955", "display_phone": "(347) 967-5955", "distance": 1885.9406645306112}, {"id": "TgoYhgbPCYhLBNtpue3QHg", "alias": "maya-new-york", "name": "Maya", "image_url": "https://s3-media2.fl.yelpcdn.com/bphoto/kWwazFLapTXYMFUSSGbiUQ/o.jpg", "is_closed": false, "url": "https://www.yelp.com/biz/maya-new-york?adjust_creative=9gNmiWYX8uTbFBeTTvJMdA&utm_campaign=yelp_api_v3&utm_medium=api_v3_business_search&utm_source=9gNmiWYX8uTbFBeTTvJMdA", "review_count": 1063, "categories": [{"alias": "mexican", "title": "Mexican"}], "rating": 3.5, "coordinates": {"latitude": 40.7632055528185, "longitude": -73.9596225112209}, "transactions": ["delivery", "pickup"], "price": "$$$", "location": {"address1": "1191 1st Ave", "address2": "", "address3": "", "city": "New York", "zip_code": "10065", "country": "US", "state": "NY", "display_address": ["1191 1st Ave", "New York, NY 10065"]}, "phone": "+12125851818", "display_phone": "(212) 585-1818", "distance": 950.4606905835178}, {"id": "YFL1rAdlv7J0cswHVhvCtQ", "alias": "ruta-oaxaca-mexican-cuisine-astoria-3", "name": "Ruta Oaxaca Mexican Cuisine", "image_url": "https://s3-media2.fl.yelpcdn.com/bphoto/_5Z0dN4pp9jauOsUVhkwvQ/o.jpg", "is_closed": false, "url": "https://www.yelp.com/biz/ruta-oaxaca-mexican-cuisine-astoria-3?adjust_creative=9gNmiWYX8uTbFBeTTvJMdA&utm_campaign=yelp_api_v3&utm_medium=api_v3_business_search&utm_source=9gNmiWYX8uTbFBeTTvJMdA", "review_count": 238, "categories": [{"alias": "mexican", "title": "Mexican"}], "rating": 4.5, "coordinates": {"latitude": 40.76058, "longitude": -73.92182}, "transactions": ["delivery", "pickup"], "price": "$$$", "location": {"address1": "35-03 Broadway", "address2": null, "address3": "", "city": "Astoria", "zip_code": "11106", "country": "US", "state": "NY", "display_address": ["35-03 Broadway", "Astoria, NY 11106"]}, "phone": "+19293491228", "display_phone": "(929) 349-1228", "distance": 4018.860736774311}, {"id": "PqqnNrUtU7XTKQvUM4cyqQ", "alias": "bar-verde-new-york", "name": "Bar Verde", "image_url": "https://s3-media1.fl.yelpcdn.com/bphoto/ZmPLMPMSviGQXTyUSJeJrw/o.jpg", "is_closed": false, "url": "https://www.yelp.com/biz/bar-verde-new-york?adjust_creative=9gNmiWYX8uTbFBeTTvJMdA&utm_campaign=yelp_api_v3&utm_medium=api_v3_business_search&utm_source=9gNmiWYX8uTbFBeTTvJMdA", "review_count": 419, "categories": [{"alias": "mexican", "title": "Mexican"}, {"alias": "vegan", "title": "Vegan"}, {"alias": "gluten_free", "title": "Gluten-Free"}], "rating": 4.5, "coordinates": {"latitude": 40.7260849061034, "longitude": -73.9897361397743}, "transactions": ["delivery", "pickup"], "price": "$$", "location": {"address1": "65 2nd Ave", "address2": "", "address3": null, "city": "New York", "zip_code": "10003", "country": "US", "state": "NY", "display_address": ["65 2nd Ave", "New York, NY 10003"]}, "phone": "+12127776965", "display_phone": "(212) 777-6965", "distance": 4052.5681555418587}, {"id": "PHMkwS5nmo4IUXbcg0OcAg", "alias": "jajaja-mexicana-new-york-3", "name": "Jajaja Mexicana", "image_url": "https://s3-media2.fl.yelpcdn.com/bphoto/uWbBN6yZcR5TMFY0W0RmYQ/o.jpg", "is_closed": false, "url": "https://www.yelp.com/biz/jajaja-mexicana-new-york-3?adjust_creative=9gNmiWYX8uTbFBeTTvJMdA&utm_campaign=yelp_api_v3&utm_medium=api_v3_business_search&utm_source=9gNmiWYX8uTbFBeTTvJMdA", "review_count": 569, "categories": [{"alias": "mexican", "title": "Mexican"}, {"alias": "vegan", "title": "Vegan"}, {"alias": "cocktailbars", "title": "Cocktail Bars"}], "rating": 4.5, "coordinates": {"latitude": 40.72979, "longitude": -74.00455}, "transactions": ["delivery", "pickup"], "price": "$$", "location": {"address1": "63 Carmine St", "address2": "", "address3": null, "city": "New York", "zip_code": "10014", "country": "US", "state": "NY", "display_address": ["63 Carmine St", "New York, NY 10014"]}, "phone": "+19172620184", "display_phone": "(917) 262-0184", "distance": 4395.0094481215365}, {"id": "RUsot7ERPbYA_wOKMlVpAQ", "alias": "azule-cantina-new-york", "name": "Azule Cantina", "image_url": "https://s3-media1.fl.yelpcdn.com/bphoto/YTmcpaMcmAEGaoJZK5E7FQ/o.jpg", "is_closed": false, "url": "https://www.yelp.com/biz/azule-cantina-new-york?adjust_creative=9gNmiWYX8uTbFBeTTvJMdA&utm_campaign=yelp_api_v3&utm_medium=api_v3_business_search&utm_source=9gNmiWYX8uTbFBeTTvJMdA", "review_count": 17, "categories": [{"alias": "newmexican", "title": "New Mexican Cuisine"}, {"alias": "tacos", "title": "Tacos"}], "rating": 4.0, "coordinates": {"latitude": 40.7606700654272, "longitude": -73.97805009037256}, "transactions": ["delivery", "pickup"], "location": {"address1": "31 W 52nd St", "address2": "", "address3": null, "city": "New York", "zip_code": "10019", "country": "US", "state": "NY", "display_address": ["31 W 52nd St", "New York, NY 10019"]}, "phone": "+16463604001", "display_phone": "(646) 360-4001", "distance": 733.0066697452457}, {"id": "Ahx8GsuAGUl8TgqCWP7uXw", "alias": "temerario-new-york-2", "name": "Temerario", "image_url": "https://s3-media2.fl.yelpcdn.com/bphoto/amE-z-veF7Kwld_lCNE02A/o.jpg", "is_closed": false, "url": "https://www.yelp.com/biz/temerario-new-york-2?adjust_creative=9gNmiWYX8uTbFBeTTvJMdA&utm_campaign=yelp_api_v3&utm_medium=api_v3_business_search&utm_source=9gNmiWYX8uTbFBeTTvJMdA", "review_count": 367, "categories": [{"alias": "mexican", "title": "Mexican"}, {"alias": "cocktailbars", "title": "Cocktail Bars"}, {"alias": "breakfast_brunch", "title": "Breakfast & Brunch"}], "rating": 4.0, "coordinates": {"latitude": 40.7434133400872, "longitude": -73.9996277220286}, "transactions": ["pickup"], "price": "$$", "location": {"address1": "198 8th Ave", "address2": "", "address3": "", "city": "New York", "zip_code": "10011", "country": "US", "state": "NY", "display_address": ["198 8th Ave", "New York, NY 10011"]}, "phone": "+12126452100", "display_phone": "(212) 645-2100", "distance": 3079.0463861442613}, {"id": "L3REPLCvQpMapYPd_fkS-A", "alias": "los-mariscos-new-york", "name": "Los Mariscos", "image_url": "https://s3-media1.fl.yelpcdn.com/bphoto/miAqlvuZ-SEdViMIAbHkeQ/o.jpg", "is_closed": false, "url": "https://www.yelp.com/biz/los-mariscos-new-york?adjust_creative=9gNmiWYX8uTbFBeTTvJMdA&utm_campaign=yelp_api_v3&utm_medium=api_v3_business_search&utm_source=9gNmiWYX8uTbFBeTTvJMdA", "review_count": 752, "categories": [{"alias": "mexican", "title": "Mexican"}, {"alias": "cocktailbars", "title": "Cocktail Bars"}], "rating": 4.5, "coordinates": {"latitude": 40.74207, "longitude": -74.00565}, "transactions": ["delivery", "pickup"], "price": "$$", "location": {"address1": "409 W 15th St", "address2": "", "address3": null, "city": "New York", "zip_code": "10011", "country": "US", "state": "NY", "display_address": ["409 W 15th St", "New York, NY 10011"]}, "phone": "+12129204986", "display_phone": "(212) 920-4986", "distance": 3584.567737363314}, {"id": "4UxmxAqehEIh7fYrzUEA7A", "alias": "tacovision-new-york", "name": "Tacovision", "image_url": "https://s3-media4.fl.yelpcdn.com/bphoto/RrlJH2x3tsoh-JhnfO5gzA/o.jpg", "is_closed": false, "url": "https://www.yelp.com/biz/tacovision-new-york?adjust_creative=9gNmiWYX8uTbFBeTTvJMdA&utm_campaign=yelp_api_v3&utm_medium=api_v3_business_search&utm_source=9gNmiWYX8uTbFBeTTvJMdA", "review_count": 372, "categories": [{"alias": "tacos", "title": "Tacos"}, {"alias": "tapasmallplates", "title": "Tapas/Small Plates"}, {"alias": "cocktailbars", "title": "Cocktail Bars"}], "rating": 4.0, "coordinates": {"latitude": 40.7568200311153, "longitude": -73.9678929001093}, "transactions": ["delivery", "pickup"], "price": "$$", "location": {"address1": "244 E 53rd St", "address2": "", "address3": null, "city": "New York", "zip_code": "10004", "country": "US", "state": "NY", "display_address": ["244 E 53rd St", "New York, NY 10004"]}, "phone": "+16469211990", "display_phone": "(646) 921-1990", "distance": 297.66095430108044}, {"id": "a2BkT6uUKDpzhLalkksJsg", "alias": "tacombi-upper-east-side-new-york-2", "name": "Tacombi", "image_url": "https://s3-media3.fl.yelpcdn.com/bphoto/zSx44PAdhHEz8dz0o1v3ew/o.jpg", "is_closed": false, "url": "https://www.yelp.com/biz/tacombi-upper-east-side-new-york-2?adjust_creative=9gNmiWYX8uTbFBeTTvJMdA&utm_campaign=yelp_api_v3&utm_medium=api_v3_business_search&utm_source=9gNmiWYX8uTbFBeTTvJMdA", "review_count": 124, "categories": [{"alias": "mexican", "title": "Mexican"}], "rating": 4.0, "coordinates": {"latitude": 40.768036983514506, "longitude": -73.96119122060036}, "transactions": ["delivery", "pickup"], "price": "$$", "location": {"address1": "202 E 70th St", "address2": null, "address3": null, "city": "New York", "zip_code": "10021", "country": "US", "state": "NY", "display_address": ["202 E 70th St", "New York, NY 10021"]}, "phone": "+16467264302", "display_phone": "(646) 726-4302", "distance": 1212.2378780477866}, {"id": "dYWjNK07igws9jFNgQmhng", "alias": "rosa-mexicano-new-york-3", "name": "Rosa Mexicano", "image_url": "https://s3-media2.fl.yelpcdn.com/bphoto/plS7hoISQe1qsITl1hP7TA/o.jpg", "is_closed": false, "url": "https://www.yelp.com/biz/rosa-mexicano-new-york-3?adjust_creative=9gNmiWYX8uTbFBeTTvJMdA&utm_campaign=yelp_api_v3&utm_medium=api_v3_business_search&utm_source=9gNmiWYX8uTbFBeTTvJMdA", "review_count": 1649, "categories": [{"alias": "mexican", "title": "Mexican"}], "rating": 3.5, "coordinates": {"latitude": 40.738306632767085, "longitude": -73.99081456881349}, "transactions": ["delivery", "pickup"], "price": "$$", "location": {"address1": "9 E 18th St", "address2": "", "address3": "", "city": "New York", "zip_code": "10003", "country": "US", "state": "NY", "display_address": ["9 E 18th St", "New York, NY 10003"]}, "phone": "+12125333350", "display_phone": "(212) 533-3350", "distance": 2930.1693005103034}, {"id": "M1YYZ9cTVuMXLji_XF6rzg", "alias": "dos-caminos-new-york-5", "name": "Dos Caminos", "image_url": "https://s3-media3.fl.yelpcdn.com/bphoto/zM_lRVneBagOq1ZnNw69oA/o.jpg", "is_closed": false, "url": "https://www.yelp.com/biz/dos-caminos-new-york-5?adjust_creative=9gNmiWYX8uTbFBeTTvJMdA&utm_campaign=yelp_api_v3&utm_medium=api_v3_business_search&utm_source=9gNmiWYX8uTbFBeTTvJMdA", "review_count": 1360, "categories": [{"alias": "mexican", "title": "Mexican"}, {"alias": "bars", "title": "Bars"}], "rating": 3.5, "coordinates": {"latitude": 40.7422737, "longitude": -73.9846134}, "transactions": ["delivery", "pickup"], "price": "$$", "location": {"address1": "373 Park Ave S", "address2": "", "address3": "", "city": "New York", "zip_code": "10016", "country": "US", "state": "NY", "display_address": ["373 Park Ave S", "New York, NY 10016"]}, "phone": "+12122941000", "display_phone": "(212) 294-1000", "distance": 2266.43658672428}, {"id": "3t1IjhshYUfDWIzpJn5YlQ", "alias": "cinco-de-mayo-new-york-5", "name": "Cinco De Mayo", "image_url": "https://s3-media3.fl.yelpcdn.com/bphoto/Mx2O51exWtGrwknkVhB_IA/o.jpg", "is_closed": false, "url": "https://www.yelp.com/biz/cinco-de-mayo-new-york-5?adjust_creative=9gNmiWYX8uTbFBeTTvJMdA&utm_campaign=yelp_api_v3&utm_medium=api_v3_business_search&utm_source=9gNmiWYX8uTbFBeTTvJMdA", "review_count": 6, "categories": [{"alias": "mexican", "title": "Mexican"}], "rating": 5.0, "coordinates": {"latitude": 40.75172171488582, "longitude": -73.9742506021925}, "transactions": ["delivery", "pickup"], "location": {"address1": "153 E 43rd St", "address2": "", "address3": null, "city": "New York", "zip_code": "10017", "country": "US", "state": "NY", "display_address": ["153 E 43rd St", "New York, NY 10017"]}, "phone": "+12126822197", "display_phone": "(212) 682-2197", "distance": 917.5882811627483}, {"id": "9aJ1MVTthZw3QjqoG7mPjg", "alias": "rosies-new-york-2", "name": "Rosie's", "image_url": "https://s3-media1.fl.yelpcdn.com/bphoto/C5Mf9gLWxbTiTzmOp2B2YQ/o.jpg", "is_closed": false, "url": "https://www.yelp.com/biz/rosies-new-york-2?adjust_creative=9gNmiWYX8uTbFBeTTvJMdA&utm_campaign=yelp_api_v3&utm_medium=api_v3_business_search&utm_source=9gNmiWYX8uTbFBeTTvJMdA", "review_count": 881, "categories": [{"alias": "mexican", "title": "Mexican"}], "rating": 4.0, "coordinates": {"latitude": 40.72492, "longitude": -73.99079}, "transactions": ["delivery", "pickup"], "price": "$$", "location": {"address1": "29 E 2nd St", "address2": null, "address3": "", "city": "New York", "zip_code": "10003", "country": "US", "state": "NY", "display_address": ["29 E 2nd St", "New York, NY 10003"]}, "phone": "+12123350114", "display_phone": "(212) 335-0114", "distance": 4207.963659935587}, {"id": "kn9rgR4KlvyTTi-s76OIaQ", "alias": "toloache-82nd-new-york", "name": "Toloache 82nd", "image_url": "https://s3-media2.fl.yelpcdn.com/bphoto/ARnmJcj-zMtdgD97CePB3A/o.jpg", "is_closed": false, "url": "https://www.yelp.com/biz/toloache-82nd-new-york?adjust_creative=9gNmiWYX8uTbFBeTTvJMdA&utm_campaign=yelp_api_v3&utm_medium=api_v3_business_search&utm_source=9gNmiWYX8uTbFBeTTvJMdA", "review_count": 504, "categories": [{"alias": "mexican", "title": "Mexican"}, {"alias": "tex-mex", "title": "Tex-Mex"}], "rating": 4.0, "coordinates": {"latitude": 40.776483, "longitude": -73.956708}, "transactions": ["delivery", "pickup"], "price": "$$$", "location": {"address1": "166 E 82nd St", "address2": "", "address3": "", "city": "New York", "zip_code": "10028", "country": "US", "state": "NY", "display_address": ["166 E 82nd St", "New York, NY 10028"]}, "phone": "+12128614505", "display_phone": "(212) 861-4505", "distance": 2208.627825855304}, {"id": "EHUNrnIgnhwTnpOm3gEESg", "alias": "tacuba-astoria", "name": "Tacuba", "image_url": "https://s3-media2.fl.yelpcdn.com/bphoto/xrzWf3mh0RFiWPis5jIxWQ/o.jpg", "is_closed": false, "url": "https://www.yelp.com/biz/tacuba-astoria?adjust_creative=9gNmiWYX8uTbFBeTTvJMdA&utm_campaign=yelp_api_v3&utm_medium=api_v3_business_search&utm_source=9gNmiWYX8uTbFBeTTvJMdA", "review_count": 741, "categories": [{"alias": "mexican", "title": "Mexican"}, {"alias": "latin", "title": "Latin American"}, {"alias": "cocktailbars", "title": "Cocktail Bars"}], "rating": 4.0, "coordinates": {"latitude": 40.75609, "longitude": -73.924441}, "transactions": ["delivery", "pickup"], "price": "$$", "location": {"address1": "35-01 36th St", "address2": "", "address3": "", "city": "Astoria", "zip_code": "11106", "country": "US", "state": "NY", "display_address": ["35-01 36th St", "Astoria, NY 11106"]}, "phone": "+17187862727", "display_phone": "(718) 786-2727", "distance": 3816.886170778341}, {"id": "2iwT3iutZvmqzmu7oOkWFw", "alias": "dos-caminos-new-york-7", "name": "Dos Caminos", "image_url": "https://s3-media2.fl.yelpcdn.com/bphoto/eHvXPqv6iLcTXfT486z6JA/o.jpg", "is_closed": false, "url": "https://www.yelp.com/biz/dos-caminos-new-york-7?adjust_creative=9gNmiWYX8uTbFBeTTvJMdA&utm_campaign=yelp_api_v3&utm_medium=api_v3_business_search&utm_source=9gNmiWYX8uTbFBeTTvJMdA", "review_count": 756, "categories": [{"alias": "mexican", "title": "Mexican"}, {"alias": "bars", "title": "Bars"}], "rating": 3.5, "coordinates": {"latitude": 40.7593727, "longitude": -73.9853281}, "transactions": ["delivery", "pickup"], "price": "$$", "location": {"address1": "1567 Broadway", "address2": "", "address3": "", "city": "New York", "zip_code": "10036", "country": "US", "state": "NY", "display_address": ["1567 Broadway", "New York, NY 10036"]}, "phone": "+12129181330", "display_phone": "(212) 918-1330", "distance": 1327.0823505907758}, {"id": "dgaNriM1VdI2nGochhHE_g", "alias": "casa-enrique-long-island-city", "name": "Casa Enrique", "image_url": "https://s3-media3.fl.yelpcdn.com/bphoto/86LVj-n_UcUBMb_fFl_MKA/o.jpg", "is_closed": false, "url": "https://www.yelp.com/biz/casa-enrique-long-island-city?adjust_creative=9gNmiWYX8uTbFBeTTvJMdA&utm_campaign=yelp_api_v3&utm_medium=api_v3_business_search&utm_source=9gNmiWYX8uTbFBeTTvJMdA", "review_count": 1447, "categories": [{"alias": "mexican", "title": "Mexican"}], "rating": 4.0, "coordinates": {"latitude": 40.743404338358, "longitude": -73.954350367693}, "transactions": ["delivery", "pickup"], "price": "$$", "location": {"address1": "5-48 49th Ave", "address2": "", "address3": "", "city": "Long Island City", "zip_code": "11101", "country": "US", "state": "NY", "display_address": ["5-48 49th Ave", "Long Island City, NY 11101"]}, "phone": "+13474486040", "display_phone": "(347) 448-6040", "distance": 2172.4473032507}, {"id": "cy0vBvZu2Eb4XtRFCp8Seg", "alias": "conmigo-new-york", "name": "Conmigo", "image_url": "https://s3-media2.fl.yelpcdn.com/bphoto/YDpn8-jKI3LbJtO2U19j-A/o.jpg", "is_closed": false, "url": "https://www.yelp.com/biz/conmigo-new-york?adjust_creative=9gNmiWYX8uTbFBeTTvJMdA&utm_campaign=yelp_api_v3&utm_medium=api_v3_business_search&utm_source=9gNmiWYX8uTbFBeTTvJMdA", "review_count": 334, "categories": [{"alias": "cocktailbars", "title": "Cocktail Bars"}, {"alias": "tacos", "title": "Tacos"}], "rating": 4.0, "coordinates": {"latitude": 40.77793, "longitude": -73.94902}, "transactions": ["delivery", "pickup"], "price": "$$", "location": {"address1": "1685 1st Ave", "address2": "", "address3": null, "city": "New York", "zip_code": "10128", "country": "US", "state": "NY", "display_address": ["1685 1st Ave", "New York, NY 10128"]}, "phone": "+12122560056", "display_phone": "(212) 256-0056", "distance": 2711.1898612689497}, {"id": "BdHWUmVFuo1R8Lctv4K1Ow", "alias": "el-parador-cafe-new-york", "name": "El Parador Cafe", "image_url": "https://s3-media2.fl.yelpcdn.com/bphoto/cS1gr1McO7kFzM_4O73gHw/o.jpg", "is_closed": false, "url": "https://www.yelp.com/biz/el-parador-cafe-new-york?adjust_creative=9gNmiWYX8uTbFBeTTvJMdA&utm_campaign=yelp_api_v3&utm_medium=api_v3_business_search&utm_source=9gNmiWYX8uTbFBeTTvJMdA", "review_count": 491, "categories": [{"alias": "mexican", "title": "Mexican"}, {"alias": "venues", "title": "Venues & Event Spaces"}, {"alias": "cocktailbars", "title": "Cocktail Bars"}], "rating": 4.0, "coordinates": {"latitude": 40.7444599, "longitude": -73.97472}, "transactions": ["delivery", "pickup"], "price": "$$$", "location": {"address1": "325 E 34th St", "address2": "", "address3": "", "city": "New York", "zip_code": "10016", "country": "US", "state": "NY", "display_address": ["325 E 34th St", "New York, NY 10016"]}, "phone": "+12126796812", "display_phone": "(212) 679-6812", "distance": 1689.9770068251805}, {"id": "9_CEU7Wmvmwlyvqr-PJD6w", "alias": "ofrenda-new-york", "name": "Ofrenda", "image_url": "https://s3-media3.fl.yelpcdn.com/bphoto/n_7KzDvJbYOkJttMRJOWyQ/o.jpg", "is_closed": false, "url": "https://www.yelp.com/biz/ofrenda-new-york?adjust_creative=9gNmiWYX8uTbFBeTTvJMdA&utm_campaign=yelp_api_v3&utm_medium=api_v3_business_search&utm_source=9gNmiWYX8uTbFBeTTvJMdA", "review_count": 1074, "categories": [{"alias": "mexican", "title": "Mexican"}, {"alias": "breakfast_brunch", "title": "Breakfast & Brunch"}], "rating": 4.0, "coordinates": {"latitude": 40.73391, "longitude": -74.00242}, "transactions": ["delivery", "pickup"], "price": "$$", "location": {"address1": "113 7th Ave S", "address2": "", "address3": "", "city": "New York", "zip_code": "10014", "country": "US", "state": "NY", "display_address": ["113 7th Ave S", "New York, NY 10014"]}, "phone": "+12129242305", "display_phone": "(212) 924-2305", "distance": 3938.33065417973}, {"id": "iHinXbZk2625noKq9XSvzA", "alias": "seeyama\u00f1ana-new-york", "name": "Seeyama\u00f1ana", "image_url": "https://s3-media3.fl.yelpcdn.com/bphoto/p45C2zHesIr1c2OlW2G0wg/o.jpg", "is_closed": false, "url": "https://www.yelp.com/biz/seeyama%C3%B1ana-new-york?adjust_creative=9gNmiWYX8uTbFBeTTvJMdA&utm_campaign=yelp_api_v3&utm_medium=api_v3_business_search&utm_source=9gNmiWYX8uTbFBeTTvJMdA", "review_count": 49, "categories": [{"alias": "mexican", "title": "Mexican"}, {"alias": "cocktailbars", "title": "Cocktail Bars"}], "rating": 4.0, "coordinates": {"latitude": 40.745332, "longitude": -73.990216}, "transactions": [], "location": {"address1": "49 West 27th St", "address2": null, "address3": null, "city": "New York", "zip_code": "10001", "country": "US", "state": "NY", "display_address": ["49 West 27th St", "New York, NY 10001"]}, "phone": "+19173741682", "display_phone": "(917) 374-1682", "distance": 2324.0873607548106}, {"id": "xN4yKQMzo3PIoQlFamUOLQ", "alias": "la-esquina-midtown-new-york-2", "name": "La Esquina - Midtown", "image_url": "https://s3-media3.fl.yelpcdn.com/bphoto/1qOuQs_ldEtU9kAs4XZJlw/o.jpg", "is_closed": false, "url": "https://www.yelp.com/biz/la-esquina-midtown-new-york-2?adjust_creative=9gNmiWYX8uTbFBeTTvJMdA&utm_campaign=yelp_api_v3&utm_medium=api_v3_business_search&utm_source=9gNmiWYX8uTbFBeTTvJMdA", "review_count": 259, "categories": [{"alias": "mexican", "title": "Mexican"}, {"alias": "latin", "title": "Latin American"}], "rating": 4.0, "coordinates": {"latitude": 40.7642986928764, "longitude": -73.9814604957066}, "transactions": ["delivery", "pickup"], "price": "$$", "location": {"address1": "200 W 55th St", "address2": "", "address3": null, "city": "New York", "zip_code": "10019", "country": "US", "state": "NY", "display_address": ["200 W 55th St", "New York, NY 10019"]}, "phone": "+16466137100", "display_phone": "(646) 613-7100", "distance": 1151.890444962366}, {"id": "7ERwg_4Kiaq1ezKTSSv7pg", "alias": "taqueria-86-new-york", "name": "Taqueria 86", "image_url": "https://s3-media2.fl.yelpcdn.com/bphoto/LmE3eYuGQf8r8BYoXkXYhg/o.jpg", "is_closed": false, "url": "https://www.yelp.com/biz/taqueria-86-new-york?adjust_creative=9gNmiWYX8uTbFBeTTvJMdA&utm_campaign=yelp_api_v3&utm_medium=api_v3_business_search&utm_source=9gNmiWYX8uTbFBeTTvJMdA", "review_count": 95, "categories": [{"alias": "mexican", "title": "Mexican"}], "rating": 4.5, "coordinates": {"latitude": 40.793, "longitude": -73.97214}, "transactions": ["delivery", "pickup"], "price": "$$", "location": {"address1": "210 W 94th St", "address2": null, "address3": "", "city": "New York", "zip_code": "10025", "country": "US", "state": "NY", "display_address": ["210 W 94th St", "New York, NY 10025"]}, "phone": "+19176757727", "display_phone": "(917) 675-7727", "distance": 3760.2051127219784}, {"id": "GCx7TnLKgLtUcXLIfQYfFA", "alias": "casa-azul-brooklyn", "name": "Casa Azul", "image_url": "https://s3-media1.fl.yelpcdn.com/bphoto/CGIl-fZuuLwI6wB8N8SrHQ/o.jpg", "is_closed": false, "url": "https://www.yelp.com/biz/casa-azul-brooklyn?adjust_creative=9gNmiWYX8uTbFBeTTvJMdA&utm_campaign=yelp_api_v3&utm_medium=api_v3_business_search&utm_source=9gNmiWYX8uTbFBeTTvJMdA", "review_count": 145, "categories": [{"alias": "mexican", "title": "Mexican"}, {"alias": "cocktailbars", "title": "Cocktail Bars"}], "rating": 4.5, "coordinates": {"latitude": 40.66549, "longitude": -73.98259}, "transactions": ["delivery", "pickup"], "price": "$$", "location": {"address1": "369 7th Ave", "address2": "", "address3": null, "city": "Brooklyn", "zip_code": "11215", "country": "US", "state": "NY", "display_address": ["369 7th Ave", "Brooklyn, NY 11215"]}, "phone": "+19293376767", "display_phone": "(929) 337-6767", "distance": 10480.385223821599}, {"id": "ry7XCoXXxS0DxRmzZLFybw", "alias": "taqueria-gramercy-new-york", "name": "Taqueria Gramercy", "image_url": "https://s3-media3.fl.yelpcdn.com/bphoto/_4dAAfLZDuteWTu-sdTMPw/o.jpg", "is_closed": false, "url": "https://www.yelp.com/biz/taqueria-gramercy-new-york?adjust_creative=9gNmiWYX8uTbFBeTTvJMdA&utm_campaign=yelp_api_v3&utm_medium=api_v3_business_search&utm_source=9gNmiWYX8uTbFBeTTvJMdA", "review_count": 144, "categories": [{"alias": "bars", "title": "Bars"}, {"alias": "tacos", "title": "Tacos"}], "rating": 4.0, "coordinates": {"latitude": 40.7363, "longitude": -73.98531}, "transactions": ["delivery", "pickup"], "price": "$$", "location": {"address1": "218 3rd Ave", "address2": "", "address3": null, "city": "New York", "zip_code": "10003", "country": "US", "state": "NY", "display_address": ["218 3rd Ave", "New York, NY 10003"]}, "phone": "+16463706435", "display_phone": "(646) 370-6435", "distance": 2869.3206709578567}, {"id": "xGNzAsakHgbbl9fwgSoiUg", "alias": "kahlo-new-york", "name": "Kahlo", "image_url": "https://s3-media2.fl.yelpcdn.com/bphoto/_ZKNGX4X6olFid-__Z6MQg/o.jpg", "is_closed": false, "url": "https://www.yelp.com/biz/kahlo-new-york?adjust_creative=9gNmiWYX8uTbFBeTTvJMdA&utm_campaign=yelp_api_v3&utm_medium=api_v3_business_search&utm_source=9gNmiWYX8uTbFBeTTvJMdA", "review_count": 222, "categories": [{"alias": "mexican", "title": "Mexican"}], "rating": 4.0, "coordinates": {"latitude": 40.752092, "longitude": -74.0026757}, "transactions": ["delivery", "pickup"], "price": "$$$", "location": {"address1": "525 West 29th St", "address2": "", "address3": "", "city": "New York", "zip_code": "10001", "country": "US", "state": "NY", "display_address": ["525 West 29th St", "New York, NY 10001"]}, "phone": "+12122560083", "display_phone": "(212) 256-0083", "distance": 2897.2583369616186}, {"id": "1nR3kKOs938gcgnw6p5wjg", "alias": "sinigual-manhattan-2", "name": "Sinigual", "image_url": "https://s3-media2.fl.yelpcdn.com/bphoto/XC0JiUYm6e0TuGhaUoH0Bw/o.jpg", "is_closed": false, "url": "https://www.yelp.com/biz/sinigual-manhattan-2?adjust_creative=9gNmiWYX8uTbFBeTTvJMdA&utm_campaign=yelp_api_v3&utm_medium=api_v3_business_search&utm_source=9gNmiWYX8uTbFBeTTvJMdA", "review_count": 1043, "categories": [{"alias": "mexican", "title": "Mexican"}, {"alias": "breakfast_brunch", "title": "Breakfast & Brunch"}, {"alias": "cocktailbars", "title": "Cocktail Bars"}], "rating": 3.5, "coordinates": {"latitude": 40.7503161990978, "longitude": -73.97508162972879}, "transactions": ["delivery", "pickup"], "price": "$$", "location": {"address1": "640 3rd Ave", "address2": "", "address3": "", "city": "Manhattan", "zip_code": "10017", "country": "US", "state": "NY", "display_address": ["640 3rd Ave", "Manhattan, NY 10017"]}, "phone": "+12122860250", "display_phone": "(212) 286-0250", "distance": 1088.7989473153807}, {"id": "AABqAsYdRI9gSyU1gStdxg", "alias": "gina-mexicana-new-york-2", "name": "Gina Mexicana", "image_url": "https://s3-media1.fl.yelpcdn.com/bphoto/vgdFeV5W41q9uVXa93PXpA/o.jpg", "is_closed": false, "url": "https://www.yelp.com/biz/gina-mexicana-new-york-2?adjust_creative=9gNmiWYX8uTbFBeTTvJMdA&utm_campaign=yelp_api_v3&utm_medium=api_v3_business_search&utm_source=9gNmiWYX8uTbFBeTTvJMdA", "review_count": 172, "categories": [{"alias": "cocktailbars", "title": "Cocktail Bars"}, {"alias": "mexican", "title": "Mexican"}, {"alias": "beerbar", "title": "Beer Bar"}], "rating": 3.0, "coordinates": {"latitude": 40.7634, "longitude": -73.9668}, "transactions": ["delivery", "pickup"], "price": "$$", "location": {"address1": "145 E 61st St", "address2": "", "address3": "", "city": "New York", "zip_code": "10021", "country": "US", "state": "NY", "display_address": ["145 E 61st St", "New York, NY 10021"]}, "phone": "+12125273700", "display_phone": "(212) 527-3700", "distance": 528.3466669530045}, {"id": "B6bEkY9sJ_GU2pD2Rwb4gg", "alias": "el-mitote-new-york", "name": "El Mitote", "image_url": "https://s3-media1.fl.yelpcdn.com/bphoto/H9pTuL8VUFz4CZXJ1HXNfA/o.jpg", "is_closed": false, "url": "https://www.yelp.com/biz/el-mitote-new-york?adjust_creative=9gNmiWYX8uTbFBeTTvJMdA&utm_campaign=yelp_api_v3&utm_medium=api_v3_business_search&utm_source=9gNmiWYX8uTbFBeTTvJMdA", "review_count": 599, "categories": [{"alias": "mexican", "title": "Mexican"}, {"alias": "juicebars", "title": "Juice Bars & Smoothies"}, {"alias": "sandwiches", "title": "Sandwiches"}], "rating": 3.5, "coordinates": {"latitude": 40.77578, "longitude": -73.98021}, "transactions": ["delivery", "pickup"], "price": "$$", "location": {"address1": "208 Columbus Ave", "address2": "", "address3": "", "city": "New York", "zip_code": "10023", "country": "US", "state": "NY", "display_address": ["208 Columbus Ave", "New York, NY 10023"]}, "phone": "+12128742929", "display_phone": "(212) 874-2929", "distance": 2058.6091642183605}, {"id": "AUyKmFjpaVLwc3awfUnqgQ", "alias": "chela-and-garnacha-astoria", "name": "Chela & Garnacha", "image_url": "https://s3-media4.fl.yelpcdn.com/bphoto/vFWyi2m1qjn7LoGdpHnmjQ/o.jpg", "is_closed": false, "url": "https://www.yelp.com/biz/chela-and-garnacha-astoria?adjust_creative=9gNmiWYX8uTbFBeTTvJMdA&utm_campaign=yelp_api_v3&utm_medium=api_v3_business_search&utm_source=9gNmiWYX8uTbFBeTTvJMdA", "review_count": 432, "categories": [{"alias": "mexican", "title": "Mexican"}, {"alias": "wine_bars", "title": "Wine Bars"}, {"alias": "breakfast_brunch", "title": "Breakfast & Brunch"}], "rating": 4.5, "coordinates": {"latitude": 40.7556474, "longitude": -73.9274415}, "transactions": ["delivery", "pickup"], "price": "$$", "location": {"address1": "33-09 36th Ave", "address2": "", "address3": "", "city": "Astoria", "zip_code": "11106", "country": "US", "state": "NY", "display_address": ["33-09 36th Ave", "Astoria, NY 11106"]}, "phone": "+19178326876", "display_phone": "(917) 832-6876", "distance": 3559.463214861041}, {"id": "WqjqHMozyW42XLTtLnKGag", "alias": "la-pulperia-hells-kitchen-new-york-2", "name": "La Pulperia Hell's Kitchen", "image_url": "https://s3-media3.fl.yelpcdn.com/bphoto/n1pMony1m8z_3rzeiFjXMA/o.jpg", "is_closed": false, "url": "https://www.yelp.com/biz/la-pulperia-hells-kitchen-new-york-2?adjust_creative=9gNmiWYX8uTbFBeTTvJMdA&utm_campaign=yelp_api_v3&utm_medium=api_v3_business_search&utm_source=9gNmiWYX8uTbFBeTTvJMdA", "review_count": 871, "categories": [{"alias": "latin", "title": "Latin American"}, {"alias": "seafood", "title": "Seafood"}, {"alias": "bars", "title": "Bars"}], "rating": 4.0, "coordinates": {"latitude": 40.7599217, "longitude": -73.991841}, "transactions": ["delivery", "pickup"], "price": "$$$", "location": {"address1": "623 9th Ave", "address2": null, "address3": "", "city": "New York", "zip_code": "10036", "country": "US", "state": "NY", "display_address": ["623 9th Ave", "New York, NY 10036"]}, "phone": "+16466698984", "display_phone": "(646) 669-8984", "distance": 1877.2829598996698}], "total": 4800, "region": {"center": {"longitude": -73.96957397460938, "latitude": 40.75917470627005}}}