{"businesses": [{"id": "ED91L2kUw_pwF_Pd1ZdViQ", "alias": "rancho-tequileria-new-york-10", "name": "Rancho Tequileria", "image_url": "https://s3-media4.fl.yelpcdn.com/bphoto/rkntr3oaLqmb24PmXpd3fA/o.jpg", "is_closed": false, "url": "https://www.yelp.com/biz/rancho-tequileria-new-york-10?adjust_creative=9gNmiWYX8uTbFBeTTvJMdA&utm_campaign=yelp_api_v3&utm_medium=api_v3_business_search&utm_source=9gNmiWYX8uTbFBeTTvJMdA", "review_count": 96, "categories": [{"alias": "mexican", "title": "Mexican"}], "rating": 4.0, "coordinates": {"latitude": 40.793432, "longitude": -73.971356}, "transactions": ["pickup", "delivery"], "location": {"address1": "718 Amsterdam Ave", "address2": "", "address3": null, "city": "New York", "zip_code": "10025", "country": "US", "state": "NY", "display_address": ["718 Amsterdam Ave", "New York, NY 10025"]}, "phone": "+12122474505", "display_phone": "(212) 247-4505", "distance": 3812.1873537728657}, {"id": "2kkjzgLwKHFmLAfR86kE3Q", "alias": "fonda-tribeca-new-york-4", "name": "Fonda Tribeca", "image_url": "https://s3-media2.fl.yelpcdn.com/bphoto/fd7ukzb7VENp1EN8F0PPIA/o.jpg", "is_closed": false, "url": "https://www.yelp.com/biz/fonda-tribeca-new-york-4?adjust_creative=9gNmiWYX8uTbFBeTTvJMdA&utm_campaign=yelp_api_v3&utm_medium=api_v3_business_search&utm_source=9gNmiWYX8uTbFBeTTvJMdA", "review_count": 28, "categories": [{"alias": "mexican", "title": "Mexican"}, {"alias": "breakfast_brunch", "title": "Breakfast & Brunch"}, {"alias": "catering", "title": "Caterers"}], "rating": 4.5, "coordinates": {"latitude": 40.71645, "longitude": -74.00783}, "transactions": ["pickup", "delivery"], "location": {"address1": "139 Duane St", "address2": "", "address3": null, "city": "New York", "zip_code": "10013", "country": "US", "state": "NY", "display_address": ["139 Duane St", "New York, NY 10013"]}, "phone": "+19172616950", "display_phone": "(917) 261-6950", "distance": 5723.298616199572}, {"id": "al9HKZ3kCJipAJW4uxzj4A", "alias": "havana-central-new-york-6", "name": "Havana Central", "image_url": "https://s3-media2.fl.yelpcdn.com/bphoto/T7_bFqPy3C3abaHQgcg2dQ/o.jpg", "is_closed": false, "url": "https://www.yelp.com/biz/havana-central-new-york-6?adjust_creative=9gNmiWYX8uTbFBeTTvJMdA&utm_campaign=yelp_api_v3&utm_medium=api_v3_business_search&utm_source=9gNmiWYX8uTbFBeTTvJMdA", "review_count": 2767, "categories": [{"alias": "cuban", "title": "Cuban"}, {"alias": "latin", "title": "Latin American"}, {"alias": "wine_bars", "title": "Wine Bars"}], "rating": 4.0, "coordinates": {"latitude": 40.75833809808108, "longitude": -73.98409870613455}, "transactions": ["pickup", "delivery", "restaurant_reservation"], "price": "$$", "location": {"address1": "151 W 46th St", "address2": null, "address3": "", "city": "New York", "zip_code": "10036", "country": "US", "state": "NY", "display_address": ["151 W 46th St", "New York, NY 10036"]}, "phone": "+12123987440", "display_phone": "(212) 398-7440", "distance": 1226.894721517001}, {"id": "uLWp1QR_W2WJImMnB706hg", "alias": "mexicue-new-york-10", "name": "MEXiCUE", "image_url": "https://s3-media2.fl.yelpcdn.com/bphoto/Lsm_gzO-bC76babsSTbrIw/o.jpg", "is_closed": false, "url": "https://www.yelp.com/biz/mexicue-new-york-10?adjust_creative=9gNmiWYX8uTbFBeTTvJMdA&utm_campaign=yelp_api_v3&utm_medium=api_v3_business_search&utm_source=9gNmiWYX8uTbFBeTTvJMdA", "review_count": 566, "categories": [{"alias": "mexican", "title": "Mexican"}], "rating": 4.0, "coordinates": {"latitude": 40.74202, "longitude": -74.00046}, "transactions": ["pickup", "delivery"], "price": "$$", "location": {"address1": "160 8th Ave", "address2": "", "address3": null, "city": "New York", "zip_code": "10011", "country": "US", "state": "NY", "display_address": ["160 8th Ave", "New York, NY 10011"]}, "phone": "+13322627100", "display_phone": "(332) 262-7100", "distance": 3225.934117699298}, {"id": "pG-IkylRFOb-HlaD8NwvvQ", "alias": "la-loteria-new-york", "name": "La Loteria", "image_url": "https://s3-media4.fl.yelpcdn.com/bphoto/hKYg_f6CMxekd-QsJUGJlg/o.jpg", "is_closed": false, "url": "https://www.yelp.com/biz/la-loteria-new-york?adjust_creative=9gNmiWYX8uTbFBeTTvJMdA&utm_campaign=yelp_api_v3&utm_medium=api_v3_business_search&utm_source=9gNmiWYX8uTbFBeTTvJMdA", "review_count": 359, "categories": [{"alias": "mexican", "title": "Mexican"}], "rating": 4.0, "coordinates": {"latitude": 40.7307865530978, "longitude": -74.0041882564488}, "transactions": ["pickup", "delivery"], "price": "$$", "location": {"address1": "29 7th Ave S", "address2": "", "address3": "", "city": "New York", "zip_code": "10014", "country": "US", "state": "NY", "display_address": ["29 7th Ave S", "New York, NY 10014"]}, "phone": "+12128589096", "display_phone": "(212) 858-9096", "distance": 4297.379302316613}, {"id": "uwDuBWMQcRmdyBpnK0LkTg", "alias": "ritas-new-york-3", "name": "\u2018ritas", "image_url": "https://s3-media4.fl.yelpcdn.com/bphoto/4N625iS0m2h_-ySjT6lCug/o.jpg", "is_closed": false, "url": "https://www.yelp.com/biz/ritas-new-york-3?adjust_creative=9gNmiWYX8uTbFBeTTvJMdA&utm_campaign=yelp_api_v3&utm_medium=api_v3_business_search&utm_source=9gNmiWYX8uTbFBeTTvJMdA", "review_count": 59, "categories": [{"alias": "mexican", "title": "Mexican"}], "rating": 4.0, "coordinates": {"latitude": 40.7633331939511, "longitude": -73.9887996051015}, "transactions": [], "price": "$$", "location": {"address1": "756 9th Ave", "address2": "", "address3": null, "city": "New York", "zip_code": "10019", "country": "US", "state": "NY", "display_address": ["756 9th Ave", "New York, NY 10019"]}, "phone": "", "display_phone": "", "distance": 1683.9705484113072}, {"id": "U6l20gH8YuOJMO8vF6_Ufw", "alias": "jajaja-mexicana-new-york", "name": "Jajaja Mexicana", "image_url": "https://s3-media4.fl.yelpcdn.com/bphoto/twcGRQbGhxSJ6vgV75iVyA/o.jpg", "is_closed": false, "url": "https://www.yelp.com/biz/jajaja-mexicana-new-york?adjust_creative=9gNmiWYX8uTbFBeTTvJMdA&utm_campaign=yelp_api_v3&utm_medium=api_v3_business_search&utm_source=9gNmiWYX8uTbFBeTTvJMdA", "review_count": 52, "categories": [{"alias": "mexican", "title": "Mexican"}, {"alias": "bars", "title": "Bars"}], "rating": 4.5, "coordinates": {"latitude": 40.75264793272132, "longitude": -73.99981519174997}, "transactions": ["pickup", "delivery"], "location": {"address1": "450 W 33rd St", "address2": null, "address3": "Whole Foods", "city": "New York", "zip_code": "10001", "country": "US", "state": "NY", "display_address": ["450 W 33rd St", "Whole Foods", "New York, NY 10001"]}, "phone": "+19177228419", "display_phone": "(917) 722-8419", "distance": 2648.5827558301385}, {"id": "RzKR9QcYP03EQ_8DxTxowg", "alias": "barrio-chino-new-york", "name": "Barrio Chino", "image_url": "https://s3-media2.fl.yelpcdn.com/bphoto/dpaRqPZD6xqDZo2ZfOyjnQ/o.jpg", "is_closed": false, "url": "https://www.yelp.com/biz/barrio-chino-new-york?adjust_creative=9gNmiWYX8uTbFBeTTvJMdA&utm_campaign=yelp_api_v3&utm_medium=api_v3_business_search&utm_source=9gNmiWYX8uTbFBeTTvJMdA", "review_count": 1176, "categories": [{"alias": "mexican", "title": "Mexican"}, {"alias": "bars", "title": "Bars"}], "rating": 4.0, "coordinates": {"latitude": 40.718022, "longitude": -73.990026}, "transactions": ["pickup", "delivery"], "price": "$$", "location": {"address1": "253 Broome St", "address2": null, "address3": "", "city": "New York", "zip_code": "10002", "country": "US", "state": "NY", "display_address": ["253 Broome St", "New York, NY 10002"]}, "phone": "+12122286710", "display_phone": "(212) 228-6710", "distance": 4889.643324553119}, {"id": "2u8T56A4qu-MjeuT-v7s_g", "alias": "casa-bocado-new-york", "name": "Casa Bocado", "image_url": "https://s3-media4.fl.yelpcdn.com/bphoto/thbAd8B1eNMZRevISbQiVw/o.jpg", "is_closed": false, "url": "https://www.yelp.com/biz/casa-bocado-new-york?adjust_creative=9gNmiWYX8uTbFBeTTvJMdA&utm_campaign=yelp_api_v3&utm_medium=api_v3_business_search&utm_source=9gNmiWYX8uTbFBeTTvJMdA", "review_count": 120, "categories": [{"alias": "mexican", "title": "Mexican"}, {"alias": "latin", "title": "Latin American"}, {"alias": "cocktailbars", "title": "Cocktail Bars"}], "rating": 4.5, "coordinates": {"latitude": 40.71958, "longitude": -73.99484}, "transactions": ["delivery"], "location": {"address1": "341 Broome St", "address2": null, "address3": "", "city": "New York", "zip_code": "10013", "country": "US", "state": "NY", "display_address": ["341 Broome St", "New York, NY 10013"]}, "phone": "+12122047502", "display_phone": "(212) 204-7502", "distance": 4896.722966350002}, {"id": "iPc-zPgcpgeSo76xl5Jbpw", "alias": "the-maze-new-york-3", "name": "The Maze", "image_url": "https://s3-media3.fl.yelpcdn.com/bphoto/dyXd62DqoVGnaOUxqM-lfQ/o.jpg", "is_closed": false, "url": "https://www.yelp.com/biz/the-maze-new-york-3?adjust_creative=9gNmiWYX8uTbFBeTTvJMdA&utm_campaign=yelp_api_v3&utm_medium=api_v3_business_search&utm_source=9gNmiWYX8uTbFBeTTvJMdA", "review_count": 676, "categories": [{"alias": "korean", "title": "Korean"}, {"alias": "cocktailbars", "title": "Cocktail Bars"}, {"alias": "mexican", "title": "Mexican"}], "rating": 4.0, "coordinates": {"latitude": 40.747846, "longitude": -73.9872499}, "transactions": ["pickup", "delivery"], "price": "$$", "location": {"address1": "32 W 32nd St", "address2": "Fl 3", "address3": "", "city": "New York", "zip_code": "10001", "country": "US", "state": "NY", "display_address": ["32 W 32nd St", "Fl 3", "New York, NY 10001"]}, "phone": "+16469187519", "display_phone": "(646) 918-7519", "distance": 1950.2899157907066}, {"id": "YsDmYRzJo3kiwZvIe1r0Fg", "alias": "playa-betty-s-new-york", "name": "Playa Betty\u2019s", "image_url": "https://s3-media4.fl.yelpcdn.com/bphoto/dFopr6MlpEAUcGf362zLdA/o.jpg", "is_closed": false, "url": "https://www.yelp.com/biz/playa-betty-s-new-york?adjust_creative=9gNmiWYX8uTbFBeTTvJMdA&utm_campaign=yelp_api_v3&utm_medium=api_v3_business_search&utm_source=9gNmiWYX8uTbFBeTTvJMdA", "review_count": 956, "categories": [{"alias": "mexican", "title": "Mexican"}, {"alias": "tradamerican", "title": "American (Traditional)"}, {"alias": "bars", "title": "Bars"}], "rating": 3.5, "coordinates": {"latitude": 40.78075, "longitude": -73.98032}, "transactions": ["pickup", "delivery"], "price": "$$", "location": {"address1": "320 Amsterdam Ave", "address2": "", "address3": "", "city": "New York", "zip_code": "10023", "country": "US", "state": "NY", "display_address": ["320 Amsterdam Ave", "New York, NY 10023"]}, "phone": "+12127120777", "display_phone": "(212) 712-0777", "distance": 2578.9099994824173}, {"id": "skN-mgnOezFQr9YNh5G5TQ", "alias": "lolitas-kitchen-new-york", "name": "Lolita's Kitchen", "image_url": "https://s3-media1.fl.yelpcdn.com/bphoto/D9LOW5MsId59pGuEBqvk3Q/o.jpg", "is_closed": false, "url": "https://www.yelp.com/biz/lolitas-kitchen-new-york?adjust_creative=9gNmiWYX8uTbFBeTTvJMdA&utm_campaign=yelp_api_v3&utm_medium=api_v3_business_search&utm_source=9gNmiWYX8uTbFBeTTvJMdA", "review_count": 135, "categories": [{"alias": "mexican", "title": "Mexican"}, {"alias": "burgers", "title": "Burgers"}], "rating": 4.0, "coordinates": {"latitude": 40.7824207446896, "longitude": -73.9534502033954}, "transactions": ["pickup", "delivery"], "price": "$", "location": {"address1": "1364 Lexington Ave", "address2": "", "address3": "", "city": "New York", "zip_code": "10128", "country": "US", "state": "NY", "display_address": ["1364 Lexington Ave", "New York, NY 10128"]}, "phone": "+12127225055", "display_phone": "(212) 722-5055", "distance": 2919.7612824599705}, {"id": "KDpFAWkLofuabBSpnNJY5A", "alias": "amor-loco-new-york", "name": "Amor Loco", "image_url": "https://s3-media1.fl.yelpcdn.com/bphoto/y27Dx0BogO9DIV9IzcS4AQ/o.jpg", "is_closed": false, "url": "https://www.yelp.com/biz/amor-loco-new-york?adjust_creative=9gNmiWYX8uTbFBeTTvJMdA&utm_campaign=yelp_api_v3&utm_medium=api_v3_business_search&utm_source=9gNmiWYX8uTbFBeTTvJMdA", "review_count": 89, "categories": [{"alias": "mexican", "title": "Mexican"}], "rating": 4.0, "coordinates": {"latitude": 40.75797140479767, "longitude": -73.98387478465575}, "transactions": ["pickup", "delivery"], "price": "$$", "location": {"address1": "134 W 46th St", "address2": "", "address3": null, "city": "New York", "zip_code": "10036", "country": "US", "state": "NY", "display_address": ["134 W 46th St", "New York, NY 10036"]}, "phone": "+19172615650", "display_phone": "(917) 261-5650", "distance": 1211.9149014817908}, {"id": "ddFY9PpygYagv7-jVduB2Q", "alias": "counter-and-bodega-new-york", "name": "Counter & Bodega", "image_url": "https://s3-media2.fl.yelpcdn.com/bphoto/yvInEb10rrUWLXvRrOszBw/o.jpg", "is_closed": false, "url": "https://www.yelp.com/biz/counter-and-bodega-new-york?adjust_creative=9gNmiWYX8uTbFBeTTvJMdA&utm_campaign=yelp_api_v3&utm_medium=api_v3_business_search&utm_source=9gNmiWYX8uTbFBeTTvJMdA", "review_count": 232, "categories": [{"alias": "latin", "title": "Latin American"}, {"alias": "tapasmallplates", "title": "Tapas/Small Plates"}, {"alias": "puertorican", "title": "Puerto Rican"}], "rating": 4.0, "coordinates": {"latitude": 40.743833, "longitude": -73.996231}, "transactions": ["pickup", "delivery"], "price": "$$", "location": {"address1": "216 7th Ave", "address2": null, "address3": null, "city": "New York", "zip_code": "10011", "country": "US", "state": "NY", "display_address": ["216 7th Ave", "New York, NY 10011"]}, "phone": "+16468700785", "display_phone": "(646) 870-0785", "distance": 2823.553806330301}, {"id": "hKkPlYmHoS9Nb_UbGGqx8A", "alias": "street-taco-new-york", "name": "Street Taco", "image_url": "https://s3-media2.fl.yelpcdn.com/bphoto/lIGbCOAX39pz3PIM_FfM4w/o.jpg", "is_closed": false, "url": "https://www.yelp.com/biz/street-taco-new-york?adjust_creative=9gNmiWYX8uTbFBeTTvJMdA&utm_campaign=yelp_api_v3&utm_medium=api_v3_business_search&utm_source=9gNmiWYX8uTbFBeTTvJMdA", "review_count": 485, "categories": [{"alias": "cocktailbars", "title": "Cocktail Bars"}, {"alias": "tacos", "title": "Tacos"}, {"alias": "beerbar", "title": "Beer Bar"}], "rating": 4.0, "coordinates": {"latitude": 40.74097, "longitude": -73.98202}, "transactions": ["pickup", "delivery"], "price": "$$", "location": {"address1": "358 3rd Ave", "address2": "", "address3": null, "city": "New York", "zip_code": "10016", "country": "US", "state": "NY", "display_address": ["358 3rd Ave", "New York, NY 10016"]}, "phone": "+16467915413", "display_phone": "(646) 791-5413", "distance": 2279.658923879325}, {"id": "ueL0t_7Yu_ev2RrWK9dgDA", "alias": "tacombi-empire-state-building-new-york", "name": "Tacombi", "image_url": "https://s3-media2.fl.yelpcdn.com/bphoto/7qRweNQ2bHiaikSelTNcgw/o.jpg", "is_closed": false, "url": "https://www.yelp.com/biz/tacombi-empire-state-building-new-york?adjust_creative=9gNmiWYX8uTbFBeTTvJMdA&utm_campaign=yelp_api_v3&utm_medium=api_v3_business_search&utm_source=9gNmiWYX8uTbFBeTTvJMdA", "review_count": 260, "categories": [{"alias": "mexican", "title": "Mexican"}, {"alias": "cocktailbars", "title": "Cocktail Bars"}], "rating": 4.0, "coordinates": {"latitude": 40.74844037111226, "longitude": -73.98618609111018}, "transactions": ["pickup", "delivery"], "price": "$$", "location": {"address1": "23 W 33rd St", "address2": null, "address3": "", "city": "New York", "zip_code": "10001", "country": "US", "state": "NY", "display_address": ["23 W 33rd St", "New York, NY 10001"]}, "phone": "+12129675555", "display_phone": "(212) 967-5555", "distance": 1839.2035261669978}, {"id": "lL5DgsvOuiI8nMQcjK1bMA", "alias": "el-centro-cantina-new-york-3", "name": "El Centro Cantina", "image_url": "https://s3-media3.fl.yelpcdn.com/bphoto/1aWALbPm4ExiNzpsJVL0xA/o.jpg", "is_closed": false, "url": "https://www.yelp.com/biz/el-centro-cantina-new-york-3?adjust_creative=9gNmiWYX8uTbFBeTTvJMdA&utm_campaign=yelp_api_v3&utm_medium=api_v3_business_search&utm_source=9gNmiWYX8uTbFBeTTvJMdA", "review_count": 54, "categories": [{"alias": "tacos", "title": "Tacos"}, {"alias": "cocktailbars", "title": "Cocktail Bars"}], "rating": 4.0, "coordinates": {"latitude": 40.76593, "longitude": -73.98675}, "transactions": [], "location": {"address1": "359 W 54th St", "address2": "", "address3": null, "city": "New York", "zip_code": "10019", "country": "US", "state": "NY", "display_address": ["359 W 54th St", "New York, NY 10019"]}, "phone": "", "display_phone": "", "distance": 1629.9847877587322}, {"id": "10tnq8x2qI7ix7VqVP0rMw", "alias": "tacombi-upper-west-side-new-york", "name": "Tacombi", "image_url": "https://s3-media1.fl.yelpcdn.com/bphoto/PfAWdSvh7_2ERIELrwVK3Q/o.jpg", "is_closed": false, "url": "https://www.yelp.com/biz/tacombi-upper-west-side-new-york?adjust_creative=9gNmiWYX8uTbFBeTTvJMdA&utm_campaign=yelp_api_v3&utm_medium=api_v3_business_search&utm_source=9gNmiWYX8uTbFBeTTvJMdA", "review_count": 247, "categories": [{"alias": "tacos", "title": "Tacos"}], "rating": 4.0, "coordinates": {"latitude": 40.782610492988084, "longitude": -73.97844461874793}, "transactions": ["pickup", "delivery"], "price": "$$", "location": {"address1": "377 Amsterdam Ave", "address2": "", "address3": null, "city": "New York", "zip_code": "10024", "country": "US", "state": "NY", "display_address": ["377 Amsterdam Ave", "New York, NY 10024"]}, "phone": "+16468223383", "display_phone": "(646) 822-3383", "distance": 2710.8903516775113}, {"id": "6ptX8V8WW_IzhHXLJ4SRAA", "alias": "dos-toros-taqueria-new-york-22", "name": "Dos Toros Taqueria", "image_url": "https://s3-media2.fl.yelpcdn.com/bphoto/RRoXS-n1V9k76PUcA7_5oA/o.jpg", "is_closed": false, "url": "https://www.yelp.com/biz/dos-toros-taqueria-new-york-22?adjust_creative=9gNmiWYX8uTbFBeTTvJMdA&utm_campaign=yelp_api_v3&utm_medium=api_v3_business_search&utm_source=9gNmiWYX8uTbFBeTTvJMdA", "review_count": 202, "categories": [{"alias": "mexican", "title": "Mexican"}], "rating": 3.5, "coordinates": {"latitude": 40.75352, "longitude": -73.97418}, "transactions": ["pickup", "delivery"], "price": "$$", "location": {"address1": "465 Lexington Ave", "address2": "", "address3": "", "city": "New York", "zip_code": "10017", "country": "US", "state": "NY", "display_address": ["465 Lexington Ave", "New York, NY 10017"]}, "phone": "+13473943844", "display_phone": "(347) 394-3844", "distance": 738.075565107928}, {"id": "0ksKKrgHt-6xCCHfTlLcoA", "alias": "t\u00e1n-new-york", "name": "t\u00e1n", "image_url": "https://s3-media3.fl.yelpcdn.com/bphoto/zeRWPSKa6az9m4zlW9OrHA/o.jpg", "is_closed": false, "url": "https://www.yelp.com/biz/t%C3%A1n-new-york?adjust_creative=9gNmiWYX8uTbFBeTTvJMdA&utm_campaign=yelp_api_v3&utm_medium=api_v3_business_search&utm_source=9gNmiWYX8uTbFBeTTvJMdA", "review_count": 25, "categories": [{"alias": "latin", "title": "Latin American"}, {"alias": "mexican", "title": "Mexican"}], "rating": 4.0, "coordinates": {"latitude": 40.75502324994503, "longitude": -73.97048579999999}, "transactions": [], "location": {"address1": "209 E 49th St", "address2": null, "address3": "", "city": "New York", "zip_code": "10017", "country": "US", "state": "NY", "display_address": ["209 E 49th St", "New York, NY 10017"]}, "phone": "+19173882248", "display_phone": "(917) 388-2248", "distance": 467.96563522985986}, {"id": "zNcDCPiUsE5aT6jyaCVtmA", "alias": "frescos-cantina-long-island-city", "name": "Fresco's Cantina", "image_url": "https://s3-media3.fl.yelpcdn.com/bphoto/ULBZSvQH5riJuDUVZVF9Gw/o.jpg", "is_closed": false, "url": "https://www.yelp.com/biz/frescos-cantina-long-island-city?adjust_creative=9gNmiWYX8uTbFBeTTvJMdA&utm_campaign=yelp_api_v3&utm_medium=api_v3_business_search&utm_source=9gNmiWYX8uTbFBeTTvJMdA", "review_count": 289, "categories": [{"alias": "mexican", "title": "Mexican"}], "rating": 4.5, "coordinates": {"latitude": 40.76837, "longitude": -73.93303}, "transactions": ["pickup", "delivery"], "price": "$$", "location": {"address1": "12-14 31st Ave", "address2": null, "address3": "", "city": "Long Island City", "zip_code": "11106", "country": "US", "state": "NY", "display_address": ["12-14 31st Ave", "Long Island City, NY 11106"]}, "phone": "+13478087338", "display_phone": "(347) 808-7338", "distance": 3243.779266208116}, {"id": "jnEv25Y2DosTq2sNnvmC9g", "alias": "los-tacos-no-1-new-york", "name": "Los Tacos No.1", "image_url": "https://s3-media2.fl.yelpcdn.com/bphoto/FU44TYl3PzXsE06G4W5aog/o.jpg", "is_closed": false, "url": "https://www.yelp.com/biz/los-tacos-no-1-new-york?adjust_creative=9gNmiWYX8uTbFBeTTvJMdA&utm_campaign=yelp_api_v3&utm_medium=api_v3_business_search&utm_source=9gNmiWYX8uTbFBeTTvJMdA", "review_count": 3705, "categories": [{"alias": "tacos", "title": "Tacos"}], "rating": 4.5, "coordinates": {"latitude": 40.7422546402357, "longitude": -74.0059581}, "transactions": ["delivery"], "price": "$$", "location": {"address1": "75 9th Ave", "address2": "", "address3": "Chelsea Market", "city": "New York", "zip_code": "10011", "country": "US", "state": "NY", "display_address": ["75 9th Ave", "Chelsea Market", "New York, NY 10011"]}, "phone": "", "display_phone": "", "distance": 3596.270905006292}, {"id": "BbMUXd69i0tlWS2aoppwaQ", "alias": "el-camion-new-york", "name": "El Camion", "image_url": "https://s3-media3.fl.yelpcdn.com/bphoto/kpNpEnnU3f4lVhe1sk5YCg/o.jpg", "is_closed": false, "url": "https://www.yelp.com/biz/el-camion-new-york?adjust_creative=9gNmiWYX8uTbFBeTTvJMdA&utm_campaign=yelp_api_v3&utm_medium=api_v3_business_search&utm_source=9gNmiWYX8uTbFBeTTvJMdA", "review_count": 759, "categories": [{"alias": "mexican", "title": "Mexican"}], "rating": 4.0, "coordinates": {"latitude": 40.7291, "longitude": -73.98105}, "transactions": ["pickup", "delivery"], "price": "$$", "location": {"address1": "194 Ave A", "address2": "", "address3": "", "city": "New York", "zip_code": "10009", "country": "US", "state": "NY", "display_address": ["194 Ave A", "New York, NY 10009"]}, "phone": "+12125335436", "display_phone": "(212) 533-5436", "distance": 3479.2512675746866}, {"id": "anBWvFPOce4nl3qLX-H6Rg", "alias": "el-mero-mero-long-island-city", "name": "El Mero Mero", "image_url": "https://s3-media1.fl.yelpcdn.com/bphoto/P4j6PS9k2Pp8uGLHoJ0P-Q/o.jpg", "is_closed": false, "url": "https://www.yelp.com/biz/el-mero-mero-long-island-city?adjust_creative=9gNmiWYX8uTbFBeTTvJMdA&utm_campaign=yelp_api_v3&utm_medium=api_v3_business_search&utm_source=9gNmiWYX8uTbFBeTTvJMdA", "review_count": 128, "categories": [{"alias": "mexican", "title": "Mexican"}], "rating": 4.5, "coordinates": {"latitude": 40.753834323302, "longitude": -73.923701159656}, "transactions": ["pickup", "delivery"], "price": "$$", "location": {"address1": "35-57 38th St", "address2": "", "address3": null, "city": "Long Island City", "zip_code": "11101", "country": "US", "state": "NY", "display_address": ["35-57 38th St", "Long Island City, NY 11101"]}, "phone": "+17183922444", "display_phone": "(718) 392-2444", "distance": 3909.1888893212854}, {"id": "Zk8UgB9MDoIHWFYgAxNlIQ", "alias": "de-mole-brooklyn", "name": "De Mole", "image_url": "https://s3-media1.fl.yelpcdn.com/bphoto/pkungMeCPUImTcI3Sy4Q9w/o.jpg", "is_closed": false, "url": "https://www.yelp.com/biz/de-mole-brooklyn?adjust_creative=9gNmiWYX8uTbFBeTTvJMdA&utm_campaign=yelp_api_v3&utm_medium=api_v3_business_search&utm_source=9gNmiWYX8uTbFBeTTvJMdA", "review_count": 240, "categories": [{"alias": "mexican", "title": "Mexican"}, {"alias": "breakfast_brunch", "title": "Breakfast & Brunch"}, {"alias": "cocktailbars", "title": "Cocktail Bars"}], "rating": 4.5, "coordinates": {"latitude": 40.71377, "longitude": -73.95786}, "transactions": ["pickup", "delivery"], "location": {"address1": "2 Hope St", "address2": "", "address3": null, "city": "Brooklyn", "zip_code": "11211", "country": "US", "state": "NY", "display_address": ["2 Hope St", "Brooklyn, NY 11211"]}, "phone": "+13477213399", "display_phone": "(347) 721-3399", "distance": 5143.503438437828}, {"id": "E_oFzRY-7j9T04qHkORCsw", "alias": "santa-fe-new-york-3", "name": "Santa Fe", "image_url": "https://s3-media4.fl.yelpcdn.com/bphoto/uWbQlDW1_P_7e-lnPIudIA/o.jpg", "is_closed": false, "url": "https://www.yelp.com/biz/santa-fe-new-york-3?adjust_creative=9gNmiWYX8uTbFBeTTvJMdA&utm_campaign=yelp_api_v3&utm_medium=api_v3_business_search&utm_source=9gNmiWYX8uTbFBeTTvJMdA", "review_count": 210, "categories": [{"alias": "mexican", "title": "Mexican"}, {"alias": "seafood", "title": "Seafood"}, {"alias": "breakfast_brunch", "title": "Breakfast & Brunch"}], "rating": 3.5, "coordinates": {"latitude": 40.7767563, "longitude": -73.9789734}, "transactions": ["pickup", "delivery"], "price": "$$", "location": {"address1": "73 W 71st St", "address2": "", "address3": "", "city": "New York", "zip_code": "10023", "country": "US", "state": "NY", "display_address": ["73 W 71st St", "New York, NY 10023"]}, "phone": "+12127240822", "display_phone": "(212) 724-0822", "distance": 2107.675181214408}, {"id": "e7krRmyE5upHv2gsEOdR8w", "alias": "mayamezcal-new-york-2", "name": "Mayamezcal", "image_url": "https://s3-media2.fl.yelpcdn.com/bphoto/ZhK-BWuY-xhaf95bEfuWzg/o.jpg", "is_closed": false, "url": "https://www.yelp.com/biz/mayamezcal-new-york-2?adjust_creative=9gNmiWYX8uTbFBeTTvJMdA&utm_campaign=yelp_api_v3&utm_medium=api_v3_business_search&utm_source=9gNmiWYX8uTbFBeTTvJMdA", "review_count": 618, "categories": [{"alias": "mexican", "title": "Mexican"}, {"alias": "cocktailbars", "title": "Cocktail Bars"}], "rating": 4.0, "coordinates": {"latitude": 40.72711, "longitude": -73.98817}, "transactions": ["pickup", "delivery"], "price": "$$", "location": {"address1": "304 E 6th St", "address2": "", "address3": "", "city": "New York", "zip_code": "10003", "country": "US", "state": "NY", "display_address": ["304 E 6th St", "New York, NY 10003"]}, "phone": "+12122535888", "display_phone": "(212) 253-5888", "distance": 3893.107155164379}, {"id": "V9jFJfuK3FzWCJGoY15EgQ", "alias": "blue-maiz-new-york", "name": "Blue Maiz", "image_url": "https://s3-media1.fl.yelpcdn.com/bphoto/Xy6O19O0_7AP_bTWO2jWYw/o.jpg", "is_closed": false, "url": "https://www.yelp.com/biz/blue-maiz-new-york?adjust_creative=9gNmiWYX8uTbFBeTTvJMdA&utm_campaign=yelp_api_v3&utm_medium=api_v3_business_search&utm_source=9gNmiWYX8uTbFBeTTvJMdA", "review_count": 291, "categories": [{"alias": "mexican", "title": "Mexican"}], "rating": 4.0, "coordinates": {"latitude": 40.75541701110701, "longitude": -73.99069692538708}, "transactions": ["pickup", "delivery"], "price": "$$", "location": {"address1": "606 8th Ave", "address2": "", "address3": null, "city": "New York", "zip_code": "10018", "country": "US", "state": "NY", "display_address": ["606 8th Ave", "New York, NY 10018"]}, "phone": "+12127042106", "display_phone": "(212) 704-2106", "distance": 1827.5512395626433}, {"id": "jUI2Mf4hUFPzhQGmPCL4aA", "alias": "amigo-by-nai-new-york-5", "name": "Amigo by Nai", "image_url": "https://s3-media2.fl.yelpcdn.com/bphoto/PtZz4vt0z9PR3u0_n_AU-g/o.jpg", "is_closed": false, "url": "https://www.yelp.com/biz/amigo-by-nai-new-york-5?adjust_creative=9gNmiWYX8uTbFBeTTvJMdA&utm_campaign=yelp_api_v3&utm_medium=api_v3_business_search&utm_source=9gNmiWYX8uTbFBeTTvJMdA", "review_count": 96, "categories": [{"alias": "mexican", "title": "Mexican"}], "rating": 4.5, "coordinates": {"latitude": 40.724686, "longitude": -73.99086}, "transactions": ["pickup", "delivery"], "location": {"address1": "29 2nd Ave", "address2": "", "address3": null, "city": "New York", "zip_code": "10003", "country": "US", "state": "NY", "display_address": ["29 2nd Ave", "New York, NY 10003"]}, "phone": "+12126771030", "display_phone": "(212) 677-1030", "distance": 4233.257049121998}, {"id": "VzdToJAHuLY07TlXZTdIwA", "alias": "tito-murphys-new-york", "name": "Tito Murphy's", "image_url": "https://s3-media3.fl.yelpcdn.com/bphoto/wMbWEGm0n5zT6jVqOdWkyQ/o.jpg", "is_closed": false, "url": "https://www.yelp.com/biz/tito-murphys-new-york?adjust_creative=9gNmiWYX8uTbFBeTTvJMdA&utm_campaign=yelp_api_v3&utm_medium=api_v3_business_search&utm_source=9gNmiWYX8uTbFBeTTvJMdA", "review_count": 223, "categories": [{"alias": "mexican", "title": "Mexican"}, {"alias": "latin", "title": "Latin American"}, {"alias": "newmexican", "title": "New Mexican Cuisine"}], "rating": 4.0, "coordinates": {"latitude": 40.76034, "longitude": -73.989743}, "transactions": ["pickup", "delivery"], "price": "$$", "location": {"address1": "346 W 46th St", "address2": "", "address3": null, "city": "New York", "zip_code": "10036", "country": "US", "state": "NY", "display_address": ["346 W 46th St", "New York, NY 10036"]}, "phone": "+12122452030", "display_phone": "(212) 245-2030", "distance": 1706.2160975569607}, {"id": "tuP7STBjszTvKcQLeFMnkw", "alias": "ninas-great-burrito-bar-new-york", "name": "Nina's Great Burrito Bar", "image_url": "https://s3-media2.fl.yelpcdn.com/bphoto/CPZGBhaM_pEdXrQeCrS5uQ/o.jpg", "is_closed": false, "url": "https://www.yelp.com/biz/ninas-great-burrito-bar-new-york?adjust_creative=9gNmiWYX8uTbFBeTTvJMdA&utm_campaign=yelp_api_v3&utm_medium=api_v3_business_search&utm_source=9gNmiWYX8uTbFBeTTvJMdA", "review_count": 388, "categories": [{"alias": "mexican", "title": "Mexican"}, {"alias": "comfortfood", "title": "Comfort Food"}], "rating": 4.0, "coordinates": {"latitude": 40.786026, "longitude": -73.972724}, "transactions": ["pickup", "delivery"], "price": "$$", "location": {"address1": "522 Columbus Ave", "address2": "", "address3": "", "city": "New York", "zip_code": "10024", "country": "US", "state": "NY", "display_address": ["522 Columbus Ave", "New York, NY 10024"]}, "phone": "+12127245151", "display_phone": "(212) 724-5151", "distance": 2999.368023647246}, {"id": "vyKBwzRdNX4yiJDIFv37iw", "alias": "oxomoco-brooklyn-2", "name": "Oxomoco", "image_url": "https://s3-media1.fl.yelpcdn.com/bphoto/cvDGC7PrvipFbpHgZMh-jA/o.jpg", "is_closed": false, "url": "https://www.yelp.com/biz/oxomoco-brooklyn-2?adjust_creative=9gNmiWYX8uTbFBeTTvJMdA&utm_campaign=yelp_api_v3&utm_medium=api_v3_business_search&utm_source=9gNmiWYX8uTbFBeTTvJMdA", "review_count": 553, "categories": [{"alias": "mexican", "title": "Mexican"}], "rating": 4.0, "coordinates": {"latitude": 40.7299099, "longitude": -73.95548}, "transactions": ["delivery"], "price": "$$$", "location": {"address1": "128 Greenpoint Ave", "address2": "", "address3": null, "city": "Brooklyn", "zip_code": "11222", "country": "US", "state": "NY", "display_address": ["128 Greenpoint Ave", "Brooklyn, NY 11222"]}, "phone": "+16466884180", "display_phone": "(646) 688-4180", "distance": 3473.03903048263}, {"id": "nrwOQSXoRXfAYhkdjiUk8g", "alias": "toro-loco-new-york", "name": "Toro Loco", "image_url": "https://s3-media3.fl.yelpcdn.com/bphoto/HIInjP1LKiYrAmcePDVIbw/o.jpg", "is_closed": false, "url": "https://www.yelp.com/biz/toro-loco-new-york?adjust_creative=9gNmiWYX8uTbFBeTTvJMdA&utm_campaign=yelp_api_v3&utm_medium=api_v3_business_search&utm_source=9gNmiWYX8uTbFBeTTvJMdA", "review_count": 428, "categories": [{"alias": "cocktailbars", "title": "Cocktail Bars"}, {"alias": "mexican", "title": "Mexican"}, {"alias": "breakfast_brunch", "title": "Breakfast & Brunch"}], "rating": 4.0, "coordinates": {"latitude": 40.70421, "longitude": -74.01208}, "transactions": ["pickup", "delivery"], "price": "$$", "location": {"address1": "15 Stone St", "address2": null, "address3": "", "city": "New York", "zip_code": "10004", "country": "US", "state": "NY", "display_address": ["15 Stone St", "New York, NY 10004"]}, "phone": "+19172620444", "display_phone": "(917) 262-0444", "distance": 7088.977349170016}, {"id": "PGpCaNkB1meojnbgRmb2gQ", "alias": "buena-vista-restaurant-and-bar-new-york", "name": "Buena Vista Restaurant & Bar", "image_url": "https://s3-media4.fl.yelpcdn.com/bphoto/Q6EmqDNWkbNACGxxKfwsPA/o.jpg", "is_closed": false, "url": "https://www.yelp.com/biz/buena-vista-restaurant-and-bar-new-york?adjust_creative=9gNmiWYX8uTbFBeTTvJMdA&utm_campaign=yelp_api_v3&utm_medium=api_v3_business_search&utm_source=9gNmiWYX8uTbFBeTTvJMdA", "review_count": 336, "categories": [{"alias": "latin", "title": "Latin American"}, {"alias": "seafood", "title": "Seafood"}, {"alias": "newamerican", "title": "American (New)"}], "rating": 4.5, "coordinates": {"latitude": 40.75686, "longitude": -73.99356}, "transactions": ["pickup", "delivery", "restaurant_reservation"], "price": "$$$", "location": {"address1": "536 9th Ave", "address2": "", "address3": null, "city": "New York", "zip_code": "10018", "country": "US", "state": "NY", "display_address": ["536 9th Ave", "New York, NY 10018"]}, "phone": "+12123885040", "display_phone": "(212) 388-5040", "distance": 2031.3582642497886}, {"id": "VIIfYEzIppjps0K_J_8zLg", "alias": "el-rio-grande-new-york", "name": "El Rio Grande", "image_url": "https://s3-media3.fl.yelpcdn.com/bphoto/_SazZ_ofxKYUGqwBXgJBhw/o.jpg", "is_closed": false, "url": "https://www.yelp.com/biz/el-rio-grande-new-york?adjust_creative=9gNmiWYX8uTbFBeTTvJMdA&utm_campaign=yelp_api_v3&utm_medium=api_v3_business_search&utm_source=9gNmiWYX8uTbFBeTTvJMdA", "review_count": 696, "categories": [{"alias": "mexican", "title": "Mexican"}, {"alias": "bars", "title": "Bars"}, {"alias": "tex-mex", "title": "Tex-Mex"}], "rating": 3.5, "coordinates": {"latitude": 40.74826, "longitude": -73.97669}, "transactions": ["pickup", "delivery"], "price": "$$", "location": {"address1": "160 E 38th St", "address2": "", "address3": "", "city": "New York", "zip_code": "10016", "country": "US", "state": "NY", "display_address": ["160 E 38th St", "New York, NY 10016"]}, "phone": "+12128670922", "display_phone": "(212) 867-0922", "distance": 1371.5887957898212}, {"id": "v8tuFxvNkKdZytWTn9BhMA", "alias": "fonda-chelsea-new-york-2", "name": "Fonda Chelsea", "image_url": "https://s3-media2.fl.yelpcdn.com/bphoto/mNyXXg9XcA-y_XpwBRKX3Q/o.jpg", "is_closed": false, "url": "https://www.yelp.com/biz/fonda-chelsea-new-york-2?adjust_creative=9gNmiWYX8uTbFBeTTvJMdA&utm_campaign=yelp_api_v3&utm_medium=api_v3_business_search&utm_source=9gNmiWYX8uTbFBeTTvJMdA", "review_count": 426, "categories": [{"alias": "mexican", "title": "Mexican"}, {"alias": "cocktailbars", "title": "Cocktail Bars"}], "rating": 3.5, "coordinates": {"latitude": 40.7455185879981, "longitude": -74.0021848849335}, "transactions": ["pickup", "delivery"], "price": "$$", "location": {"address1": "189 9th Ave", "address2": "", "address3": "", "city": "New York", "zip_code": "10011", "country": "US", "state": "NY", "display_address": ["189 9th Ave", "New York, NY 10011"]}, "phone": "+19175255252", "display_phone": "(917) 525-5252", "distance": 3138.7237312301436}, {"id": "hR1bG0jgd2_Z9Q5L6siTEw", "alias": "antojito-mexicano-new-york", "name": "Antojito Mexicano", "image_url": "https://s3-media2.fl.yelpcdn.com/bphoto/BY0gbwrE4zeUnkFvQPnlwA/o.jpg", "is_closed": false, "url": "https://www.yelp.com/biz/antojito-mexicano-new-york?adjust_creative=9gNmiWYX8uTbFBeTTvJMdA&utm_campaign=yelp_api_v3&utm_medium=api_v3_business_search&utm_source=9gNmiWYX8uTbFBeTTvJMdA", "review_count": 37, "categories": [{"alias": "mexican", "title": "Mexican"}, {"alias": "foodstands", "title": "Food Stands"}], "rating": 4.5, "coordinates": {"latitude": 40.7460380678347, "longitude": -73.9905191880082}, "transactions": [], "price": "$", "location": {"address1": "6th Avenue & 28th Street", "address2": "", "address3": "", "city": "New York", "zip_code": "10001", "country": "US", "state": "NY", "display_address": ["6th Avenue & 28th Street", "New York, NY 10001"]}, "phone": "", "display_phone": "", "distance": 2290.2707038484377}, {"id": "NUdrJYB7GHRuwVVETSDIFQ", "alias": "top-quality-long-island-city-2", "name": "Top Quality", "image_url": "https://s3-media2.fl.yelpcdn.com/bphoto/ZRBtG0JrZxb_rNtZf6Yqgg/o.jpg", "is_closed": false, "url": "https://www.yelp.com/biz/top-quality-long-island-city-2?adjust_creative=9gNmiWYX8uTbFBeTTvJMdA&utm_campaign=yelp_api_v3&utm_medium=api_v3_business_search&utm_source=9gNmiWYX8uTbFBeTTvJMdA", "review_count": 155, "categories": [{"alias": "mexican", "title": "Mexican"}, {"alias": "cocktailbars", "title": "Cocktail Bars"}, {"alias": "venues", "title": "Venues & Event Spaces"}], "rating": 4.5, "coordinates": {"latitude": 40.74961, "longitude": -73.94994}, "transactions": ["pickup", "delivery"], "price": "$$", "location": {"address1": "10-29 44th Rd", "address2": null, "address3": "", "city": "Long Island City", "zip_code": "11101", "country": "US", "state": "NY", "display_address": ["10-29 44th Rd", "Long Island City, NY 11101"]}, "phone": "+17187868271", "display_phone": "(718) 786-8271", "distance": 1974.454186792741}, {"id": "ub2VfE7SRLJABAClzGZp3A", "alias": "tacombi-new-york-17", "name": "Tacombi", "image_url": "https://s3-media1.fl.yelpcdn.com/bphoto/KpC1h8QFhBFXJfENxuZ6ZQ/o.jpg", "is_closed": false, "url": "https://www.yelp.com/biz/tacombi-new-york-17?adjust_creative=9gNmiWYX8uTbFBeTTvJMdA&utm_campaign=yelp_api_v3&utm_medium=api_v3_business_search&utm_source=9gNmiWYX8uTbFBeTTvJMdA", "review_count": 769, "categories": [{"alias": "mexican", "title": "Mexican"}], "rating": 4.0, "coordinates": {"latitude": 40.7426928390848, "longitude": -73.9903668237837}, "transactions": ["pickup", "delivery"], "price": "$$", "location": {"address1": "30 W 24th St", "address2": "", "address3": "", "city": "New York", "zip_code": "10010", "country": "US", "state": "NY", "display_address": ["30 W 24th St", "New York, NY 10010"]}, "phone": "+12122423491", "display_phone": "(212) 242-3491", "distance": 2572.2261857999433}, {"id": "oNgT6-rh-2TOeAF16AxXVw", "alias": "tacos-and-tequila-new-york", "name": "Tacos & Tequila", "image_url": "https://s3-media3.fl.yelpcdn.com/bphoto/RS5Vrc73Sz1tQwSqa-4gQQ/o.jpg", "is_closed": false, "url": "https://www.yelp.com/biz/tacos-and-tequila-new-york?adjust_creative=9gNmiWYX8uTbFBeTTvJMdA&utm_campaign=yelp_api_v3&utm_medium=api_v3_business_search&utm_source=9gNmiWYX8uTbFBeTTvJMdA", "review_count": 57, "categories": [{"alias": "mexican", "title": "Mexican"}], "rating": 4.0, "coordinates": {"latitude": 40.78075, "longitude": -73.94942}, "transactions": ["pickup", "delivery"], "location": {"address1": "1742 2nd Ave", "address2": "", "address3": null, "city": "New York", "zip_code": "10128", "country": "US", "state": "NY", "display_address": ["1742 2nd Ave", "New York, NY 10128"]}, "phone": "+16464540029", "display_phone": "(646) 454-0029", "distance": 2941.991438604317}, {"id": "Q0SZ32fKVWA02NX8Wdql7w", "alias": "kux\u00e9-new-york", "name": "Kux\u00e9", "image_url": "https://s3-media1.fl.yelpcdn.com/bphoto/wdk5tNtPHzjU63iyciwwdQ/o.jpg", "is_closed": false, "url": "https://www.yelp.com/biz/kux%C3%A9-new-york?adjust_creative=9gNmiWYX8uTbFBeTTvJMdA&utm_campaign=yelp_api_v3&utm_medium=api_v3_business_search&utm_source=9gNmiWYX8uTbFBeTTvJMdA", "review_count": 129, "categories": [{"alias": "mexican", "title": "Mexican"}], "rating": 4.5, "coordinates": {"latitude": 40.72876, "longitude": -73.9995}, "transactions": ["delivery"], "location": {"address1": "205 Thompson St", "address2": null, "address3": "", "city": "New York", "zip_code": "10012", "country": "US", "state": "NY", "display_address": ["205 Thompson St", "New York, NY 10012"]}, "phone": "+12124200600", "display_phone": "(212) 420-0600", "distance": 4222.376643575258}, {"id": "JMSWqPJRkRJ0psgZColZ3g", "alias": "agave-new-york-6", "name": "Agave", "image_url": "https://s3-media3.fl.yelpcdn.com/bphoto/-WjMojgzUV2RUuWfSICLQw/o.jpg", "is_closed": false, "url": "https://www.yelp.com/biz/agave-new-york-6?adjust_creative=9gNmiWYX8uTbFBeTTvJMdA&utm_campaign=yelp_api_v3&utm_medium=api_v3_business_search&utm_source=9gNmiWYX8uTbFBeTTvJMdA", "review_count": 27, "categories": [{"alias": "mexican", "title": "Mexican"}], "rating": 3.0, "coordinates": {"latitude": 40.79131894783672, "longitude": -73.96882200427386}, "transactions": ["pickup", "delivery"], "location": {"address1": "688 Columbus Ave", "address2": "", "address3": null, "city": "New York", "zip_code": "10025", "country": "US", "state": "NY", "display_address": ["688 Columbus Ave", "New York, NY 10025"]}, "phone": "", "display_phone": "", "distance": 3574.8334452518343}, {"id": "6AJwsgXr7YwsqneGVAdgzw", "alias": "las-catrinas-mexican-bar-and-eatery-astoria", "name": "Las Catrinas Mexican Bar & Eatery", "image_url": "https://s3-media2.fl.yelpcdn.com/bphoto/IdeVcvGtxqk7dj0_l_3W3w/o.jpg", "is_closed": false, "url": "https://www.yelp.com/biz/las-catrinas-mexican-bar-and-eatery-astoria?adjust_creative=9gNmiWYX8uTbFBeTTvJMdA&utm_campaign=yelp_api_v3&utm_medium=api_v3_business_search&utm_source=9gNmiWYX8uTbFBeTTvJMdA", "review_count": 441, "categories": [{"alias": "cocktailbars", "title": "Cocktail Bars"}, {"alias": "tacos", "title": "Tacos"}], "rating": 4.0, "coordinates": {"latitude": 40.7614214682633, "longitude": -73.9246649456171}, "transactions": ["pickup", "delivery"], "price": "$$", "location": {"address1": "32-02 Broadway", "address2": "", "address3": null, "city": "Astoria", "zip_code": "11106", "country": "US", "state": "NY", "display_address": ["32-02 Broadway", "Astoria, NY 11106"]}, "phone": "+19177450969", "display_phone": "(917) 745-0969", "distance": 3790.6704556026666}, {"id": "NOh24SMS6k4pzNv8Ds7KDg", "alias": "cafe-habana-new-york-4", "name": "Cafe Habana", "image_url": "https://s3-media3.fl.yelpcdn.com/bphoto/cUHxmLdN0XyZi6AgvaMb3Q/o.jpg", "is_closed": false, "url": "https://www.yelp.com/biz/cafe-habana-new-york-4?adjust_creative=9gNmiWYX8uTbFBeTTvJMdA&utm_campaign=yelp_api_v3&utm_medium=api_v3_business_search&utm_source=9gNmiWYX8uTbFBeTTvJMdA", "review_count": 3291, "categories": [{"alias": "cuban", "title": "Cuban"}, {"alias": "mexican", "title": "Mexican"}], "rating": 4.0, "coordinates": {"latitude": 40.722998, "longitude": -73.994171}, "transactions": ["pickup", "delivery"], "price": "$$", "location": {"address1": "17 Prince St", "address2": "", "address3": "", "city": "New York", "zip_code": "10012", "country": "US", "state": "NY", "display_address": ["17 Prince St", "New York, NY 10012"]}, "phone": "+12126252001", "display_phone": "(212) 625-2001", "distance": 4525.0510509172445}, {"id": "sul_ihulQ5VUPNbk9liWqA", "alias": "cantina-rooftop-new-york-6", "name": "Cantina Rooftop", "image_url": "https://s3-media2.fl.yelpcdn.com/bphoto/px-1uOUna0dcdAVx9prILw/o.jpg", "is_closed": false, "url": "https://www.yelp.com/biz/cantina-rooftop-new-york-6?adjust_creative=9gNmiWYX8uTbFBeTTvJMdA&utm_campaign=yelp_api_v3&utm_medium=api_v3_business_search&utm_source=9gNmiWYX8uTbFBeTTvJMdA", "review_count": 1440, "categories": [{"alias": "lounges", "title": "Lounges"}, {"alias": "mexican", "title": "Mexican"}, {"alias": "cocktailbars", "title": "Cocktail Bars"}], "rating": 3.0, "coordinates": {"latitude": 40.76497439968185, "longitude": -73.99610715738004}, "transactions": ["restaurant_reservation", "pickup", "delivery"], "price": "$$", "location": {"address1": "605 W 48th St", "address2": "", "address3": "", "city": "New York", "zip_code": "10036", "country": "US", "state": "NY", "display_address": ["605 W 48th St", "New York, NY 10036"]}, "phone": "+12129571700", "display_phone": "(212) 957-1700", "distance": 2325.870584168235}, {"id": "1HPdyg0OLRkjHeixVmbu0Q", "alias": "cocina-del-sur-new-york-2", "name": "Cocina Del Sur", "image_url": "https://s3-media2.fl.yelpcdn.com/bphoto/zgSN_3E9vRjkYIaCfaDtBQ/o.jpg", "is_closed": false, "url": "https://www.yelp.com/biz/cocina-del-sur-new-york-2?adjust_creative=9gNmiWYX8uTbFBeTTvJMdA&utm_campaign=yelp_api_v3&utm_medium=api_v3_business_search&utm_source=9gNmiWYX8uTbFBeTTvJMdA", "review_count": 150, "categories": [{"alias": "latin", "title": "Latin American"}, {"alias": "catering", "title": "Caterers"}, {"alias": "salad", "title": "Salad"}], "rating": 4.0, "coordinates": {"latitude": 40.7515296936035, "longitude": -73.9846572875977}, "transactions": ["pickup", "delivery"], "price": "$$", "location": {"address1": "40 W 38th St", "address2": "", "address3": "", "city": "New York", "zip_code": "10018", "country": "US", "state": "NY", "display_address": ["40 W 38th St", "New York, NY 10018"]}, "phone": "+16462741995", "display_phone": "(646) 274-1995", "distance": 1532.2786197922228}, {"id": "SXWnyFNLCehVlJPRxk7gAg", "alias": "anejo-tribeca-new-york-3", "name": "Anejo Tribeca", "image_url": "https://s3-media1.fl.yelpcdn.com/bphoto/xq-FRMmNWBpcV-vjiJ2xhg/o.jpg", "is_closed": false, "url": "https://www.yelp.com/biz/anejo-tribeca-new-york-3?adjust_creative=9gNmiWYX8uTbFBeTTvJMdA&utm_campaign=yelp_api_v3&utm_medium=api_v3_business_search&utm_source=9gNmiWYX8uTbFBeTTvJMdA", "review_count": 639, "categories": [{"alias": "mexican", "title": "Mexican"}, {"alias": "tapasmallplates", "title": "Tapas/Small Plates"}, {"alias": "tapas", "title": "Tapas Bars"}], "rating": 4.0, "coordinates": {"latitude": 40.71931499731559, "longitude": -74.00427174111186}, "transactions": ["pickup", "delivery"], "price": "$$", "location": {"address1": "301 Church St", "address2": "", "address3": "", "city": "New York", "zip_code": "10013", "country": "US", "state": "NY", "display_address": ["301 Church St", "New York, NY 10013"]}, "phone": "+12129206270", "display_phone": "(212) 920-6270", "distance": 5309.436897128777}, {"id": "AgAkUVLN_axMY-bzbNCfCw", "alias": "yuca-bar-new-york", "name": "Yuca Bar", "image_url": "https://s3-media1.fl.yelpcdn.com/bphoto/t4zB5wPaoCpADtmsqKyBvg/o.jpg", "is_closed": false, "url": "https://www.yelp.com/biz/yuca-bar-new-york?adjust_creative=9gNmiWYX8uTbFBeTTvJMdA&utm_campaign=yelp_api_v3&utm_medium=api_v3_business_search&utm_source=9gNmiWYX8uTbFBeTTvJMdA", "review_count": 1960, "categories": [{"alias": "latin", "title": "Latin American"}, {"alias": "tapas", "title": "Tapas Bars"}, {"alias": "cocktailbars", "title": "Cocktail Bars"}], "rating": 4.0, "coordinates": {"latitude": 40.7262, "longitude": -73.9836}, "transactions": ["pickup", "delivery"], "price": "$$", "location": {"address1": "111 Avenue A", "address2": null, "address3": "", "city": "New York", "zip_code": "10009", "country": "US", "state": "NY", "display_address": ["111 Avenue A", "New York, NY 10009"]}, "phone": "+12129829533", "display_phone": "(212) 982-9533", "distance": 3842.949820993234}, {"id": "Ck09FempamAKGSPsV_bX-A", "alias": "xixa-brooklyn", "name": "Xixa", "image_url": "https://s3-media2.fl.yelpcdn.com/bphoto/7j7icctpnnVJ6mYtJZ8hrQ/o.jpg", "is_closed": false, "url": "https://www.yelp.com/biz/xixa-brooklyn?adjust_creative=9gNmiWYX8uTbFBeTTvJMdA&utm_campaign=yelp_api_v3&utm_medium=api_v3_business_search&utm_source=9gNmiWYX8uTbFBeTTvJMdA", "review_count": 665, "categories": [{"alias": "mexican", "title": "Mexican"}, {"alias": "tapasmallplates", "title": "Tapas/Small Plates"}, {"alias": "cocktailbars", "title": "Cocktail Bars"}], "rating": 4.5, "coordinates": {"latitude": 40.7104, "longitude": -73.95854}, "transactions": ["pickup", "delivery"], "price": "$$$", "location": {"address1": "241 S 4th St", "address2": "", "address3": "", "city": "Brooklyn", "zip_code": "11211", "country": "US", "state": "NY", "display_address": ["241 S 4th St", "Brooklyn, NY 11211"]}, "phone": "+17183888860", "display_phone": "(718) 388-8860", "distance": 5501.370880344592}, {"id": "WZynqsGjqQLc_T8R80_-7g", "alias": "yellow-rose-new-york", "name": "Yellow Rose", "image_url": "https://s3-media2.fl.yelpcdn.com/bphoto/n2l2ahO6ev2PoIIKWzOo4Q/o.jpg", "is_closed": false, "url": "https://www.yelp.com/biz/yellow-rose-new-york?adjust_creative=9gNmiWYX8uTbFBeTTvJMdA&utm_campaign=yelp_api_v3&utm_medium=api_v3_business_search&utm_source=9gNmiWYX8uTbFBeTTvJMdA", "review_count": 146, "categories": [{"alias": "tex-mex", "title": "Tex-Mex"}], "rating": 4.5, "coordinates": {"latitude": 40.732575, "longitude": -73.98806909999999}, "transactions": ["pickup", "delivery"], "location": {"address1": "102 3rd Ave", "address2": "", "address3": null, "city": "New York", "zip_code": "10003", "country": "US", "state": "NY", "display_address": ["102 3rd Ave", "New York, NY 10003"]}, "phone": "+12125298880", "display_phone": "(212) 529-8880", "distance": 3343.034560840669}], "total": 4800, "region": {"center": {"longitude": -73.96957397460938, "latitude": 40.75917470627005}}}