{"businesses": [{"id": "1JjFLti5GCWSisP7Uu-mZg", "alias": "the-garret-cocteler\u00eda-new-york", "name": "The Garret Cocteler\u00eda", "image_url": "https://s3-media2.fl.yelpcdn.com/bphoto/v3u2-kMd1V6IeEDDxf6VlQ/o.jpg", "is_closed": false, "url": "https://www.yelp.com/biz/the-garret-cocteler%C3%ADa-new-york?adjust_creative=9gNmiWYX8uTbFBeTTvJMdA&utm_campaign=yelp_api_v3&utm_medium=api_v3_business_search&utm_source=9gNmiWYX8uTbFBeTTvJMdA", "review_count": 33, "categories": [{"alias": "cocktailbars", "title": "Cocktail Bars"}, {"alias": "mexican", "title": "Mexican"}], "rating": 3.5, "coordinates": {"latitude": 40.71962877925535, "longitude": -73.99489320122247}, "transactions": [], "location": {"address1": "349 Broome St", "address2": "", "address3": null, "city": "New York", "zip_code": "10013", "country": "US", "state": "NY", "display_address": ["349 Broome St", "New York, NY 10013"]}, "phone": "", "display_phone": "", "distance": 4887.396504628596}, {"id": "jfNc9_Of6ojLl4DVG9QKCw", "alias": "san-pedro-inn-brooklyn-2", "name": "San Pedro Inn", "image_url": "https://s3-media2.fl.yelpcdn.com/bphoto/NxxTpmdc_vH2YwRZGcQiJw/o.jpg", "is_closed": false, "url": "https://www.yelp.com/biz/san-pedro-inn-brooklyn-2?adjust_creative=9gNmiWYX8uTbFBeTTvJMdA&utm_campaign=yelp_api_v3&utm_medium=api_v3_business_search&utm_source=9gNmiWYX8uTbFBeTTvJMdA", "review_count": 42, "categories": [{"alias": "tacos", "title": "Tacos"}, {"alias": "divebars", "title": "Dive Bars"}], "rating": 4.0, "coordinates": {"latitude": 40.67908, "longitude": -74.01106}, "transactions": ["delivery", "pickup"], "price": "$$", "location": {"address1": "320 Van Brunt St", "address2": "", "address3": null, "city": "Brooklyn", "zip_code": "11231", "country": "US", "state": "NY", "display_address": ["320 Van Brunt St", "Brooklyn, NY 11231"]}, "phone": "+17185763916", "display_phone": "(718) 576-3916", "distance": 9565.868890543135}, {"id": "w1TO4XzCVh-wESRRGQiiRw", "alias": "marthas-cocina-mexicana-brooklyn", "name": "Martha's Cocina Mexicana", "image_url": "https://s3-media1.fl.yelpcdn.com/bphoto/dGpr1qRFVxQOT487_1SF9A/o.jpg", "is_closed": false, "url": "https://www.yelp.com/biz/marthas-cocina-mexicana-brooklyn?adjust_creative=9gNmiWYX8uTbFBeTTvJMdA&utm_campaign=yelp_api_v3&utm_medium=api_v3_business_search&utm_source=9gNmiWYX8uTbFBeTTvJMdA", "review_count": 23, "categories": [{"alias": "mexican", "title": "Mexican"}], "rating": 4.5, "coordinates": {"latitude": 40.68753, "longitude": -73.95709}, "transactions": ["delivery", "pickup"], "location": {"address1": "338 Franklin Ave", "address2": null, "address3": "", "city": "Brooklyn", "zip_code": "11238", "country": "US", "state": "NY", "display_address": ["338 Franklin Ave", "Brooklyn, NY 11238"]}, "phone": "+13472405049", "display_phone": "(347) 240-5049", "distance": 8034.585921322377}, {"id": "R1mLakJBtmK-KETUuLaGaA", "alias": "rumba-cubana-jersey-city", "name": "Rumba Cubana", "image_url": "https://s3-media2.fl.yelpcdn.com/bphoto/Y5xkf3Q71TcBP_qBZ857BQ/o.jpg", "is_closed": false, "url": "https://www.yelp.com/biz/rumba-cubana-jersey-city?adjust_creative=9gNmiWYX8uTbFBeTTvJMdA&utm_campaign=yelp_api_v3&utm_medium=api_v3_business_search&utm_source=9gNmiWYX8uTbFBeTTvJMdA", "review_count": 491, "categories": [{"alias": "cuban", "title": "Cuban"}, {"alias": "bars", "title": "Bars"}, {"alias": "caribbean", "title": "Caribbean"}], "rating": 4.5, "coordinates": {"latitude": 40.727373308159954, "longitude": -74.04381749999845}, "transactions": ["delivery", "pickup"], "price": "$$", "location": {"address1": "235 Pavonia Ave", "address2": "", "address3": null, "city": "Jersey City", "zip_code": "07302", "country": "US", "state": "NJ", "display_address": ["235 Pavonia Ave", "Jersey City, NJ 07302"]}, "phone": "+12018784400", "display_phone": "(201) 878-4400", "distance": 7185.102543632181}, {"id": "U8JnmnLw8WhQ3GV4zD2Yow", "alias": "don-camote-astoria", "name": "Don Camote", "image_url": "https://s3-media2.fl.yelpcdn.com/bphoto/3qVKALaXcTu2mNWr0fCVxg/o.jpg", "is_closed": false, "url": "https://www.yelp.com/biz/don-camote-astoria?adjust_creative=9gNmiWYX8uTbFBeTTvJMdA&utm_campaign=yelp_api_v3&utm_medium=api_v3_business_search&utm_source=9gNmiWYX8uTbFBeTTvJMdA", "review_count": 7, "categories": [{"alias": "newmexican", "title": "New Mexican Cuisine"}, {"alias": "mexican", "title": "Mexican"}, {"alias": "cocktailbars", "title": "Cocktail Bars"}], "rating": 5.0, "coordinates": {"latitude": 40.76008778498142, "longitude": -73.920481}, "transactions": ["delivery", "pickup"], "location": {"address1": "31-86 37th Street", "address2": null, "address3": "", "city": "Astoria", "zip_code": "11103", "country": "US", "state": "NY", "display_address": ["31-86 37th Street", "Astoria, NY 11103"]}, "phone": "+13475310129", "display_phone": "(347) 531-0129", "distance": 4136.1063314758485}, {"id": "Xd_l7jtUAZZAAvK8-mI2Jw", "alias": "the-smith-new-york-7", "name": "The Smith", "image_url": "https://s3-media4.fl.yelpcdn.com/bphoto/eS9svu8acJUNcmHpGS5M6Q/o.jpg", "is_closed": false, "url": "https://www.yelp.com/biz/the-smith-new-york-7?adjust_creative=9gNmiWYX8uTbFBeTTvJMdA&utm_campaign=yelp_api_v3&utm_medium=api_v3_business_search&utm_source=9gNmiWYX8uTbFBeTTvJMdA", "review_count": 1303, "categories": [{"alias": "newamerican", "title": "American (New)"}, {"alias": "breakfast_brunch", "title": "Breakfast & Brunch"}, {"alias": "cocktailbars", "title": "Cocktail Bars"}], "rating": 4.0, "coordinates": {"latitude": 40.74424, "longitude": -73.98878}, "transactions": ["delivery", "pickup"], "price": "$$$", "location": {"address1": "1150 Broadway", "address2": "", "address3": "", "city": "New York", "zip_code": "10010", "country": "US", "state": "NY", "display_address": ["1150 Broadway", "New York, NY 10010"]}, "phone": "+12126854500", "display_phone": "(212) 685-4500", "distance": 2308.226391566876}, {"id": "XmogJstBXGY35Y3yjlI9yA", "alias": "la-cafe-new-york-2", "name": "La Cafe", "image_url": "", "is_closed": false, "url": "https://www.yelp.com/biz/la-cafe-new-york-2?adjust_creative=9gNmiWYX8uTbFBeTTvJMdA&utm_campaign=yelp_api_v3&utm_medium=api_v3_business_search&utm_source=9gNmiWYX8uTbFBeTTvJMdA", "review_count": 1, "categories": [{"alias": "mexican", "title": "Mexican"}], "rating": 4.0, "coordinates": {"latitude": 40.7560043334961, "longitude": -73.9803085327148}, "transactions": [], "location": {"address1": "17 W 45th St", "address2": "", "address3": "", "city": "New York", "zip_code": "10036", "country": "US", "state": "NY", "display_address": ["17 W 45th St", "New York, NY 10036"]}, "phone": "+12128406116", "display_phone": "(212) 840-6116", "distance": 973.4643293342617}, {"id": "buZ1-T3rdV_1d5gHreJD6w", "alias": "sullivan-taqueria-new-york", "name": "Sullivan Taqueria", "image_url": "https://s3-media2.fl.yelpcdn.com/bphoto/1jTWGGfhDaepaT1JD5WECg/o.jpg", "is_closed": false, "url": "https://www.yelp.com/biz/sullivan-taqueria-new-york?adjust_creative=9gNmiWYX8uTbFBeTTvJMdA&utm_campaign=yelp_api_v3&utm_medium=api_v3_business_search&utm_source=9gNmiWYX8uTbFBeTTvJMdA", "review_count": 24, "categories": [{"alias": "tacos", "title": "Tacos"}], "rating": 4.5, "coordinates": {"latitude": 40.72447, "longitude": -74.0039}, "transactions": ["delivery", "pickup"], "location": {"address1": "71 Sullivan St", "address2": "", "address3": null, "city": "New York", "zip_code": "10012", "country": "US", "state": "NY", "display_address": ["71 Sullivan St", "New York, NY 10012"]}, "phone": "+16467070077", "display_phone": "(646) 707-0077", "distance": 4822.003812105578}, {"id": "4kzfGf1O4bBP76LAo2VOjg", "alias": "tamale-cart-brooklyn-2", "name": "Tamale Cart", "image_url": "https://s3-media4.fl.yelpcdn.com/bphoto/64CZXokHD_p6JnXXOGmFOw/o.jpg", "is_closed": false, "url": "https://www.yelp.com/biz/tamale-cart-brooklyn-2?adjust_creative=9gNmiWYX8uTbFBeTTvJMdA&utm_campaign=yelp_api_v3&utm_medium=api_v3_business_search&utm_source=9gNmiWYX8uTbFBeTTvJMdA", "review_count": 2, "categories": [{"alias": "mexican", "title": "Mexican"}], "rating": 5.0, "coordinates": {"latitude": 40.733153008794524, "longitude": -73.95492747010424}, "transactions": [], "location": {"address1": "995 Manhattan Ave", "address2": "", "address3": null, "city": "Brooklyn", "zip_code": "11222", "country": "US", "state": "NY", "display_address": ["995 Manhattan Ave", "Brooklyn, NY 11222"]}, "phone": "", "display_phone": "", "distance": 3145.569170358017}, {"id": "JkAzvWmrs17M-Kpbj8P4yQ", "alias": "estelita-restaurant-north-bergen-2", "name": "Estelita Restaurant", "image_url": "https://s3-media2.fl.yelpcdn.com/bphoto/VClZUrE4Xbo1dbw1payZug/o.jpg", "is_closed": false, "url": "https://www.yelp.com/biz/estelita-restaurant-north-bergen-2?adjust_creative=9gNmiWYX8uTbFBeTTvJMdA&utm_campaign=yelp_api_v3&utm_medium=api_v3_business_search&utm_source=9gNmiWYX8uTbFBeTTvJMdA", "review_count": 5, "categories": [{"alias": "latin", "title": "Latin American"}, {"alias": "seafood", "title": "Seafood"}, {"alias": "bars", "title": "Bars"}], "rating": 4.5, "coordinates": {"latitude": 40.79646, "longitude": -74.01087}, "transactions": ["pickup"], "price": "$$", "location": {"address1": "7007 Bergenline Ave", "address2": "", "address3": "", "city": "North Bergen", "zip_code": "07047", "country": "US", "state": "NJ", "display_address": ["7007 Bergenline Ave", "North Bergen, NJ 07047"]}, "phone": "+12016628622", "display_phone": "(201) 662-8622", "distance": 5415.4731494428615}, {"id": "RThvexVhZQ8KA6JAr0UkCQ", "alias": "casa-adela-new-york", "name": "Casa Adela", "image_url": "https://s3-media4.fl.yelpcdn.com/bphoto/CrSVEHHLE8JhciwZAEZ-aQ/o.jpg", "is_closed": false, "url": "https://www.yelp.com/biz/casa-adela-new-york?adjust_creative=9gNmiWYX8uTbFBeTTvJMdA&utm_campaign=yelp_api_v3&utm_medium=api_v3_business_search&utm_source=9gNmiWYX8uTbFBeTTvJMdA", "review_count": 567, "categories": [{"alias": "latin", "title": "Latin American"}, {"alias": "puertorican", "title": "Puerto Rican"}], "rating": 4.0, "coordinates": {"latitude": 40.722650655675935, "longitude": -73.97974337731952}, "transactions": [], "price": "$$", "location": {"address1": "66 Loisaida Avenue", "address2": null, "address3": "", "city": "New York", "zip_code": "10009", "country": "US", "state": "NY", "display_address": ["66 Loisaida Avenue", "New York, NY 10009"]}, "phone": "+12124731882", "display_phone": "(212) 473-1882", "distance": 4150.671073821236}, {"id": "OKf1e4V3HmpjzMXSlPhHcQ", "alias": "al-horno-lean-mexican-kitchen-new-york-18", "name": "Al Horno Lean Mexican Kitchen", "image_url": "https://s3-media1.fl.yelpcdn.com/bphoto/U-O1KZULtDI1kG3zWEEk-w/o.jpg", "is_closed": false, "url": "https://www.yelp.com/biz/al-horno-lean-mexican-kitchen-new-york-18?adjust_creative=9gNmiWYX8uTbFBeTTvJMdA&utm_campaign=yelp_api_v3&utm_medium=api_v3_business_search&utm_source=9gNmiWYX8uTbFBeTTvJMdA", "review_count": 5, "categories": [{"alias": "mexican", "title": "Mexican"}], "rating": 3.5, "coordinates": {"latitude": 40.74525, "longitude": -73.97937}, "transactions": ["delivery", "pickup"], "location": {"address1": "156 E 33rd St", "address2": null, "address3": null, "city": "New York", "zip_code": "10016", "country": "US", "state": "NY", "display_address": ["156 E 33rd St", "New York, NY 10016"]}, "phone": "", "display_phone": "", "distance": 1756.3550483069}, {"id": "PJeuLlvja4ZKv_tHq_pE1A", "alias": "heidelberg-restaurant-new-york", "name": "Heidelberg Restaurant", "image_url": "https://s3-media2.fl.yelpcdn.com/bphoto/EvK0H3x0Cquh5istCPwLog/o.jpg", "is_closed": false, "url": "https://www.yelp.com/biz/heidelberg-restaurant-new-york?adjust_creative=9gNmiWYX8uTbFBeTTvJMdA&utm_campaign=yelp_api_v3&utm_medium=api_v3_business_search&utm_source=9gNmiWYX8uTbFBeTTvJMdA", "review_count": 795, "categories": [{"alias": "german", "title": "German"}, {"alias": "bars", "title": "Bars"}], "rating": 4.0, "coordinates": {"latitude": 40.77742, "longitude": -73.95172}, "transactions": ["delivery", "pickup"], "price": "$$", "location": {"address1": "1648 2nd Ave", "address2": "", "address3": "", "city": "New York", "zip_code": "10028", "country": "US", "state": "NY", "display_address": ["1648 2nd Ave", "New York, NY 10028"]}, "phone": "+12126282332", "display_phone": "(212) 628-2332", "distance": 2526.3761569847056}, {"id": "9qGeN28MCk5yGClGg6YmBw", "alias": "la-catrina-restaurant-bronx-3", "name": "La Catrina Restaurant", "image_url": "https://s3-media3.fl.yelpcdn.com/bphoto/u9AIiQF4eyyiyjrMHddOrQ/o.jpg", "is_closed": false, "url": "https://www.yelp.com/biz/la-catrina-restaurant-bronx-3?adjust_creative=9gNmiWYX8uTbFBeTTvJMdA&utm_campaign=yelp_api_v3&utm_medium=api_v3_business_search&utm_source=9gNmiWYX8uTbFBeTTvJMdA", "review_count": 10, "categories": [{"alias": "mexican", "title": "Mexican"}, {"alias": "seafood", "title": "Seafood"}, {"alias": "pizza", "title": "Pizza"}], "rating": 4.5, "coordinates": {"latitude": 40.85381513077219, "longitude": -73.8432395943412}, "transactions": ["delivery", "pickup"], "location": {"address1": "2020 Eastchester Rd", "address2": "", "address3": null, "city": "Bronx", "zip_code": "10461", "country": "US", "state": "NY", "display_address": ["2020 Eastchester Rd", "Bronx, NY 10461"]}, "phone": "+17166662220", "display_phone": "(716) 666-2220", "distance": 14960.131486650296}, {"id": "yIWKtjt9v0m7i8mKBQlsug", "alias": "la-casa-de-julia-woodside", "name": "La Casa de Julia", "image_url": "https://s3-media1.fl.yelpcdn.com/bphoto/bUVh34ADTUR-pk6NGxb__A/o.jpg", "is_closed": false, "url": "https://www.yelp.com/biz/la-casa-de-julia-woodside?adjust_creative=9gNmiWYX8uTbFBeTTvJMdA&utm_campaign=yelp_api_v3&utm_medium=api_v3_business_search&utm_source=9gNmiWYX8uTbFBeTTvJMdA", "review_count": 13, "categories": [{"alias": "tacos", "title": "Tacos"}, {"alias": "sportsbars", "title": "Sports Bars"}], "rating": 4.0, "coordinates": {"latitude": 40.74618, "longitude": -73.89954}, "transactions": ["delivery", "pickup"], "location": {"address1": "64-09 Roosevelt Ave", "address2": null, "address3": null, "city": "Woodside", "zip_code": "11377", "country": "US", "state": "NY", "display_address": ["64-09 Roosevelt Ave", "Woodside, NY 11377"]}, "phone": "+13478080627", "display_phone": "(347) 808-0627", "distance": 6068.128946837235}, {"id": "7nuI4icg8t2NOgXJWyTWcQ", "alias": "kandela-nyc-jamaica-3", "name": "Kandela NYC", "image_url": "https://s3-media1.fl.yelpcdn.com/bphoto/HT1TlqgJGcMkBQg1oxmfbg/o.jpg", "is_closed": false, "url": "https://www.yelp.com/biz/kandela-nyc-jamaica-3?adjust_creative=9gNmiWYX8uTbFBeTTvJMdA&utm_campaign=yelp_api_v3&utm_medium=api_v3_business_search&utm_source=9gNmiWYX8uTbFBeTTvJMdA", "review_count": 258, "categories": [{"alias": "mexican", "title": "Mexican"}, {"alias": "sportsbars", "title": "Sports Bars"}, {"alias": "newamerican", "title": "American (New)"}], "rating": 3.5, "coordinates": {"latitude": 40.66998, "longitude": -73.84235}, "transactions": ["delivery", "pickup"], "price": "$$", "location": {"address1": "150-03 Cross Bay Blvd", "address2": null, "address3": "", "city": "Jamaica", "zip_code": "11417", "country": "US", "state": "NY", "display_address": ["150-03 Cross Bay Blvd", "Jamaica, NY 11417"]}, "phone": "+17186590262", "display_phone": "(718) 659-0262", "distance": 14609.195985341215}, {"id": "U5hCNNyJmb7f3dmC1HTzSQ", "alias": "juniors-restaurant-new-york-9", "name": "Junior's Restaurant", "image_url": "https://s3-media2.fl.yelpcdn.com/bphoto/tvTRL8DWymoAUG-UZdfIRQ/o.jpg", "is_closed": false, "url": "https://www.yelp.com/biz/juniors-restaurant-new-york-9?adjust_creative=9gNmiWYX8uTbFBeTTvJMdA&utm_campaign=yelp_api_v3&utm_medium=api_v3_business_search&utm_source=9gNmiWYX8uTbFBeTTvJMdA", "review_count": 5559, "categories": [{"alias": "bakeries", "title": "Bakeries"}, {"alias": "breakfast_brunch", "title": "Breakfast & Brunch"}, {"alias": "burgers", "title": "Burgers"}], "rating": 4.0, "coordinates": {"latitude": 40.75756463099685, "longitude": -73.98608001118411}, "transactions": ["delivery", "pickup"], "price": "$$", "location": {"address1": "1515 Broadway", "address2": null, "address3": "", "city": "New York", "zip_code": "10036", "country": "US", "state": "NY", "display_address": ["1515 Broadway", "New York, NY 10036"]}, "phone": "+12123022000", "display_phone": "(212) 302-2000", "distance": 1401.7289505235008}, {"id": "xa9msp-5yS4bujYW2twrFg", "alias": "al-toro-restaurant-wood-ridge-2", "name": "AL Toro  Restaurant", "image_url": "https://s3-media4.fl.yelpcdn.com/bphoto/GzoTprq0JUUaJ0U0-JqgIQ/o.jpg", "is_closed": false, "url": "https://www.yelp.com/biz/al-toro-restaurant-wood-ridge-2?adjust_creative=9gNmiWYX8uTbFBeTTvJMdA&utm_campaign=yelp_api_v3&utm_medium=api_v3_business_search&utm_source=9gNmiWYX8uTbFBeTTvJMdA", "review_count": 47, "categories": [{"alias": "mexican", "title": "Mexican"}], "rating": 4.5, "coordinates": {"latitude": 40.84685, "longitude": -74.08334}, "transactions": ["restaurant_reservation", "delivery", "pickup"], "location": {"address1": "187 Hackensack St", "address2": "", "address3": "", "city": "Wood Ridge", "zip_code": "07075", "country": "US", "state": "NJ", "display_address": ["187 Hackensack St", "Wood Ridge, NJ 07075"]}, "phone": "+18622492220", "display_phone": "(862) 249-2220", "distance": 13658.33505609849}, {"id": "ssGhu4n3emZ9kEPVf371IQ", "alias": "cookshop-new-york", "name": "Cookshop", "image_url": "https://s3-media1.fl.yelpcdn.com/bphoto/BVNl4RPKVrw2tYtYfiRWBw/o.jpg", "is_closed": false, "url": "https://www.yelp.com/biz/cookshop-new-york?adjust_creative=9gNmiWYX8uTbFBeTTvJMdA&utm_campaign=yelp_api_v3&utm_medium=api_v3_business_search&utm_source=9gNmiWYX8uTbFBeTTvJMdA", "review_count": 2283, "categories": [{"alias": "newamerican", "title": "American (New)"}, {"alias": "bars", "title": "Bars"}], "rating": 4.0, "coordinates": {"latitude": 40.745731881448236, "longitude": -74.00540454907613}, "transactions": ["delivery", "pickup"], "price": "$$", "location": {"address1": "156 10th Ave", "address2": "", "address3": "", "city": "New York", "zip_code": "10011", "country": "US", "state": "NY", "display_address": ["156 10th Ave", "New York, NY 10011"]}, "phone": "+12129244440", "display_phone": "(212) 924-4440", "distance": 3368.030326484071}, {"id": "T3o3LRG2-7fgt7o0v3Ab8Q", "alias": "super-burrito-brooklyn-3", "name": "Super Burrito", "image_url": "https://s3-media2.fl.yelpcdn.com/bphoto/eOp3JzXcLYuJdhcz5ZoNaA/o.jpg", "is_closed": false, "url": "https://www.yelp.com/biz/super-burrito-brooklyn-3?adjust_creative=9gNmiWYX8uTbFBeTTvJMdA&utm_campaign=yelp_api_v3&utm_medium=api_v3_business_search&utm_source=9gNmiWYX8uTbFBeTTvJMdA", "review_count": 13, "categories": [{"alias": "tacos", "title": "Tacos"}], "rating": 4.5, "coordinates": {"latitude": 40.71371714335766, "longitude": -73.96197370026584}, "transactions": [], "location": {"address1": "320 Bedford Ave", "address2": "", "address3": null, "city": "Brooklyn", "zip_code": "11249", "country": "US", "state": "NY", "display_address": ["320 Bedford Ave", "Brooklyn, NY 11249"]}, "phone": "+13475990533", "display_phone": "(347) 599-0533", "distance": 5095.045704708713}, {"id": "iJUoxnxbCtVDMek4keHJFQ", "alias": "pokito-brooklyn-2", "name": "Pokito", "image_url": "https://s3-media1.fl.yelpcdn.com/bphoto/9k0ylqTnqgGLQuazsQ4NMQ/o.jpg", "is_closed": false, "url": "https://www.yelp.com/biz/pokito-brooklyn-2?adjust_creative=9gNmiWYX8uTbFBeTTvJMdA&utm_campaign=yelp_api_v3&utm_medium=api_v3_business_search&utm_source=9gNmiWYX8uTbFBeTTvJMdA", "review_count": 146, "categories": [{"alias": "cocktailbars", "title": "Cocktail Bars"}], "rating": 4.5, "coordinates": {"latitude": 40.71162, "longitude": -73.96184}, "transactions": ["delivery", "pickup"], "price": "$$", "location": {"address1": "155 S 4th St", "address2": null, "address3": "", "city": "Brooklyn", "zip_code": "11211", "country": "US", "state": "NY", "display_address": ["155 S 4th St", "Brooklyn, NY 11211"]}, "phone": "+19179091542", "display_phone": "(917) 909-1542", "distance": 5324.111128971869}, {"id": "U84nYcclkx_LS0kQkCUB9g", "alias": "the-breakers-brooklyn-2", "name": "The Breakers", "image_url": "https://s3-media4.fl.yelpcdn.com/bphoto/ZPhiGVUfMxXKUwIa7pwbtw/o.jpg", "is_closed": false, "url": "https://www.yelp.com/biz/the-breakers-brooklyn-2?adjust_creative=9gNmiWYX8uTbFBeTTvJMdA&utm_campaign=yelp_api_v3&utm_medium=api_v3_business_search&utm_source=9gNmiWYX8uTbFBeTTvJMdA", "review_count": 62, "categories": [{"alias": "bars", "title": "Bars"}, {"alias": "danceclubs", "title": "Dance Clubs"}, {"alias": "tacos", "title": "Tacos"}], "rating": 4.0, "coordinates": {"latitude": 40.717535, "longitude": -73.948872}, "transactions": ["delivery"], "location": {"address1": "307 Meeker Ave", "address2": null, "address3": "", "city": "Brooklyn", "zip_code": "11211", "country": "US", "state": "NY", "display_address": ["307 Meeker Ave", "Brooklyn, NY 11211"]}, "phone": "+17183848900", "display_phone": "(718) 384-8900", "distance": 4947.7446823731125}, {"id": "mBFnE5EDUwpZiEsSf_1piA", "alias": "los-tacos-city-habanero-long-island-city", "name": "Los Tacos City Habanero", "image_url": "https://s3-media1.fl.yelpcdn.com/bphoto/ABa1WShvWyOImyHtX_SBCg/o.jpg", "is_closed": false, "url": "https://www.yelp.com/biz/los-tacos-city-habanero-long-island-city?adjust_creative=9gNmiWYX8uTbFBeTTvJMdA&utm_campaign=yelp_api_v3&utm_medium=api_v3_business_search&utm_source=9gNmiWYX8uTbFBeTTvJMdA", "review_count": 82, "categories": [{"alias": "foodtrucks", "title": "Food Trucks"}, {"alias": "tacos", "title": "Tacos"}], "rating": 4.5, "coordinates": {"latitude": 40.7440144504923, "longitude": -73.9537688118532}, "transactions": ["delivery", "pickup"], "price": "$", "location": {"address1": "48th Ave Vernon Blvd", "address2": null, "address3": null, "city": "Long Island City", "zip_code": "11101", "country": "US", "state": "NY", "display_address": ["48th Ave Vernon Blvd", "Long Island City, NY 11101"]}, "phone": "+19178033873", "display_phone": "(917) 803-3873", "distance": 2148.0743540363615}, {"id": "EAN8rXqdrgIYsFNxUDVX-w", "alias": "limosneros-brooklyn", "name": "Limosneros", "image_url": "https://s3-media1.fl.yelpcdn.com/bphoto/8hl42VZzSFwIKfrNEthUlQ/o.jpg", "is_closed": false, "url": "https://www.yelp.com/biz/limosneros-brooklyn?adjust_creative=9gNmiWYX8uTbFBeTTvJMdA&utm_campaign=yelp_api_v3&utm_medium=api_v3_business_search&utm_source=9gNmiWYX8uTbFBeTTvJMdA", "review_count": 12, "categories": [{"alias": "mexican", "title": "Mexican"}], "rating": 4.5, "coordinates": {"latitude": 40.7114012897548, "longitude": -73.95103148532137}, "transactions": ["delivery", "pickup"], "location": {"address1": "366 Union Ave", "address2": "", "address3": null, "city": "Brooklyn", "zip_code": "11211", "country": "US", "state": "NY", "display_address": ["366 Union Ave", "Brooklyn, NY 11211"]}, "phone": "", "display_phone": "", "distance": 5537.1313906311}, {"id": "4sNPRRefpFQl-fE_aU5XaA", "alias": "refried-beans-mexican-grill-new-york-3", "name": "Refried Beans Mexican Grill", "image_url": "https://s3-media4.fl.yelpcdn.com/bphoto/SfZMvyx50LYGY3-SsJtpmg/o.jpg", "is_closed": false, "url": "https://www.yelp.com/biz/refried-beans-mexican-grill-new-york-3?adjust_creative=9gNmiWYX8uTbFBeTTvJMdA&utm_campaign=yelp_api_v3&utm_medium=api_v3_business_search&utm_source=9gNmiWYX8uTbFBeTTvJMdA", "review_count": 313, "categories": [{"alias": "mexican", "title": "Mexican"}], "rating": 3.5, "coordinates": {"latitude": 40.8549599636967, "longitude": -73.9370997259323}, "transactions": ["delivery", "pickup"], "price": "$$", "location": {"address1": "591 Fort Washington Ave", "address2": null, "address3": "", "city": "New York", "zip_code": "10033", "country": "US", "state": "NY", "display_address": ["591 Fort Washington Ave", "New York, NY 10033"]}, "phone": "+12125682299", "display_phone": "(212) 568-2299", "distance": 10995.92512331733}, {"id": "7RgdHGMY9Xa2Ur5y7vSBZQ", "alias": "homemade-taqueria-long-island-city", "name": "Homemade Taqueria", "image_url": "https://s3-media4.fl.yelpcdn.com/bphoto/4o9-Zx2KVCn-TvIDCzBfCQ/o.jpg", "is_closed": false, "url": "https://www.yelp.com/biz/homemade-taqueria-long-island-city?adjust_creative=9gNmiWYX8uTbFBeTTvJMdA&utm_campaign=yelp_api_v3&utm_medium=api_v3_business_search&utm_source=9gNmiWYX8uTbFBeTTvJMdA", "review_count": 402, "categories": [{"alias": "tacos", "title": "Tacos"}], "rating": 4.0, "coordinates": {"latitude": 40.7546939084048, "longitude": -73.9165629007979}, "transactions": ["delivery", "pickup"], "price": "$", "location": {"address1": "45-09 34th Ave", "address2": "", "address3": "", "city": "Long Island City", "zip_code": "11101", "country": "US", "state": "NY", "display_address": ["45-09 34th Ave", "Long Island City, NY 11101"]}, "phone": "+17182551349", "display_phone": "(718) 255-1349", "distance": 4492.756055641165}, {"id": "vyRQGK3qABg1HSWNpMbmtg", "alias": "the-cabinet-new-york-2", "name": "The Cabinet", "image_url": "https://s3-media3.fl.yelpcdn.com/bphoto/UDOulO5hbhgMaLgunOPbxQ/o.jpg", "is_closed": false, "url": "https://www.yelp.com/biz/the-cabinet-new-york-2?adjust_creative=9gNmiWYX8uTbFBeTTvJMdA&utm_campaign=yelp_api_v3&utm_medium=api_v3_business_search&utm_source=9gNmiWYX8uTbFBeTTvJMdA", "review_count": 29, "categories": [{"alias": "cocktailbars", "title": "Cocktail Bars"}], "rating": 4.5, "coordinates": {"latitude": 40.72546, "longitude": -73.97816}, "transactions": ["delivery"], "price": "$$", "location": {"address1": "649 East 9th St", "address2": "", "address3": "", "city": "New York", "zip_code": "10009", "country": "US", "state": "NY", "display_address": ["649 East 9th St", "New York, NY 10009"]}, "phone": "+13478667739", "display_phone": "(347) 866-7739", "distance": 3814.0541171006926}, {"id": "6JWyeRFhl49-CCglEPwxIQ", "alias": "birria-mania-brooklyn", "name": "Birria Mania", "image_url": "https://s3-media3.fl.yelpcdn.com/bphoto/ImaW3fViQp5iA1gg6tkBuQ/o.jpg", "is_closed": false, "url": "https://www.yelp.com/biz/birria-mania-brooklyn?adjust_creative=9gNmiWYX8uTbFBeTTvJMdA&utm_campaign=yelp_api_v3&utm_medium=api_v3_business_search&utm_source=9gNmiWYX8uTbFBeTTvJMdA", "review_count": 97, "categories": [{"alias": "mexican", "title": "Mexican"}, {"alias": "ramen", "title": "Ramen"}, {"alias": "cheesesteaks", "title": "Cheesesteaks"}], "rating": 4.0, "coordinates": {"latitude": 40.63122207687712, "longitude": -74.02808276817136}, "transactions": ["delivery", "pickup"], "location": {"address1": "7508 3rd Ave", "address2": "", "address3": null, "city": "Brooklyn", "zip_code": "11209", "country": "US", "state": "NY", "display_address": ["7508 3rd Ave", "Brooklyn, NY 11209"]}, "phone": "+17187013987", "display_phone": "(718) 701-3987", "distance": 15058.48059720171}, {"id": "ZIlCi38S2pcWuHlpMxvG7w", "alias": "montebello-ristorante-italiano-new-york", "name": "Montebello Ristorante Italiano", "image_url": "https://s3-media2.fl.yelpcdn.com/bphoto/mNG0j7cV98_Sw3HpdKB_2g/o.jpg", "is_closed": false, "url": "https://www.yelp.com/biz/montebello-ristorante-italiano-new-york?adjust_creative=9gNmiWYX8uTbFBeTTvJMdA&utm_campaign=yelp_api_v3&utm_medium=api_v3_business_search&utm_source=9gNmiWYX8uTbFBeTTvJMdA", "review_count": 97, "categories": [{"alias": "italian", "title": "Italian"}, {"alias": "bars", "title": "Bars"}], "rating": 3.5, "coordinates": {"latitude": 40.760504, "longitude": -73.970625}, "transactions": ["delivery", "pickup"], "price": "$$$", "location": {"address1": "120 E 56th St", "address2": "", "address3": "", "city": "New York", "zip_code": "10022", "country": "US", "state": "NY", "display_address": ["120 E 56th St", "New York, NY 10022"]}, "phone": "+12127531447", "display_phone": "(212) 753-1447", "distance": 172.290975930088}, {"id": "f7-4kTNeYOhZdtJgXlbqBQ", "alias": "el-rancho-burritos-new-york", "name": "El Rancho Burritos", "image_url": "https://s3-media1.fl.yelpcdn.com/bphoto/gzTsITrKDSlk6VjYtXeovA/o.jpg", "is_closed": false, "url": "https://www.yelp.com/biz/el-rancho-burritos-new-york?adjust_creative=9gNmiWYX8uTbFBeTTvJMdA&utm_campaign=yelp_api_v3&utm_medium=api_v3_business_search&utm_source=9gNmiWYX8uTbFBeTTvJMdA", "review_count": 140, "categories": [{"alias": "mexican", "title": "Mexican"}, {"alias": "tex-mex", "title": "Tex-Mex"}, {"alias": "vegetarian", "title": "Vegetarian"}], "rating": 3.5, "coordinates": {"latitude": 40.7603099, "longitude": -73.99087}, "transactions": ["delivery", "pickup"], "price": "$", "location": {"address1": "359 W 45th St", "address2": "", "address3": "", "city": "New York", "zip_code": "10036", "country": "US", "state": "NY", "display_address": ["359 W 45th St", "New York, NY 10036"]}, "phone": "+12125813844", "display_phone": "(212) 581-3844", "distance": 1790.2084046535413}, {"id": "POGfmcCkuLpkP_Vz98DuwQ", "alias": "caliente-cab-new-york-2", "name": "Caliente Cab", "image_url": "https://s3-media2.fl.yelpcdn.com/bphoto/E2nS6VGE0RQc0-tCHS9PGw/o.jpg", "is_closed": false, "url": "https://www.yelp.com/biz/caliente-cab-new-york-2?adjust_creative=9gNmiWYX8uTbFBeTTvJMdA&utm_campaign=yelp_api_v3&utm_medium=api_v3_business_search&utm_source=9gNmiWYX8uTbFBeTTvJMdA", "review_count": 945, "categories": [{"alias": "mexican", "title": "Mexican"}, {"alias": "bars", "title": "Bars"}, {"alias": "tex-mex", "title": "Tex-Mex"}], "rating": 3.0, "coordinates": {"latitude": 40.7318059, "longitude": -74.0035903}, "transactions": ["delivery"], "price": "$$", "location": {"address1": "61 7th Ave S", "address2": null, "address3": "", "city": "New York", "zip_code": "10014", "country": "US", "state": "NY", "display_address": ["61 7th Ave S", "New York, NY 10014"]}, "phone": "+12122438517", "display_phone": "(212) 243-8517", "distance": 4180.115230334333}, {"id": "FeIQnJwhsNjyOIX_uhNYXg", "alias": "ojal\u00e1-authentic-mexican-brooklyn", "name": "Ojal\u00e1 Authentic Mexican", "image_url": "https://s3-media2.fl.yelpcdn.com/bphoto/7-0xlBWwOfOI9pi8f0exKw/o.jpg", "is_closed": false, "url": "https://www.yelp.com/biz/ojal%C3%A1-authentic-mexican-brooklyn?adjust_creative=9gNmiWYX8uTbFBeTTvJMdA&utm_campaign=yelp_api_v3&utm_medium=api_v3_business_search&utm_source=9gNmiWYX8uTbFBeTTvJMdA", "review_count": 98, "categories": [{"alias": "mexican", "title": "Mexican"}], "rating": 4.5, "coordinates": {"latitude": 40.683382, "longitude": -73.967279}, "transactions": ["delivery", "pickup"], "location": {"address1": "852 Fulton St", "address2": null, "address3": "", "city": "Brooklyn", "zip_code": "11238", "country": "US", "state": "NY", "display_address": ["852 Fulton St", "Brooklyn, NY 11238"]}, "phone": "+17185003010", "display_phone": "(718) 500-3010", "distance": 8430.688381473161}, {"id": "ordDKTBgCKwk5oBbSPKXcQ", "alias": "melt-shop-new-york-10", "name": "Melt Shop", "image_url": "https://s3-media2.fl.yelpcdn.com/bphoto/RUwGNRAR9KAD3HoR6dKDpw/o.jpg", "is_closed": false, "url": "https://www.yelp.com/biz/melt-shop-new-york-10?adjust_creative=9gNmiWYX8uTbFBeTTvJMdA&utm_campaign=yelp_api_v3&utm_medium=api_v3_business_search&utm_source=9gNmiWYX8uTbFBeTTvJMdA", "review_count": 212, "categories": [{"alias": "salad", "title": "Salad"}, {"alias": "comfortfood", "title": "Comfort Food"}, {"alias": "sandwiches", "title": "Sandwiches"}], "rating": 4.0, "coordinates": {"latitude": 40.76389593749034, "longitude": -73.98529798140706}, "transactions": ["delivery", "pickup"], "price": "$$", "location": {"address1": "877 8th Ave", "address2": "", "address3": "", "city": "New York", "zip_code": "10019", "country": "US", "state": "NY", "display_address": ["877 8th Ave", "New York, NY 10019"]}, "phone": "+16467818400", "display_phone": "(646) 781-8400", "distance": 1424.576465987769}, {"id": "V7_IQ1ab69JilAlgrSnMXg", "alias": "l-encanto-d-lola-new-york", "name": "L Encanto D Lola", "image_url": "https://s3-media2.fl.yelpcdn.com/bphoto/5jfcna7n6FA7JsVnTtgaDQ/o.jpg", "is_closed": false, "url": "https://www.yelp.com/biz/l-encanto-d-lola-new-york?adjust_creative=9gNmiWYX8uTbFBeTTvJMdA&utm_campaign=yelp_api_v3&utm_medium=api_v3_business_search&utm_source=9gNmiWYX8uTbFBeTTvJMdA", "review_count": 283, "categories": [{"alias": "mexican", "title": "Mexican"}, {"alias": "bars", "title": "Bars"}], "rating": 3.5, "coordinates": {"latitude": 40.8001464434346, "longitude": -73.9511863565111}, "transactions": ["delivery", "pickup"], "price": "$$", "location": {"address1": "57 Lenox Ave", "address2": "", "address3": "", "city": "New York", "zip_code": "10026", "country": "US", "state": "NY", "display_address": ["57 Lenox Ave", "New York, NY 10026"]}, "phone": "+12122226969", "display_phone": "(212) 222-6969", "distance": 4811.729298743392}, {"id": "37UBDZl-wH6UBRVjAif_pw", "alias": "blue-tijuana-college-point", "name": "Blue Tijuana", "image_url": "https://s3-media3.fl.yelpcdn.com/bphoto/LngboJgEDkowzBJHQhczyw/o.jpg", "is_closed": false, "url": "https://www.yelp.com/biz/blue-tijuana-college-point?adjust_creative=9gNmiWYX8uTbFBeTTvJMdA&utm_campaign=yelp_api_v3&utm_medium=api_v3_business_search&utm_source=9gNmiWYX8uTbFBeTTvJMdA", "review_count": 106, "categories": [{"alias": "mexican", "title": "Mexican"}], "rating": 4.0, "coordinates": {"latitude": 40.783534, "longitude": -73.846121}, "transactions": ["delivery", "pickup"], "price": "$$", "location": {"address1": "15-24 College Point Blvd", "address2": "", "address3": "", "city": "College Point", "zip_code": "11356", "country": "US", "state": "NY", "display_address": ["15-24 College Point Blvd", "College Point, NY 11356"]}, "phone": "+17188880455", "display_phone": "(718) 888-0455", "distance": 10743.068769108353}, {"id": "4jucppz-BA0MiY06DjuBYQ", "alias": "frijolitos-new-york-2", "name": "Frijolito's", "image_url": "https://s3-media1.fl.yelpcdn.com/bphoto/ElJPmeAodRlrzJwAIGKxiA/o.jpg", "is_closed": false, "url": "https://www.yelp.com/biz/frijolitos-new-york-2?adjust_creative=9gNmiWYX8uTbFBeTTvJMdA&utm_campaign=yelp_api_v3&utm_medium=api_v3_business_search&utm_source=9gNmiWYX8uTbFBeTTvJMdA", "review_count": 171, "categories": [{"alias": "mexican", "title": "Mexican"}], "rating": 4.5, "coordinates": {"latitude": 40.8234652876854, "longitude": -73.9524172246456}, "transactions": ["delivery", "pickup"], "price": "$", "location": {"address1": "3446 Broadway", "address2": "", "address3": null, "city": "New York", "zip_code": "10031", "country": "US", "state": "NY", "display_address": ["3446 Broadway", "New York, NY 10031"]}, "phone": "+16466829033", "display_phone": "(646) 682-9033", "distance": 7293.226391309595}, {"id": "xNgaGyePJ7fyZ9D0J74-3A", "alias": "east-la-hoboken", "name": "East LA", "image_url": "https://s3-media1.fl.yelpcdn.com/bphoto/7cVKv_KuC6NCVp5xMXkQ8A/o.jpg", "is_closed": false, "url": "https://www.yelp.com/biz/east-la-hoboken?adjust_creative=9gNmiWYX8uTbFBeTTvJMdA&utm_campaign=yelp_api_v3&utm_medium=api_v3_business_search&utm_source=9gNmiWYX8uTbFBeTTvJMdA", "review_count": 488, "categories": [{"alias": "mexican", "title": "Mexican"}, {"alias": "bars", "title": "Bars"}], "rating": 3.0, "coordinates": {"latitude": 40.74258, "longitude": -74.02966}, "transactions": ["delivery", "pickup"], "price": "$$", "location": {"address1": "508 Washington St", "address2": "", "address3": "", "city": "Hoboken", "zip_code": "07030", "country": "US", "state": "NJ", "display_address": ["508 Washington St", "Hoboken, NJ 07030"]}, "phone": "+12017980052", "display_phone": "(201) 798-0052", "distance": 5387.726689514253}, {"id": "KX7-L2PTl_ZM1ufx2tVVVA", "alias": "taqueria-mexicana-north-bergen", "name": "Taqueria Mexicana", "image_url": "https://s3-media4.fl.yelpcdn.com/bphoto/Bkrgxql73ZrwK3CcZH__HA/o.jpg", "is_closed": false, "url": "https://www.yelp.com/biz/taqueria-mexicana-north-bergen?adjust_creative=9gNmiWYX8uTbFBeTTvJMdA&utm_campaign=yelp_api_v3&utm_medium=api_v3_business_search&utm_source=9gNmiWYX8uTbFBeTTvJMdA", "review_count": 71, "categories": [{"alias": "mexican", "title": "Mexican"}], "rating": 3.0, "coordinates": {"latitude": 40.7965563, "longitude": -74.0103249}, "transactions": [], "price": "$", "location": {"address1": "7024 Bergenline Ave", "address2": "", "address3": "", "city": "North Bergen", "zip_code": "07047", "country": "US", "state": "NJ", "display_address": ["7024 Bergenline Ave", "North Bergen, NJ 07047"]}, "phone": "+12014533086", "display_phone": "(201) 453-3086", "distance": 5389.946598049457}, {"id": "Xak3sB5LkJgjgYYf6_hQLA", "alias": "casa-taqueria-new-york-3", "name": "Casa Taqueria", "image_url": "https://s3-media1.fl.yelpcdn.com/bphoto/ik75U9OMlEdFddvCzSI1IQ/o.jpg", "is_closed": false, "url": "https://www.yelp.com/biz/casa-taqueria-new-york-3?adjust_creative=9gNmiWYX8uTbFBeTTvJMdA&utm_campaign=yelp_api_v3&utm_medium=api_v3_business_search&utm_source=9gNmiWYX8uTbFBeTTvJMdA", "review_count": 94, "categories": [{"alias": "mexican", "title": "Mexican"}], "rating": 4.0, "coordinates": {"latitude": 40.70875, "longitude": -74.00583}, "transactions": ["delivery", "pickup"], "location": {"address1": "40 Gold St", "address2": "", "address3": "", "city": "New York", "zip_code": "10038", "country": "US", "state": "NY", "display_address": ["40 Gold St", "New York, NY 10038"]}, "phone": "+12124063333", "display_phone": "(212) 406-3333", "distance": 6384.014763186984}, {"id": "V_5IS9PY4tjmYk95lDWfgg", "alias": "tequilas-mexican-grill-new-york", "name": "Tequilas Mexican Grill", "image_url": "https://s3-media1.fl.yelpcdn.com/bphoto/s-SehU-r2qsCH7VAfT_f2g/o.jpg", "is_closed": false, "url": "https://www.yelp.com/biz/tequilas-mexican-grill-new-york?adjust_creative=9gNmiWYX8uTbFBeTTvJMdA&utm_campaign=yelp_api_v3&utm_medium=api_v3_business_search&utm_source=9gNmiWYX8uTbFBeTTvJMdA", "review_count": 15, "categories": [{"alias": "mexican", "title": "Mexican"}], "rating": 3.0, "coordinates": {"latitude": 40.74612, "longitude": -74.00083}, "transactions": [], "location": {"address1": "358 West 23 rd St", "address2": "", "address3": "", "city": "New York", "zip_code": "10011", "country": "US", "state": "NY", "display_address": ["358 West 23 rd St", "New York, NY 10011"]}, "phone": "+12124630535", "display_phone": "(212) 463-0535", "distance": 3018.6554236679476}, {"id": "Zt2kurIAW-5cDw0MLWqGpg", "alias": "jcs-sidewalk-cafe-new-york", "name": "Jc's Sidewalk Cafe", "image_url": "https://s3-media3.fl.yelpcdn.com/bphoto/n4sJOkTtV8Xxd-Evtnn-KQ/o.jpg", "is_closed": false, "url": "https://www.yelp.com/biz/jcs-sidewalk-cafe-new-york?adjust_creative=9gNmiWYX8uTbFBeTTvJMdA&utm_campaign=yelp_api_v3&utm_medium=api_v3_business_search&utm_source=9gNmiWYX8uTbFBeTTvJMdA", "review_count": 2, "categories": [{"alias": "foodtrucks", "title": "Food Trucks"}], "rating": 5.0, "coordinates": {"latitude": 40.7660934724109, "longitude": -73.9543481976903}, "transactions": [], "price": "$", "location": {"address1": "71ST And York Ave", "address2": "", "address3": "", "city": "New York", "zip_code": "10021", "country": "US", "state": "NY", "display_address": ["71ST And York Ave", "New York, NY 10021"]}, "phone": "+13477177578", "display_phone": "(347) 717-7578", "distance": 1495.4101735339743}, {"id": "jjosc19o7g0PQ7OjpB1xZw", "alias": "adelitas-queens", "name": "adelitas", "image_url": "https://s3-media4.fl.yelpcdn.com/bphoto/lQjr3TZOn8MRGVxd5B_RNw/o.jpg", "is_closed": false, "url": "https://www.yelp.com/biz/adelitas-queens?adjust_creative=9gNmiWYX8uTbFBeTTvJMdA&utm_campaign=yelp_api_v3&utm_medium=api_v3_business_search&utm_source=9gNmiWYX8uTbFBeTTvJMdA", "review_count": 6, "categories": [{"alias": "mexican", "title": "Mexican"}, {"alias": "desserts", "title": "Desserts"}], "rating": 4.5, "coordinates": {"latitude": 40.77062888790362, "longitude": -73.90829465277385}, "transactions": [], "location": {"address1": "23-07 Steinway St", "address2": "", "address3": null, "city": "Queens", "zip_code": "11103", "country": "US", "state": "NY", "display_address": ["23-07 Steinway St", "Queens, NY 11103"]}, "phone": "+19294244000", "display_phone": "(929) 424-4000", "distance": 5315.685550628806}, {"id": "O4rYM6YBj90W2u7RhG3Mvg", "alias": "maison-premiere-brooklyn", "name": "Maison Premiere", "image_url": "https://s3-media3.fl.yelpcdn.com/bphoto/sYBR9fpPCOcYF6mE6eQ2MA/o.jpg", "is_closed": false, "url": "https://www.yelp.com/biz/maison-premiere-brooklyn?adjust_creative=9gNmiWYX8uTbFBeTTvJMdA&utm_campaign=yelp_api_v3&utm_medium=api_v3_business_search&utm_source=9gNmiWYX8uTbFBeTTvJMdA", "review_count": 1233, "categories": [{"alias": "seafood", "title": "Seafood"}, {"alias": "bars", "title": "Bars"}, {"alias": "venues", "title": "Venues & Event Spaces"}], "rating": 4.0, "coordinates": {"latitude": 40.7142634, "longitude": -73.96166459999999}, "transactions": ["delivery", "pickup"], "price": "$$$", "location": {"address1": "298 Bedford Ave", "address2": "", "address3": "", "city": "Brooklyn", "zip_code": "11249", "country": "US", "state": "NY", "display_address": ["298 Bedford Ave", "Brooklyn, NY 11249"]}, "phone": "+13478895710", "display_phone": "(347) 889-5710", "distance": 5038.170418741462}, {"id": "ZikqL-flwV2XYlKtL2UfmA", "alias": "rangoli-exquisite-indian-cuisine-new-york", "name": "Rangoli Exquisite Indian Cuisine", "image_url": "https://s3-media3.fl.yelpcdn.com/bphoto/sG1chWTHZTSeGvXSnkxuAg/o.jpg", "is_closed": false, "url": "https://www.yelp.com/biz/rangoli-exquisite-indian-cuisine-new-york?adjust_creative=9gNmiWYX8uTbFBeTTvJMdA&utm_campaign=yelp_api_v3&utm_medium=api_v3_business_search&utm_source=9gNmiWYX8uTbFBeTTvJMdA", "review_count": 497, "categories": [{"alias": "indpak", "title": "Indian"}, {"alias": "desserts", "title": "Desserts"}, {"alias": "seafood", "title": "Seafood"}], "rating": 4.5, "coordinates": {"latitude": 40.7693, "longitude": -73.95823}, "transactions": ["delivery", "pickup"], "price": "$$", "location": {"address1": "1393 A 2nd Ave", "address2": "", "address3": "", "city": "New York", "zip_code": "10021", "country": "US", "state": "NY", "display_address": ["1393 A 2nd Ave", "New York, NY 10021"]}, "phone": "+12126283800", "display_phone": "(212) 628-3800", "distance": 1474.1577248990718}, {"id": "7uhYhpUPHpRnNJvJxKROVw", "alias": "city-winery-grand-central-new-york", "name": "City Winery Grand Central", "image_url": "https://s3-media1.fl.yelpcdn.com/bphoto/mC2bJm1SmBc-fXy8ZKOimg/o.jpg", "is_closed": false, "url": "https://www.yelp.com/biz/city-winery-grand-central-new-york?adjust_creative=9gNmiWYX8uTbFBeTTvJMdA&utm_campaign=yelp_api_v3&utm_medium=api_v3_business_search&utm_source=9gNmiWYX8uTbFBeTTvJMdA", "review_count": 6, "categories": [{"alias": "venues", "title": "Venues & Event Spaces"}, {"alias": "wine_bars", "title": "Wine Bars"}, {"alias": "tradamerican", "title": "American (Traditional)"}], "rating": 4.0, "coordinates": {"latitude": 40.752779, "longitude": -73.976731}, "transactions": [], "location": {"address1": "89 E 42nd St", "address2": null, "address3": null, "city": "New York", "zip_code": "10017", "country": "US", "state": "NY", "display_address": ["89 E 42nd St", "New York, NY 10017"]}, "phone": "+13322641233", "display_phone": "(332) 264-1233", "distance": 964.5385984915948}, {"id": "dJoWkpVxWcvdqNRo7w622w", "alias": "the-garret-new-york", "name": "The Garret", "image_url": "https://s3-media2.fl.yelpcdn.com/bphoto/5SyYWXf8C7GK2ZIYadvkXw/o.jpg", "is_closed": false, "url": "https://www.yelp.com/biz/the-garret-new-york?adjust_creative=9gNmiWYX8uTbFBeTTvJMdA&utm_campaign=yelp_api_v3&utm_medium=api_v3_business_search&utm_source=9gNmiWYX8uTbFBeTTvJMdA", "review_count": 303, "categories": [{"alias": "cocktailbars", "title": "Cocktail Bars"}], "rating": 3.5, "coordinates": {"latitude": 40.73238, "longitude": -74.0038457}, "transactions": ["delivery"], "price": "$$", "location": {"address1": "296 Bleecker St", "address2": "", "address3": "", "city": "New York", "zip_code": "10014", "country": "US", "state": "NY", "display_address": ["296 Bleecker St", "New York, NY 10014"]}, "phone": "+12126756157", "display_phone": "(212) 675-6157", "distance": 4148.806539430606}, {"id": "vGS5X12NYXCl8NpynlxRuw", "alias": "oscar-wilde-new-york-2", "name": "Oscar Wilde", "image_url": "https://s3-media4.fl.yelpcdn.com/bphoto/g6bn-Aldtc3vTIjdfkOaEg/o.jpg", "is_closed": false, "url": "https://www.yelp.com/biz/oscar-wilde-new-york-2?adjust_creative=9gNmiWYX8uTbFBeTTvJMdA&utm_campaign=yelp_api_v3&utm_medium=api_v3_business_search&utm_source=9gNmiWYX8uTbFBeTTvJMdA", "review_count": 1125, "categories": [{"alias": "cocktailbars", "title": "Cocktail Bars"}, {"alias": "newamerican", "title": "American (New)"}, {"alias": "gastropubs", "title": "Gastropubs"}], "rating": 4.0, "coordinates": {"latitude": 40.74514, "longitude": -73.9900399}, "transactions": ["delivery", "pickup"], "price": "$$", "location": {"address1": "45 W 27th St", "address2": null, "address3": "", "city": "New York", "zip_code": "10001", "country": "US", "state": "NY", "display_address": ["45 W 27th St", "New York, NY 10001"]}, "phone": "+12122133066", "display_phone": "(212) 213-3066", "distance": 2322.255558348539}, {"id": "1Zc5q6qrWV4qepRulrpfJA", "alias": "el-aguila-dorada-bayonne-5", "name": "El Aguila Dorada", "image_url": "https://s3-media1.fl.yelpcdn.com/bphoto/L4SsM07891AwmaECs04yog/o.jpg", "is_closed": false, "url": "https://www.yelp.com/biz/el-aguila-dorada-bayonne-5?adjust_creative=9gNmiWYX8uTbFBeTTvJMdA&utm_campaign=yelp_api_v3&utm_medium=api_v3_business_search&utm_source=9gNmiWYX8uTbFBeTTvJMdA", "review_count": 95, "categories": [{"alias": "mexican", "title": "Mexican"}], "rating": 4.0, "coordinates": {"latitude": 40.66099, "longitude": -74.12036}, "transactions": ["restaurant_reservation", "delivery"], "price": "$$", "location": {"address1": "412 Broadway", "address2": "", "address3": null, "city": "Bayonne", "zip_code": "07002", "country": "US", "state": "NJ", "display_address": ["412 Broadway", "Bayonne, NJ 07002"]}, "phone": "+12013319100", "display_phone": "(201) 331-9100", "distance": 16754.072196579356}, {"id": "jf3JRaxUYU93x8LFU-8gkA", "alias": "gupshup-new-york", "name": "GupShup", "image_url": "https://s3-media2.fl.yelpcdn.com/bphoto/zaK7en1p1L6ipl5eyxIXpw/o.jpg", "is_closed": false, "url": "https://www.yelp.com/biz/gupshup-new-york?adjust_creative=9gNmiWYX8uTbFBeTTvJMdA&utm_campaign=yelp_api_v3&utm_medium=api_v3_business_search&utm_source=9gNmiWYX8uTbFBeTTvJMdA", "review_count": 608, "categories": [{"alias": "indpak", "title": "Indian"}, {"alias": "cocktailbars", "title": "Cocktail Bars"}, {"alias": "breakfast_brunch", "title": "Breakfast & Brunch"}], "rating": 4.0, "coordinates": {"latitude": 40.7368323318866, "longitude": -73.9877132715179}, "transactions": ["delivery", "pickup"], "price": "$$$", "location": {"address1": "115 E18th St", "address2": null, "address3": "", "city": "New York", "zip_code": "10003", "country": "US", "state": "NY", "display_address": ["115 E18th St", "New York, NY 10003"]}, "phone": "+12125187313", "display_phone": "(212) 518-7313", "distance": 2908.62854553811}, {"id": "C3N8N3_ja6F_HsBE3r2bAg", "alias": "tacos-y-quesadillas-new-york-3", "name": "Tacos Y Quesadillas", "image_url": "https://s3-media2.fl.yelpcdn.com/bphoto/ys_7JKbLwH_eX7ws2H4QWw/o.jpg", "is_closed": false, "url": "https://www.yelp.com/biz/tacos-y-quesadillas-new-york-3?adjust_creative=9gNmiWYX8uTbFBeTTvJMdA&utm_campaign=yelp_api_v3&utm_medium=api_v3_business_search&utm_source=9gNmiWYX8uTbFBeTTvJMdA", "review_count": 7, "categories": [{"alias": "foodtrucks", "title": "Food Trucks"}, {"alias": "mexican", "title": "Mexican"}], "rating": 5.0, "coordinates": {"latitude": 40.766867, "longitude": -73.959839}, "transactions": ["delivery"], "location": {"address1": "299 E 69th St", "address2": "", "address3": null, "city": "New York", "zip_code": "10021", "country": "US", "state": "NY", "display_address": ["299 E 69th St", "New York, NY 10021"]}, "phone": "", "display_phone": "", "distance": 1184.8320285845318}], "total": 4800, "region": {"center": {"longitude": -73.96957397460938, "latitude": 40.75917470627005}}}