{"businesses": [{"id": "C3N8N3_ja6F_HsBE3r2bAg", "alias": "tacos-y-quesadillas-new-york-3", "name": "Tacos Y Quesadillas", "image_url": "https://s3-media2.fl.yelpcdn.com/bphoto/ys_7JKbLwH_eX7ws2H4QWw/o.jpg", "is_closed": false, "url": "https://www.yelp.com/biz/tacos-y-quesadillas-new-york-3?adjust_creative=9gNmiWYX8uTbFBeTTvJMdA&utm_campaign=yelp_api_v3&utm_medium=api_v3_business_search&utm_source=9gNmiWYX8uTbFBeTTvJMdA", "review_count": 7, "categories": [{"alias": "foodtrucks", "title": "Food Trucks"}, {"alias": "mexican", "title": "Mexican"}], "rating": 5.0, "coordinates": {"latitude": 40.766867, "longitude": -73.959839}, "transactions": ["delivery"], "location": {"address1": "299 E 69th St", "address2": "", "address3": null, "city": "New York", "zip_code": "10021", "country": "US", "state": "NY", "display_address": ["299 E 69th St", "New York, NY 10021"]}, "phone": "", "display_phone": "", "distance": 1184.8320285845318}, {"id": "FnRDmXgQ291zkRb63Rjb9w", "alias": "mi-pueblito-kearny", "name": "Mi Pueblito", "image_url": "https://s3-media2.fl.yelpcdn.com/bphoto/T1hszB-vFfebwyR_UzaI0w/o.jpg", "is_closed": false, "url": "https://www.yelp.com/biz/mi-pueblito-kearny?adjust_creative=9gNmiWYX8uTbFBeTTvJMdA&utm_campaign=yelp_api_v3&utm_medium=api_v3_business_search&utm_source=9gNmiWYX8uTbFBeTTvJMdA", "review_count": 247, "categories": [{"alias": "mexican", "title": "Mexican"}], "rating": 4.0, "coordinates": {"latitude": 40.7652839160058, "longitude": -74.1477151492868}, "transactions": ["delivery", "pickup"], "price": "$$", "location": {"address1": "412 Kearny Ave", "address2": "", "address3": "", "city": "Kearny", "zip_code": "07032", "country": "US", "state": "NJ", "display_address": ["412 Kearny Ave", "Kearny, NJ 07032"]}, "phone": "+12019913330", "display_phone": "(201) 991-3330", "distance": 15018.737777621582}, {"id": "vYB5bZOJQkmBquzQ8D23-w", "alias": "comodo-new-york-2", "name": "Comodo", "image_url": "https://s3-media3.fl.yelpcdn.com/bphoto/tK9z_IEU7aUINA1gs8-VJg/o.jpg", "is_closed": false, "url": "https://www.yelp.com/biz/comodo-new-york-2?adjust_creative=9gNmiWYX8uTbFBeTTvJMdA&utm_campaign=yelp_api_v3&utm_medium=api_v3_business_search&utm_source=9gNmiWYX8uTbFBeTTvJMdA", "review_count": 47, "categories": [{"alias": "latin", "title": "Latin American"}, {"alias": "breakfast_brunch", "title": "Breakfast & Brunch"}], "rating": 4.0, "coordinates": {"latitude": 40.73981, "longitude": -73.98436}, "transactions": [], "location": {"address1": "23 Lexington Ave", "address2": "", "address3": null, "city": "New York", "zip_code": "10010", "country": "US", "state": "NY", "display_address": ["23 Lexington Ave", "New York, NY 10010"]}, "phone": "+12124751924", "display_phone": "(212) 475-1924", "distance": 2493.5157651766267}, {"id": "47_jHPl3p4-OYGCVLy2ZIA", "alias": "salvatoria-kitchen-and-bar-astoria", "name": "Salvatoria Kitchen & Bar", "image_url": "https://s3-media3.fl.yelpcdn.com/bphoto/rSdO29hyVahEE1R_JbRHEA/o.jpg", "is_closed": false, "url": "https://www.yelp.com/biz/salvatoria-kitchen-and-bar-astoria?adjust_creative=9gNmiWYX8uTbFBeTTvJMdA&utm_campaign=yelp_api_v3&utm_medium=api_v3_business_search&utm_source=9gNmiWYX8uTbFBeTTvJMdA", "review_count": 249, "categories": [{"alias": "salvadoran", "title": "Salvadoran"}, {"alias": "bars", "title": "Bars"}], "rating": 4.5, "coordinates": {"latitude": 40.76142, "longitude": -73.92486}, "transactions": ["delivery", "pickup"], "price": "$$", "location": {"address1": "31-18 Broadway", "address2": null, "address3": "", "city": "Astoria", "zip_code": "11106", "country": "US", "state": "NY", "display_address": ["31-18 Broadway", "Astoria, NY 11106"]}, "phone": "+17187772829", "display_phone": "(718) 777-2829", "distance": 3778.792959095524}, {"id": "csqCqu6G8pUIoyuwsFnkxQ", "alias": "taqueria-santa-fe-new-york-7", "name": "Taqueria Santa Fe ", "image_url": "https://s3-media1.fl.yelpcdn.com/bphoto/i4FnZgTuwcx45n0c2FYXgQ/o.jpg", "is_closed": false, "url": "https://www.yelp.com/biz/taqueria-santa-fe-new-york-7?adjust_creative=9gNmiWYX8uTbFBeTTvJMdA&utm_campaign=yelp_api_v3&utm_medium=api_v3_business_search&utm_source=9gNmiWYX8uTbFBeTTvJMdA", "review_count": 15, "categories": [{"alias": "mexican", "title": "Mexican"}, {"alias": "fooddeliveryservices", "title": "Food Delivery Services"}], "rating": 4.5, "coordinates": {"latitude": 40.79561, "longitude": -73.93548}, "transactions": ["delivery", "pickup"], "location": {"address1": "2248 1st Ave", "address2": null, "address3": "", "city": "New York", "zip_code": "10029", "country": "US", "state": "NY", "display_address": ["2248 1st Ave", "New York, NY 10029"]}, "phone": "+16468961007", "display_phone": "(646) 896-1007", "distance": 4968.361070393745}, {"id": "Zjs9BS1R-BB1L4P_TRF46g", "alias": "la-avenida-new-york", "name": "La Avenida", "image_url": "https://s3-media3.fl.yelpcdn.com/bphoto/YiAyc_X0ByPtMtyoYXISPA/o.jpg", "is_closed": false, "url": "https://www.yelp.com/biz/la-avenida-new-york?adjust_creative=9gNmiWYX8uTbFBeTTvJMdA&utm_campaign=yelp_api_v3&utm_medium=api_v3_business_search&utm_source=9gNmiWYX8uTbFBeTTvJMdA", "review_count": 107, "categories": [{"alias": "latin", "title": "Latin American"}, {"alias": "cocktailbars", "title": "Cocktail Bars"}], "rating": 4.5, "coordinates": {"latitude": 40.79573, "longitude": -73.93596}, "transactions": ["delivery", "pickup"], "price": "$$", "location": {"address1": "2247 1st Ave", "address2": "", "address3": null, "city": "New York", "zip_code": "10029", "country": "US", "state": "NY", "display_address": ["2247 1st Ave", "New York, NY 10029"]}, "phone": "+12128282247", "display_phone": "(212) 828-2247", "distance": 4952.776458389361}, {"id": "k6H0vzBN7BdZ9-j-bMv7LQ", "alias": "tortilla-bite-and-grill-bayonne", "name": "Tortilla Bite & Grill", "image_url": "https://s3-media3.fl.yelpcdn.com/bphoto/7lMfFnxJHncdEHkzh7of0g/o.jpg", "is_closed": false, "url": "https://www.yelp.com/biz/tortilla-bite-and-grill-bayonne?adjust_creative=9gNmiWYX8uTbFBeTTvJMdA&utm_campaign=yelp_api_v3&utm_medium=api_v3_business_search&utm_source=9gNmiWYX8uTbFBeTTvJMdA", "review_count": 30, "categories": [{"alias": "mexican", "title": "Mexican"}, {"alias": "spanish", "title": "Spanish"}], "rating": 4.5, "coordinates": {"latitude": 40.67033, "longitude": -74.112464}, "transactions": ["delivery", "pickup"], "price": "$", "location": {"address1": "682 Broadway", "address2": "", "address3": "", "city": "Bayonne", "zip_code": "07002", "country": "US", "state": "NJ", "display_address": ["682 Broadway", "Bayonne, NJ 07002"]}, "phone": "+12014438070", "display_phone": "(201) 443-8070", "distance": 15579.930545560079}, {"id": "-KxofS9wU64Kc8Xs0AeS2A", "alias": "sunny-and-fines-breakfast-burritos-new-york-7", "name": "Sunny & Fine's Breakfast Burritos", "image_url": "", "is_closed": false, "url": "https://www.yelp.com/biz/sunny-and-fines-breakfast-burritos-new-york-7?adjust_creative=9gNmiWYX8uTbFBeTTvJMdA&utm_campaign=yelp_api_v3&utm_medium=api_v3_business_search&utm_source=9gNmiWYX8uTbFBeTTvJMdA", "review_count": 1, "categories": [{"alias": "fooddeliveryservices", "title": "Food Delivery Services"}, {"alias": "mexican", "title": "Mexican"}], "rating": 5.0, "coordinates": {"latitude": 40.743668, "longitude": -73.97401}, "transactions": ["delivery"], "location": {"address1": "589 1st Ave", "address2": null, "address3": null, "city": "New York", "zip_code": "10016", "country": "US", "state": "NY", "display_address": ["589 1st Ave", "New York, NY 10016"]}, "phone": "+12122139199", "display_phone": "(212) 213-9199", "distance": 1765.7903568465047}, {"id": "yywIzZlBOAWHCeKqMcB7Gw", "alias": "factory-tamal-new-york-8", "name": "Factory Tamal", "image_url": "https://s3-media3.fl.yelpcdn.com/bphoto/CDWwXxUm5eXIzLi3fqukLg/o.jpg", "is_closed": false, "url": "https://www.yelp.com/biz/factory-tamal-new-york-8?adjust_creative=9gNmiWYX8uTbFBeTTvJMdA&utm_campaign=yelp_api_v3&utm_medium=api_v3_business_search&utm_source=9gNmiWYX8uTbFBeTTvJMdA", "review_count": 17, "categories": [{"alias": "mexican", "title": "Mexican"}, {"alias": "breakfast_brunch", "title": "Breakfast & Brunch"}], "rating": 4.5, "coordinates": {"latitude": 40.72686, "longitude": -73.99075}, "transactions": ["delivery", "pickup"], "location": {"address1": "63 E 4th St", "address2": "", "address3": null, "city": "New York", "zip_code": "10003", "country": "US", "state": "NY", "display_address": ["63 E 4th St", "New York, NY 10003"]}, "phone": "+13476597098", "display_phone": "(347) 659-7098", "distance": 4009.7025226699166}, {"id": "jb8N6gYSWq7pocGpWD0tag", "alias": "maria-mentiras-bar-and-grill-union-city", "name": "Maria Mentiras Bar & Grill", "image_url": "https://s3-media3.fl.yelpcdn.com/bphoto/pMlkx0y6FE8tyFInSnRkEQ/o.jpg", "is_closed": false, "url": "https://www.yelp.com/biz/maria-mentiras-bar-and-grill-union-city?adjust_creative=9gNmiWYX8uTbFBeTTvJMdA&utm_campaign=yelp_api_v3&utm_medium=api_v3_business_search&utm_source=9gNmiWYX8uTbFBeTTvJMdA", "review_count": 128, "categories": [{"alias": "latin", "title": "Latin American"}, {"alias": "venues", "title": "Venues & Event Spaces"}, {"alias": "wine_bars", "title": "Wine Bars"}], "rating": 3.5, "coordinates": {"latitude": 40.7712615, "longitude": -74.0281575}, "transactions": ["pickup"], "price": "$$", "location": {"address1": "328 32nd St", "address2": "", "address3": "", "city": "Union City", "zip_code": "07087", "country": "US", "state": "NJ", "display_address": ["328 32nd St", "Union City, NJ 07087"]}, "phone": "+12013480178", "display_phone": "(201) 348-0178", "distance": 5113.566893199611}, {"id": "X6A6a8hTPd1pZFNZE80TfA", "alias": "tacos-cuautla-morelos-new-york-2", "name": "Tacos Cuautla Morelos", "image_url": "https://s3-media2.fl.yelpcdn.com/bphoto/blJa0pw8LWfaz2GLutFvSQ/o.jpg", "is_closed": false, "url": "https://www.yelp.com/biz/tacos-cuautla-morelos-new-york-2?adjust_creative=9gNmiWYX8uTbFBeTTvJMdA&utm_campaign=yelp_api_v3&utm_medium=api_v3_business_search&utm_source=9gNmiWYX8uTbFBeTTvJMdA", "review_count": 139, "categories": [{"alias": "mexican", "title": "Mexican"}], "rating": 4.0, "coordinates": {"latitude": 40.7274619080615, "longitude": -73.9832050287211}, "transactions": ["delivery", "pickup"], "price": "$$", "location": {"address1": "438 E 9th St", "address2": null, "address3": "", "city": "New York", "zip_code": "10009", "country": "US", "state": "NY", "display_address": ["438 E 9th St", "New York, NY 10009"]}, "phone": "+13477725216", "display_phone": "(347) 772-5216", "distance": 3708.5721074644134}, {"id": "EHINHIbLklEUShuANKjGgw", "alias": "tomi\u00f1o-taberna-gallega-new-york", "name": "Tomi\u00f1o Taberna Gallega", "image_url": "https://s3-media3.fl.yelpcdn.com/bphoto/mmkbajVRlu9KEylHbxwiRw/o.jpg", "is_closed": false, "url": "https://www.yelp.com/biz/tomi%C3%B1o-taberna-gallega-new-york?adjust_creative=9gNmiWYX8uTbFBeTTvJMdA&utm_campaign=yelp_api_v3&utm_medium=api_v3_business_search&utm_source=9gNmiWYX8uTbFBeTTvJMdA", "review_count": 395, "categories": [{"alias": "wine_bars", "title": "Wine Bars"}, {"alias": "spanish", "title": "Spanish"}, {"alias": "tapas", "title": "Tapas Bars"}], "rating": 4.5, "coordinates": {"latitude": 40.7192978908919, "longitude": -73.9969160361937}, "transactions": ["delivery"], "price": "$$$", "location": {"address1": "192 Grand St", "address2": "", "address3": null, "city": "New York", "zip_code": "10013", "country": "US", "state": "NY", "display_address": ["192 Grand St", "New York, NY 10013"]}, "phone": "+12129334763", "display_phone": "(212) 933-4763", "distance": 4996.772920680136}, {"id": "76B7-T4f1EdsQsoI0NM9Wg", "alias": "beso-staten-island", "name": "Beso", "image_url": "https://s3-media3.fl.yelpcdn.com/bphoto/_iqOI7IgUtGTfKY5m72YhQ/o.jpg", "is_closed": false, "url": "https://www.yelp.com/biz/beso-staten-island?adjust_creative=9gNmiWYX8uTbFBeTTvJMdA&utm_campaign=yelp_api_v3&utm_medium=api_v3_business_search&utm_source=9gNmiWYX8uTbFBeTTvJMdA", "review_count": 629, "categories": [{"alias": "spanish", "title": "Spanish"}, {"alias": "tapas", "title": "Tapas Bars"}, {"alias": "bars", "title": "Bars"}], "rating": 4.0, "coordinates": {"latitude": 40.640452538196364, "longitude": -74.07587487334874}, "transactions": ["delivery", "pickup"], "price": "$$$", "location": {"address1": "70 Bay St", "address2": "", "address3": "", "city": "Staten Island", "zip_code": "10301", "country": "US", "state": "NY", "display_address": ["70 Bay St", "Staten Island, NY 10301"]}, "phone": "+17188168162", "display_phone": "(718) 816-8162", "distance": 15955.50021849571}, {"id": "SPvW-SV2Ed7z8k-QXDUIDg", "alias": "tacos-matamoros-brooklyn", "name": "Tacos Matamoros", "image_url": "https://s3-media1.fl.yelpcdn.com/bphoto/Bfhpb1Dpp4Xm2vgVHLeBYA/o.jpg", "is_closed": false, "url": "https://www.yelp.com/biz/tacos-matamoros-brooklyn?adjust_creative=9gNmiWYX8uTbFBeTTvJMdA&utm_campaign=yelp_api_v3&utm_medium=api_v3_business_search&utm_source=9gNmiWYX8uTbFBeTTvJMdA", "review_count": 615, "categories": [{"alias": "mexican", "title": "Mexican"}], "rating": 3.5, "coordinates": {"latitude": 40.6478187840292, "longitude": -74.0076383498633}, "transactions": ["delivery"], "price": "$", "location": {"address1": "4508 5th Ave", "address2": "", "address3": "", "city": "Brooklyn", "zip_code": "11220", "country": "US", "state": "NY", "display_address": ["4508 5th Ave", "Brooklyn, NY 11220"]}, "phone": "+17188717627", "display_phone": "(718) 871-7627", "distance": 12791.188289726531}, {"id": "tgPPzyvBwq0B0jlCkFortA", "alias": "la-esquina-chapina-palisades-park", "name": "La Esquina Chapina", "image_url": "https://s3-media3.fl.yelpcdn.com/bphoto/sL2rBqrT51bpRtyHxfxfPA/o.jpg", "is_closed": false, "url": "https://www.yelp.com/biz/la-esquina-chapina-palisades-park?adjust_creative=9gNmiWYX8uTbFBeTTvJMdA&utm_campaign=yelp_api_v3&utm_medium=api_v3_business_search&utm_source=9gNmiWYX8uTbFBeTTvJMdA", "review_count": 19, "categories": [{"alias": "latin", "title": "Latin American"}], "rating": 4.0, "coordinates": {"latitude": 40.8434295654297, "longitude": -74.0014114379883}, "transactions": ["delivery"], "price": "$$", "location": {"address1": "39 Broad Ave", "address2": null, "address3": null, "city": "Palisades Park", "zip_code": "07650", "country": "US", "state": "NJ", "display_address": ["39 Broad Ave", "Palisades Park, NJ 07650"]}, "phone": "+12013134888", "display_phone": "(201) 313-4888", "distance": 9739.442197030356}, {"id": "cRmRAl5HHJcysKBSrHivHA", "alias": "lamano-chelsea-new-york-2", "name": "Lamano Chelsea", "image_url": "https://s3-media3.fl.yelpcdn.com/bphoto/FOWPFoAdO360nnf9oUzUdg/o.jpg", "is_closed": false, "url": "https://www.yelp.com/biz/lamano-chelsea-new-york-2?adjust_creative=9gNmiWYX8uTbFBeTTvJMdA&utm_campaign=yelp_api_v3&utm_medium=api_v3_business_search&utm_source=9gNmiWYX8uTbFBeTTvJMdA", "review_count": 120, "categories": [{"alias": "wine_bars", "title": "Wine Bars"}, {"alias": "tapas", "title": "Tapas Bars"}, {"alias": "coffee", "title": "Coffee & Tea"}], "rating": 4.0, "coordinates": {"latitude": 40.7433797337789, "longitude": -73.9994259551167}, "transactions": ["pickup"], "price": "$$", "location": {"address1": "265 W 20th St", "address2": "", "address3": null, "city": "New York", "zip_code": "10011", "country": "US", "state": "NY", "display_address": ["265 W 20th St", "New York, NY 10011"]}, "phone": "+12127412398", "display_phone": "(212) 741-2398", "distance": 3067.226280907774}, {"id": "wDURpY2e7gQIaB3FgQbE9A", "alias": "las-margaritas-astoria-4", "name": "Las Margaritas", "image_url": "https://s3-media2.fl.yelpcdn.com/bphoto/2Dxj2rAbnjHXjeLH38lbHQ/o.jpg", "is_closed": false, "url": "https://www.yelp.com/biz/las-margaritas-astoria-4?adjust_creative=9gNmiWYX8uTbFBeTTvJMdA&utm_campaign=yelp_api_v3&utm_medium=api_v3_business_search&utm_source=9gNmiWYX8uTbFBeTTvJMdA", "review_count": 22, "categories": [{"alias": "mexican", "title": "Mexican"}], "rating": 4.0, "coordinates": {"latitude": 40.76352470248662, "longitude": -73.90895944110449}, "transactions": ["delivery", "pickup"], "location": {"address1": "4517 28th Ave", "address2": "", "address3": null, "city": "Astoria", "zip_code": "11103", "country": "US", "state": "NY", "display_address": ["4517 28th Ave", "Astoria, NY 11103"]}, "phone": "+17188061040", "display_phone": "(718) 806-1040", "distance": 5127.995548893068}, {"id": "J7hRmPAGnOcd2OJsN_eV9g", "alias": "el-mariachi-restaurant-woodside", "name": "El Mariachi Restaurant", "image_url": "https://s3-media1.fl.yelpcdn.com/bphoto/9Jl8Q9c3fk5_HS2O-adpPQ/o.jpg", "is_closed": false, "url": "https://www.yelp.com/biz/el-mariachi-restaurant-woodside?adjust_creative=9gNmiWYX8uTbFBeTTvJMdA&utm_campaign=yelp_api_v3&utm_medium=api_v3_business_search&utm_source=9gNmiWYX8uTbFBeTTvJMdA", "review_count": 58, "categories": [{"alias": "mexican", "title": "Mexican"}], "rating": 4.0, "coordinates": {"latitude": 40.7460442, "longitude": -73.8978364}, "transactions": ["delivery", "pickup"], "price": "$$", "location": {"address1": "6712 Roosevelt Ave", "address2": "", "address3": "", "city": "Woodside", "zip_code": "11377", "country": "US", "state": "NY", "display_address": ["6712 Roosevelt Ave", "Woodside, NY 11377"]}, "phone": "+17183356744", "display_phone": "(718) 335-6744", "distance": 6229.504424995376}, {"id": "YePElOxpcDkI18jk7dyipA", "alias": "avo-taco-bayside", "name": "AVO TACO", "image_url": "https://s3-media4.fl.yelpcdn.com/bphoto/kGwn0JRBdXZxFNnn1efzLA/o.jpg", "is_closed": false, "url": "https://www.yelp.com/biz/avo-taco-bayside?adjust_creative=9gNmiWYX8uTbFBeTTvJMdA&utm_campaign=yelp_api_v3&utm_medium=api_v3_business_search&utm_source=9gNmiWYX8uTbFBeTTvJMdA", "review_count": 63, "categories": [{"alias": "tacos", "title": "Tacos"}, {"alias": "cocktailbars", "title": "Cocktail Bars"}], "rating": 3.5, "coordinates": {"latitude": 40.77865651225938, "longitude": -73.77673807726373}, "transactions": [], "price": "$$", "location": {"address1": "212-97 26th Ave", "address2": null, "address3": "", "city": "Bayside", "zip_code": "11360", "country": "US", "state": "NY", "display_address": ["212-97 26th Ave", "Bayside, NY 11360"]}, "phone": "+19295661879", "display_phone": "(929) 566-1879", "distance": 16383.197924173388}, {"id": "SpQ86pQ8kXWrLxyFgFAdTg", "alias": "playita-new-york", "name": "Playita", "image_url": "https://s3-media2.fl.yelpcdn.com/bphoto/YYWmSAT03XTsMAf3mfiorw/o.jpg", "is_closed": false, "url": "https://www.yelp.com/biz/playita-new-york?adjust_creative=9gNmiWYX8uTbFBeTTvJMdA&utm_campaign=yelp_api_v3&utm_medium=api_v3_business_search&utm_source=9gNmiWYX8uTbFBeTTvJMdA", "review_count": 4, "categories": [{"alias": "mexican", "title": "Mexican"}], "rating": 3.5, "coordinates": {"latitude": 40.71410703410859, "longitude": -73.98702040314674}, "transactions": [], "location": {"address1": "202 Clinton St", "address2": "", "address3": null, "city": "New York", "zip_code": "10002", "country": "US", "state": "NY", "display_address": ["202 Clinton St", "New York, NY 10002"]}, "phone": "", "display_phone": "", "distance": 5222.427179093238}, {"id": "vnDkQsM9ijg0AzkZBmCofA", "alias": "los-viajeros-food-truck-new-york-6", "name": "Los Viajeros Food Truck", "image_url": "https://s3-media2.fl.yelpcdn.com/bphoto/BMb1aYPbFdG9eqa8sfxAyA/o.jpg", "is_closed": false, "url": "https://www.yelp.com/biz/los-viajeros-food-truck-new-york-6?adjust_creative=9gNmiWYX8uTbFBeTTvJMdA&utm_campaign=yelp_api_v3&utm_medium=api_v3_business_search&utm_source=9gNmiWYX8uTbFBeTTvJMdA", "review_count": 62, "categories": [{"alias": "foodtrucks", "title": "Food Trucks"}, {"alias": "latin", "title": "Latin American"}], "rating": 4.5, "coordinates": {"latitude": 40.76615, "longitude": -73.98749}, "transactions": ["delivery", "pickup"], "price": "$", "location": {"address1": "", "address2": null, "address3": "", "city": "New York", "zip_code": "10019", "country": "US", "state": "NY", "display_address": ["New York, NY 10019"]}, "phone": "+19739346486", "display_phone": "(973) 934-6486", "distance": 2151.9266967679046}, {"id": "15pcxijuNY8BMNzBhABt7w", "alias": "miss-lilys-7a-cafe-new-york-3", "name": "Miss Lily's 7A Cafe", "image_url": "https://s3-media2.fl.yelpcdn.com/bphoto/dYsJ9pGW_IqEI6V015Ak2Q/o.jpg", "is_closed": false, "url": "https://www.yelp.com/biz/miss-lilys-7a-cafe-new-york-3?adjust_creative=9gNmiWYX8uTbFBeTTvJMdA&utm_campaign=yelp_api_v3&utm_medium=api_v3_business_search&utm_source=9gNmiWYX8uTbFBeTTvJMdA", "review_count": 870, "categories": [{"alias": "caribbean", "title": "Caribbean"}, {"alias": "cocktailbars", "title": "Cocktail Bars"}], "rating": 4.0, "coordinates": {"latitude": 40.726019, "longitude": -73.9837551}, "transactions": ["delivery", "pickup"], "price": "$$", "location": {"address1": "109 Avenue A", "address2": null, "address3": "", "city": "New York", "zip_code": "10009", "country": "US", "state": "NY", "display_address": ["109 Avenue A", "New York, NY 10009"]}, "phone": "+12128121482", "display_phone": "(212) 812-1482", "distance": 3875.4878757233528}, {"id": "TPN2at7fMDHxeGYuQdQZVA", "alias": "homemade-taqueria-maspeth-maspeth-2", "name": "Homemade Taqueria - Maspeth", "image_url": "https://s3-media4.fl.yelpcdn.com/bphoto/YUpeNPwLGgrbGT35QgcAIA/o.jpg", "is_closed": false, "url": "https://www.yelp.com/biz/homemade-taqueria-maspeth-maspeth-2?adjust_creative=9gNmiWYX8uTbFBeTTvJMdA&utm_campaign=yelp_api_v3&utm_medium=api_v3_business_search&utm_source=9gNmiWYX8uTbFBeTTvJMdA", "review_count": 326, "categories": [{"alias": "newmexican", "title": "New Mexican Cuisine"}, {"alias": "tacos", "title": "Tacos"}], "rating": 4.0, "coordinates": {"latitude": 40.72797, "longitude": -73.89218}, "transactions": ["delivery", "pickup"], "price": "$", "location": {"address1": "71-03 Grand Ave", "address2": null, "address3": "", "city": "Maspeth", "zip_code": "11378", "country": "US", "state": "NY", "display_address": ["71-03 Grand Ave", "Maspeth, NY 11378"]}, "phone": "+17187790771", "display_phone": "(718) 779-0771", "distance": 7386.153836048961}, {"id": "MTP9i2rqkZf1Tn8-ARTPNA", "alias": "guevaras-brooklyn", "name": "Guevara's", "image_url": "https://s3-media4.fl.yelpcdn.com/bphoto/j9H1qaRLJzMOIz7go6Mgpw/o.jpg", "is_closed": false, "url": "https://www.yelp.com/biz/guevaras-brooklyn?adjust_creative=9gNmiWYX8uTbFBeTTvJMdA&utm_campaign=yelp_api_v3&utm_medium=api_v3_business_search&utm_source=9gNmiWYX8uTbFBeTTvJMdA", "review_count": 123, "categories": [{"alias": "mexican", "title": "Mexican"}, {"alias": "coffee", "title": "Coffee & Tea"}, {"alias": "breakfast_brunch", "title": "Breakfast & Brunch"}], "rating": 4.5, "coordinates": {"latitude": 40.688019, "longitude": -73.962881}, "transactions": ["delivery", "pickup"], "price": "$$", "location": {"address1": "39 Clifton Pl", "address2": "", "address3": null, "city": "Brooklyn", "zip_code": "11238", "country": "US", "state": "NY", "display_address": ["39 Clifton Pl", "Brooklyn, NY 11238"]}, "phone": "", "display_phone": "", "distance": 7932.222593488333}, {"id": "VG3FrB1fYRJfd6_efcWhlA", "alias": "tamales-cart-new-york", "name": "Tamales Cart", "image_url": "https://s3-media3.fl.yelpcdn.com/bphoto/00DqbTV4cxcnhOF63YfHtw/o.jpg", "is_closed": false, "url": "https://www.yelp.com/biz/tamales-cart-new-york?adjust_creative=9gNmiWYX8uTbFBeTTvJMdA&utm_campaign=yelp_api_v3&utm_medium=api_v3_business_search&utm_source=9gNmiWYX8uTbFBeTTvJMdA", "review_count": 1, "categories": [{"alias": "foodstands", "title": "Food Stands"}, {"alias": "mexican", "title": "Mexican"}], "rating": 5.0, "coordinates": {"latitude": 40.7947225, "longitude": -73.9719197}, "transactions": [], "location": {"address1": null, "address2": null, "address3": null, "city": "New York", "zip_code": "10025", "country": "US", "state": "NY", "display_address": ["New York, NY 10025"]}, "phone": "+13476926928", "display_phone": "(347) 692-6928", "distance": 3957.66181656672}, {"id": "DpOhfKF92bZPqN9NPreTEg", "alias": "cocina-chente-bronx", "name": "Cocina Chente", "image_url": "https://s3-media1.fl.yelpcdn.com/bphoto/FkywlybrTvcSwoxx04kxJw/o.jpg", "is_closed": false, "url": "https://www.yelp.com/biz/cocina-chente-bronx?adjust_creative=9gNmiWYX8uTbFBeTTvJMdA&utm_campaign=yelp_api_v3&utm_medium=api_v3_business_search&utm_source=9gNmiWYX8uTbFBeTTvJMdA", "review_count": 217, "categories": [{"alias": "mexican", "title": "Mexican"}, {"alias": "cocktailbars", "title": "Cocktail Bars"}], "rating": 4.0, "coordinates": {"latitude": 40.88620632793199, "longitude": -73.9071951348118}, "transactions": ["delivery", "pickup"], "price": "$$", "location": {"address1": "3535 Riverdale Ave", "address2": "", "address3": null, "city": "Bronx", "zip_code": "10463", "country": "US", "state": "NY", "display_address": ["3535 Riverdale Ave", "Bronx, NY 10463"]}, "phone": "+13478438081", "display_phone": "(347) 843-8081", "distance": 15068.958932137386}, {"id": "w_kEVVSS9XMIQTCn7n63Tg", "alias": "el-sombrero-mexican-grill-hasbrouck-heights", "name": "El Sombrero Mexican Grill", "image_url": "https://s3-media2.fl.yelpcdn.com/bphoto/esX1K6R2tqpa7fg3z-7kOw/o.jpg", "is_closed": false, "url": "https://www.yelp.com/biz/el-sombrero-mexican-grill-hasbrouck-heights?adjust_creative=9gNmiWYX8uTbFBeTTvJMdA&utm_campaign=yelp_api_v3&utm_medium=api_v3_business_search&utm_source=9gNmiWYX8uTbFBeTTvJMdA", "review_count": 64, "categories": [{"alias": "mexican", "title": "Mexican"}], "rating": 4.5, "coordinates": {"latitude": 40.85378017, "longitude": -74.07250267}, "transactions": ["delivery", "pickup"], "location": {"address1": "125 State 17 S", "address2": null, "address3": "", "city": "Hasbrouck Heights", "zip_code": "07604", "country": "US", "state": "NJ", "display_address": ["125 State 17 S", "Hasbrouck Heights, NJ 07604"]}, "phone": "+12014260840", "display_phone": "(201) 426-0840", "distance": 13627.643469510434}, {"id": "-yR4PHWqpkrPopwv4wrC5g", "alias": "taquerias-veracruz-west-new-york", "name": "Taquerias Veracruz", "image_url": "https://s3-media3.fl.yelpcdn.com/bphoto/W2nm5KisC87-NaqDVJThig/o.jpg", "is_closed": false, "url": "https://www.yelp.com/biz/taquerias-veracruz-west-new-york?adjust_creative=9gNmiWYX8uTbFBeTTvJMdA&utm_campaign=yelp_api_v3&utm_medium=api_v3_business_search&utm_source=9gNmiWYX8uTbFBeTTvJMdA", "review_count": 35, "categories": [{"alias": "mexican", "title": "Mexican"}, {"alias": "spanish", "title": "Spanish"}], "rating": 4.0, "coordinates": {"latitude": 40.783243, "longitude": -74.019794}, "transactions": ["delivery", "pickup"], "price": "$", "location": {"address1": "434 51st St", "address2": "", "address3": "", "city": "West New York", "zip_code": "07093", "country": "US", "state": "NJ", "display_address": ["434 51st St", "West New York, NJ 07093"]}, "phone": "+12017700789", "display_phone": "(201) 770-0789", "distance": 5004.725042326405}, {"id": "QH3VbBAf7MlePoaipxT4pA", "alias": "taqueria-kermes-ridgewood", "name": "Taqueria Kermes", "image_url": "https://s3-media3.fl.yelpcdn.com/bphoto/hLqcap8qLzXSZ7yiWm5uHg/o.jpg", "is_closed": false, "url": "https://www.yelp.com/biz/taqueria-kermes-ridgewood?adjust_creative=9gNmiWYX8uTbFBeTTvJMdA&utm_campaign=yelp_api_v3&utm_medium=api_v3_business_search&utm_source=9gNmiWYX8uTbFBeTTvJMdA", "review_count": 443, "categories": [{"alias": "mexican", "title": "Mexican"}], "rating": 4.0, "coordinates": {"latitude": 40.70785, "longitude": -73.89798}, "transactions": ["delivery", "pickup"], "price": "$$", "location": {"address1": "66-36 Fresh Pond Rd", "address2": null, "address3": "", "city": "Ridgewood", "zip_code": "11385", "country": "US", "state": "NY", "display_address": ["66-36 Fresh Pond Rd", "Ridgewood, NY 11385"]}, "phone": "+13474639263", "display_phone": "(347) 463-9263", "distance": 8305.795598625193}, {"id": "RvSEZkqi-fQ2k2mIARZhOw", "alias": "agave-restaurante-union-city", "name": "Agave Restaurante", "image_url": "https://s3-media3.fl.yelpcdn.com/bphoto/KL2HwPbL9eencT4QVQrw3Q/o.jpg", "is_closed": false, "url": "https://www.yelp.com/biz/agave-restaurante-union-city?adjust_creative=9gNmiWYX8uTbFBeTTvJMdA&utm_campaign=yelp_api_v3&utm_medium=api_v3_business_search&utm_source=9gNmiWYX8uTbFBeTTvJMdA", "review_count": 16, "categories": [{"alias": "mexican", "title": "Mexican"}], "rating": 4.0, "coordinates": {"latitude": 40.7786782042052, "longitude": -74.0242675691843}, "transactions": ["delivery", "pickup"], "location": {"address1": "4317 Bergenline Ave", "address2": "", "address3": null, "city": "Union City", "zip_code": "07087", "country": "US", "state": "NJ", "display_address": ["4317 Bergenline Ave", "Union City, NJ 07087"]}, "phone": "+12018639280", "display_phone": "(201) 863-9280", "distance": 5090.95103320752}, {"id": "J4pAppaiXwCkbLOGc4wHww", "alias": "raines-law-room-new-york", "name": "Raines Law Room", "image_url": "https://s3-media4.fl.yelpcdn.com/bphoto/RWplIcZmNGl-Vdu5Jv46rA/o.jpg", "is_closed": false, "url": "https://www.yelp.com/biz/raines-law-room-new-york?adjust_creative=9gNmiWYX8uTbFBeTTvJMdA&utm_campaign=yelp_api_v3&utm_medium=api_v3_business_search&utm_source=9gNmiWYX8uTbFBeTTvJMdA", "review_count": 1572, "categories": [{"alias": "lounges", "title": "Lounges"}, {"alias": "cocktailbars", "title": "Cocktail Bars"}, {"alias": "venues", "title": "Venues & Event Spaces"}], "rating": 4.5, "coordinates": {"latitude": 40.73879, "longitude": -73.99455}, "transactions": ["delivery"], "price": "$$$", "location": {"address1": "48 W 17th St", "address2": "", "address3": "", "city": "New York", "zip_code": "10011", "country": "US", "state": "NY", "display_address": ["48 W 17th St", "New York, NY 10011"]}, "phone": "", "display_phone": "", "distance": 3098.882035554714}, {"id": "nC9FlWwB5ukca5BwYllQYw", "alias": "tulcimexico-restaurant-new-york", "name": "Tulcimexico Restaurant", "image_url": "https://s3-media1.fl.yelpcdn.com/bphoto/87DXupzpocD_nYblWIL4tw/o.jpg", "is_closed": false, "url": "https://www.yelp.com/biz/tulcimexico-restaurant-new-york?adjust_creative=9gNmiWYX8uTbFBeTTvJMdA&utm_campaign=yelp_api_v3&utm_medium=api_v3_business_search&utm_source=9gNmiWYX8uTbFBeTTvJMdA", "review_count": 44, "categories": [{"alias": "mexican", "title": "Mexican"}], "rating": 4.0, "coordinates": {"latitude": 40.825097588068, "longitude": -73.9400857686996}, "transactions": ["delivery", "pickup"], "location": {"address1": "2798 Frederick Douglass Blvd", "address2": "", "address3": null, "city": "New York", "zip_code": "10039", "country": "US", "state": "NY", "display_address": ["2798 Frederick Douglass Blvd", "New York, NY 10039"]}, "phone": "+16463706842", "display_phone": "(646) 370-6842", "distance": 7739.218167056883}, {"id": "IBgjj5VBu5JJvKgo9EzKrg", "alias": "the-three-monkeys-new-york-3", "name": "The Three Monkeys", "image_url": "https://s3-media4.fl.yelpcdn.com/bphoto/9PvL7hV_rZUQI0AiAaGSwA/o.jpg", "is_closed": false, "url": "https://www.yelp.com/biz/the-three-monkeys-new-york-3?adjust_creative=9gNmiWYX8uTbFBeTTvJMdA&utm_campaign=yelp_api_v3&utm_medium=api_v3_business_search&utm_source=9gNmiWYX8uTbFBeTTvJMdA", "review_count": 1329, "categories": [{"alias": "sportsbars", "title": "Sports Bars"}, {"alias": "beergardens", "title": "Beer Gardens"}, {"alias": "beerbar", "title": "Beer Bar"}], "rating": 4.0, "coordinates": {"latitude": 40.764164, "longitude": -73.98306}, "transactions": ["delivery", "pickup"], "price": "$$", "location": {"address1": "236 W 54th St", "address2": "", "address3": "", "city": "New York", "zip_code": "10019", "country": "US", "state": "NY", "display_address": ["236 W 54th St", "New York, NY 10019"]}, "phone": "+12125862080", "display_phone": "(212) 586-2080", "distance": 1264.0756975705228}, {"id": "_URXTaYBbd2XX5qJbDkKAg", "alias": "tacos-morelos-brooklyn-3", "name": "Tacos Morelos", "image_url": "https://s3-media3.fl.yelpcdn.com/bphoto/1_AhZditCSdftvMZS8SoKw/o.jpg", "is_closed": false, "url": "https://www.yelp.com/biz/tacos-morelos-brooklyn-3?adjust_creative=9gNmiWYX8uTbFBeTTvJMdA&utm_campaign=yelp_api_v3&utm_medium=api_v3_business_search&utm_source=9gNmiWYX8uTbFBeTTvJMdA", "review_count": 100, "categories": [{"alias": "mexican", "title": "Mexican"}, {"alias": "foodtrucks", "title": "Food Trucks"}, {"alias": "soup", "title": "Soup"}], "rating": 4.0, "coordinates": {"latitude": 40.717799, "longitude": -73.957446}, "transactions": ["delivery", "pickup"], "price": "$", "location": {"address1": "183 Bedford Ave", "address2": "", "address3": "", "city": "Brooklyn", "zip_code": "11222", "country": "US", "state": "NY", "display_address": ["183 Bedford Ave", "Brooklyn, NY 11222"]}, "phone": "+16464049080", "display_phone": "(646) 404-9080", "distance": 4713.258758538564}, {"id": "G2PCaDt_VC4O4w6uRMpE9A", "alias": "birria-les-new-york", "name": "Birria LES", "image_url": "https://s3-media4.fl.yelpcdn.com/bphoto/ShsfArlBSX2qjQhuBRU12A/o.jpg", "is_closed": false, "url": "https://www.yelp.com/biz/birria-les-new-york?adjust_creative=9gNmiWYX8uTbFBeTTvJMdA&utm_campaign=yelp_api_v3&utm_medium=api_v3_business_search&utm_source=9gNmiWYX8uTbFBeTTvJMdA", "review_count": 116, "categories": [{"alias": "halal", "title": "Halal"}, {"alias": "tacos", "title": "Tacos"}], "rating": 4.0, "coordinates": {"latitude": 40.719628849397935, "longitude": -73.98711402147562}, "transactions": [], "price": "$$", "location": {"address1": "127 Rivington St", "address2": "", "address3": null, "city": "New York", "zip_code": "10002", "country": "US", "state": "NY", "display_address": ["127 Rivington St", "New York, NY 10002"]}, "phone": "+16467897777", "display_phone": "(646) 789-7777", "distance": 4638.962302571341}, {"id": "-Td-YEPTOUq2H3LRWgRxUw", "alias": "non-solo-piada-new-york", "name": "Non Solo Piada", "image_url": "https://s3-media1.fl.yelpcdn.com/bphoto/rQX6agHxaevnvsAVZs48Og/o.jpg", "is_closed": false, "url": "https://www.yelp.com/biz/non-solo-piada-new-york?adjust_creative=9gNmiWYX8uTbFBeTTvJMdA&utm_campaign=yelp_api_v3&utm_medium=api_v3_business_search&utm_source=9gNmiWYX8uTbFBeTTvJMdA", "review_count": 407, "categories": [{"alias": "italian", "title": "Italian"}, {"alias": "breakfast_brunch", "title": "Breakfast & Brunch"}, {"alias": "piadina", "title": "Piadina"}], "rating": 4.5, "coordinates": {"latitude": 40.75414, "longitude": -73.99245}, "transactions": ["delivery", "pickup"], "price": "$$", "location": {"address1": "302 W 37th St", "address2": "", "address3": null, "city": "New York", "zip_code": "10018", "country": "US", "state": "NY", "display_address": ["302 W 37th St", "New York, NY 10018"]}, "phone": "+12122160616", "display_phone": "(212) 216-0616", "distance": 2013.1230787123097}, {"id": "qosp2vDDXks8eMGH7p4WSQ", "alias": "la-fortaleza-garfield-garfield", "name": "La Fortaleza - Garfield", "image_url": "https://s3-media2.fl.yelpcdn.com/bphoto/hmu-BWTRMTI5chiOqDGbhQ/o.jpg", "is_closed": false, "url": "https://www.yelp.com/biz/la-fortaleza-garfield-garfield?adjust_creative=9gNmiWYX8uTbFBeTTvJMdA&utm_campaign=yelp_api_v3&utm_medium=api_v3_business_search&utm_source=9gNmiWYX8uTbFBeTTvJMdA", "review_count": 1392, "categories": [{"alias": "mexican", "title": "Mexican"}], "rating": 4.0, "coordinates": {"latitude": 40.8770772, "longitude": -74.1031888}, "transactions": ["delivery", "pickup"], "price": "$$", "location": {"address1": "361 Midland Ave", "address2": "", "address3": "", "city": "Garfield", "zip_code": "07026", "country": "US", "state": "NJ", "display_address": ["361 Midland Ave", "Garfield, NJ 07026"]}, "phone": "+19739284470", "display_phone": "(973) 928-4470", "distance": 17271.335104950078}, {"id": "s-IzpDx-sFdo-3DMN1SlsQ", "alias": "mas-tortilla-forest-hills", "name": "Mas Tortilla", "image_url": "https://s3-media4.fl.yelpcdn.com/bphoto/91rAadSbfxpffwX3X0mIvQ/o.jpg", "is_closed": false, "url": "https://www.yelp.com/biz/mas-tortilla-forest-hills?adjust_creative=9gNmiWYX8uTbFBeTTvJMdA&utm_campaign=yelp_api_v3&utm_medium=api_v3_business_search&utm_source=9gNmiWYX8uTbFBeTTvJMdA", "review_count": 55, "categories": [{"alias": "mexican", "title": "Mexican"}], "rating": 4.5, "coordinates": {"latitude": 40.71744, "longitude": -73.83478}, "transactions": ["delivery", "pickup"], "price": "$$", "location": {"address1": "113-27B Queens Blvd", "address2": null, "address3": "", "city": "Forest Hills", "zip_code": "11375", "country": "US", "state": "NY", "display_address": ["113-27B Queens Blvd", "Forest Hills, NY 11375"]}, "phone": "+17184806418", "display_phone": "(718) 480-6418", "distance": 12259.385076185714}, {"id": "hxJxybl8V752Uz9r50I41g", "alias": "taqueria-al-pastor-brooklyn-3", "name": "Taqueria Al Pastor", "image_url": "https://s3-media1.fl.yelpcdn.com/bphoto/CiiTSJeAWJruFKubNWzgeQ/o.jpg", "is_closed": false, "url": "https://www.yelp.com/biz/taqueria-al-pastor-brooklyn-3?adjust_creative=9gNmiWYX8uTbFBeTTvJMdA&utm_campaign=yelp_api_v3&utm_medium=api_v3_business_search&utm_source=9gNmiWYX8uTbFBeTTvJMdA", "review_count": 71, "categories": [{"alias": "mexican", "title": "Mexican"}], "rating": 4.5, "coordinates": {"latitude": 40.69042, "longitude": -73.99176}, "transactions": ["delivery", "pickup"], "price": "$$", "location": {"address1": "119 Court St", "address2": "", "address3": null, "city": "Brooklyn", "zip_code": "11201", "country": "US", "state": "NY", "display_address": ["119 Court St", "Brooklyn, NY 11201"]}, "phone": "+13472944381", "display_phone": "(347) 294-4381", "distance": 7867.683998929496}, {"id": "z_emTJ2d3kDEe8mz3w-KNw", "alias": "alta-calidad-brooklyn", "name": "Alta Calidad", "image_url": "https://s3-media1.fl.yelpcdn.com/bphoto/fYEIojVGENrJtFWEyP-DgA/o.jpg", "is_closed": false, "url": "https://www.yelp.com/biz/alta-calidad-brooklyn?adjust_creative=9gNmiWYX8uTbFBeTTvJMdA&utm_campaign=yelp_api_v3&utm_medium=api_v3_business_search&utm_source=9gNmiWYX8uTbFBeTTvJMdA", "review_count": 253, "categories": [{"alias": "mexican", "title": "Mexican"}], "rating": 4.0, "coordinates": {"latitude": 40.680141, "longitude": -73.968248}, "transactions": ["delivery", "pickup"], "price": "$$", "location": {"address1": "552 Vanderbilt Ave", "address2": null, "address3": null, "city": "Brooklyn", "zip_code": "11238", "country": "US", "state": "NY", "display_address": ["552 Vanderbilt Ave", "Brooklyn, NY 11238"]}, "phone": "+17186221111", "display_phone": "(718) 622-1111", "distance": 8789.223299278416}, {"id": "2kPGo5wA33eBJj-OzA96tQ", "alias": "bar-san-miguel-new-york-2", "name": "Bar San Miguel", "image_url": "https://s3-media4.fl.yelpcdn.com/bphoto/_6C0JiuJz5HKDDInKrDySA/o.jpg", "is_closed": false, "url": "https://www.yelp.com/biz/bar-san-miguel-new-york-2?adjust_creative=9gNmiWYX8uTbFBeTTvJMdA&utm_campaign=yelp_api_v3&utm_medium=api_v3_business_search&utm_source=9gNmiWYX8uTbFBeTTvJMdA", "review_count": 184, "categories": [{"alias": "mexican", "title": "Mexican"}, {"alias": "cocktailbars", "title": "Cocktail Bars"}, {"alias": "venues", "title": "Venues & Event Spaces"}], "rating": 4.5, "coordinates": {"latitude": 40.68134, "longitude": -73.9938279}, "transactions": ["delivery", "pickup"], "price": "$$", "location": {"address1": "307 Smith St", "address2": "", "address3": "", "city": "New York", "zip_code": "11231", "country": "US", "state": "NY", "display_address": ["307 Smith St", "New York, NY 11231"]}, "phone": "+17185763852", "display_phone": "(718) 576-3852", "distance": 8892.904362168814}, {"id": "NwrqmFGO-utVOG-eeDDuXg", "alias": "penelope-new-york-4", "name": "Penelope", "image_url": "https://s3-media4.fl.yelpcdn.com/bphoto/5gxby8stSAIftZsWju4IAw/o.jpg", "is_closed": false, "url": "https://www.yelp.com/biz/penelope-new-york-4?adjust_creative=9gNmiWYX8uTbFBeTTvJMdA&utm_campaign=yelp_api_v3&utm_medium=api_v3_business_search&utm_source=9gNmiWYX8uTbFBeTTvJMdA", "review_count": 2324, "categories": [{"alias": "tradamerican", "title": "American (Traditional)"}, {"alias": "breakfast_brunch", "title": "Breakfast & Brunch"}, {"alias": "newamerican", "title": "American (New)"}], "rating": 3.5, "coordinates": {"latitude": 40.74371, "longitude": -73.98152}, "transactions": ["delivery", "pickup"], "price": "$$", "location": {"address1": "159 Lexington Ave", "address2": "", "address3": "", "city": "New York", "zip_code": "10016", "country": "US", "state": "NY", "display_address": ["159 Lexington Ave", "New York, NY 10016"]}, "phone": "+12124813800", "display_phone": "(212) 481-3800", "distance": 1994.2042196546872}, {"id": "hSkeb_lmfxnoqg7EVo19Vw", "alias": "taco-mix-new-york", "name": "Taco Mix", "image_url": "https://s3-media2.fl.yelpcdn.com/bphoto/CziTIQ833aCHIERyiTn8_g/o.jpg", "is_closed": false, "url": "https://www.yelp.com/biz/taco-mix-new-york?adjust_creative=9gNmiWYX8uTbFBeTTvJMdA&utm_campaign=yelp_api_v3&utm_medium=api_v3_business_search&utm_source=9gNmiWYX8uTbFBeTTvJMdA", "review_count": 456, "categories": [{"alias": "mexican", "title": "Mexican"}], "rating": 3.5, "coordinates": {"latitude": 40.797098, "longitude": -73.938785}, "transactions": ["delivery", "pickup"], "price": "$$", "location": {"address1": "234 E 116th St", "address2": "", "address3": "", "city": "New York", "zip_code": "10029", "country": "US", "state": "NY", "display_address": ["234 E 116th St", "New York, NY 10029"]}, "phone": "+12122892963", "display_phone": "(212) 289-2963", "distance": 4950.048650096572}, {"id": "igZ0fMz6aCr7j03qomb-tQ", "alias": "figuritas-mexican-kitchen-bayonne", "name": "Figuritas Mexican Kitchen", "image_url": "https://s3-media2.fl.yelpcdn.com/bphoto/Cx1bpXCuGe1bBnXrhK4MXA/o.jpg", "is_closed": false, "url": "https://www.yelp.com/biz/figuritas-mexican-kitchen-bayonne?adjust_creative=9gNmiWYX8uTbFBeTTvJMdA&utm_campaign=yelp_api_v3&utm_medium=api_v3_business_search&utm_source=9gNmiWYX8uTbFBeTTvJMdA", "review_count": 15, "categories": [{"alias": "mexican", "title": "Mexican"}], "rating": 4.5, "coordinates": {"latitude": 40.67800874168431, "longitude": -74.10678905767114}, "transactions": ["delivery", "pickup"], "location": {"address1": "887 Broadway", "address2": "", "address3": null, "city": "Bayonne", "zip_code": "07002", "country": "US", "state": "NJ", "display_address": ["887 Broadway", "Bayonne, NJ 07002"]}, "phone": "+12014552163", "display_phone": "(201) 455-2163", "distance": 14669.110096410912}, {"id": "N39iw9BiwCE0MEmbS8XMcA", "alias": "burrito-bar-and-cafe-new-york-2", "name": "Burrito Bar & Cafe", "image_url": "https://s3-media1.fl.yelpcdn.com/bphoto/0wEFSZMTGX9RB_2fdxV9nA/o.jpg", "is_closed": false, "url": "https://www.yelp.com/biz/burrito-bar-and-cafe-new-york-2?adjust_creative=9gNmiWYX8uTbFBeTTvJMdA&utm_campaign=yelp_api_v3&utm_medium=api_v3_business_search&utm_source=9gNmiWYX8uTbFBeTTvJMdA", "review_count": 7, "categories": [{"alias": "mexican", "title": "Mexican"}], "rating": 2.0, "coordinates": {"latitude": 40.7563699, "longitude": -73.97953}, "transactions": ["delivery", "pickup"], "location": {"address1": "5 W 46th St", "address2": "", "address3": "", "city": "New York", "zip_code": "10036", "country": "US", "state": "NY", "display_address": ["5 W 46th St", "New York, NY 10036"]}, "phone": "+12122627171", "display_phone": "(212) 262-7171", "distance": 913.075581684962}, {"id": "OAqsZMbjv66nOMqlimnYuQ", "alias": "uva-new-york", "name": "Uva", "image_url": "https://s3-media2.fl.yelpcdn.com/bphoto/Dv_IaSo7QTUrRRtclijk2w/o.jpg", "is_closed": false, "url": "https://www.yelp.com/biz/uva-new-york?adjust_creative=9gNmiWYX8uTbFBeTTvJMdA&utm_campaign=yelp_api_v3&utm_medium=api_v3_business_search&utm_source=9gNmiWYX8uTbFBeTTvJMdA", "review_count": 2702, "categories": [{"alias": "italian", "title": "Italian"}, {"alias": "wine_bars", "title": "Wine Bars"}, {"alias": "pizza", "title": "Pizza"}], "rating": 4.0, "coordinates": {"latitude": 40.77219299003591, "longitude": -73.95561517222123}, "transactions": ["delivery", "pickup", "restaurant_reservation"], "price": "$$$", "location": {"address1": "1486 2nd Ave", "address2": null, "address3": "", "city": "New York", "zip_code": "10075", "country": "US", "state": "NY", "display_address": ["1486 2nd Ave", "New York, NY 10075"]}, "phone": "+12124724552", "display_phone": "(212) 472-4552", "distance": 1864.78437788453}, {"id": "fEig4z0y_qCMRLvW7HRuqA", "alias": "hardings-new-york", "name": "Harding's", "image_url": "https://s3-media4.fl.yelpcdn.com/bphoto/1oFtUSY8AbMZKPm3g5xRwQ/o.jpg", "is_closed": false, "url": "https://www.yelp.com/biz/hardings-new-york?adjust_creative=9gNmiWYX8uTbFBeTTvJMdA&utm_campaign=yelp_api_v3&utm_medium=api_v3_business_search&utm_source=9gNmiWYX8uTbFBeTTvJMdA", "review_count": 399, "categories": [{"alias": "cocktailbars", "title": "Cocktail Bars"}, {"alias": "tradamerican", "title": "American (Traditional)"}], "rating": 4.0, "coordinates": {"latitude": 40.7393229, "longitude": -73.9887163}, "transactions": ["delivery", "pickup"], "price": "$$", "location": {"address1": "32 E 21st St", "address2": "", "address3": "", "city": "New York", "zip_code": "10010", "country": "US", "state": "NY", "display_address": ["32 E 21st St", "New York, NY 10010"]}, "phone": "+12126002105", "display_phone": "(212) 600-2105", "distance": 2733.660559125617}, {"id": "SlvNfQsiS1EqfAKUWb-l5w", "alias": "rudy-deli-restaurant-corp-maspeth", "name": "Rudy Deli Restaurant Corp", "image_url": "https://s3-media2.fl.yelpcdn.com/bphoto/hqkFSqbNCkp9bA4jRRGliA/o.jpg", "is_closed": false, "url": "https://www.yelp.com/biz/rudy-deli-restaurant-corp-maspeth?adjust_creative=9gNmiWYX8uTbFBeTTvJMdA&utm_campaign=yelp_api_v3&utm_medium=api_v3_business_search&utm_source=9gNmiWYX8uTbFBeTTvJMdA", "review_count": 7, "categories": [{"alias": "sandwiches", "title": "Sandwiches"}, {"alias": "latin", "title": "Latin American"}], "rating": 4.5, "coordinates": {"latitude": 40.73012148746871, "longitude": -73.91924160211653}, "transactions": ["delivery", "pickup"], "location": {"address1": "5430 48th St", "address2": null, "address3": null, "city": "Maspeth", "zip_code": "11378", "country": "US", "state": "NY", "display_address": ["5430 48th St", "Maspeth, NY 11378"]}, "phone": "+17189377168", "display_phone": "(718) 937-7168", "distance": 5330.655668793847}, {"id": "iw5iI-jFXnDZaeiGt4Weaw", "alias": "twisted-mexican-grill-astoria", "name": "Twisted Mexican Grill", "image_url": "https://s3-media4.fl.yelpcdn.com/bphoto/fZQ_DtDQ8aRDtMKYMgzkVg/o.jpg", "is_closed": false, "url": "https://www.yelp.com/biz/twisted-mexican-grill-astoria?adjust_creative=9gNmiWYX8uTbFBeTTvJMdA&utm_campaign=yelp_api_v3&utm_medium=api_v3_business_search&utm_source=9gNmiWYX8uTbFBeTTvJMdA", "review_count": 69, "categories": [{"alias": "mexican", "title": "Mexican"}, {"alias": "halal", "title": "Halal"}], "rating": 4.0, "coordinates": {"latitude": 40.772422, "longitude": -73.9264379}, "transactions": ["delivery", "pickup"], "price": "$", "location": {"address1": "18-33 Astoria Blvd", "address2": "", "address3": null, "city": "Astoria", "zip_code": "11102", "country": "US", "state": "NY", "display_address": ["18-33 Astoria Blvd", "Astoria, NY 11102"]}, "phone": "+17182781110", "display_phone": "(718) 278-1110", "distance": 3920.0857081630497}, {"id": "rAKTm3QwNgrIcex6ReQC2g", "alias": "mi-rancho-restaurant-hackensack", "name": "Mi Rancho Restaurant", "image_url": "https://s3-media3.fl.yelpcdn.com/bphoto/DYHK2Kq_Oo9gNKRpbibnMg/o.jpg", "is_closed": false, "url": "https://www.yelp.com/biz/mi-rancho-restaurant-hackensack?adjust_creative=9gNmiWYX8uTbFBeTTvJMdA&utm_campaign=yelp_api_v3&utm_medium=api_v3_business_search&utm_source=9gNmiWYX8uTbFBeTTvJMdA", "review_count": 255, "categories": [{"alias": "mexican", "title": "Mexican"}], "rating": 4.0, "coordinates": {"latitude": 40.8800569, "longitude": -74.044232}, "transactions": ["delivery", "pickup"], "price": "$$", "location": {"address1": "59 Main St", "address2": "", "address3": "", "city": "Hackensack", "zip_code": "07601", "country": "US", "state": "NJ", "display_address": ["59 Main St", "Hackensack, NJ 07601"]}, "phone": "+12013424206", "display_phone": "(201) 342-4206", "distance": 14837.172045981728}], "total": 4800, "region": {"center": {"longitude": -73.96957397460938, "latitude": 40.75917470627005}}}