{"businesses": [{"id": "3M6CsWQ_FIAzpxnuqq_eHw", "alias": "las-margaritas-astoria-restaurant-astoria", "name": "Las Margaritas Astoria Restaurant", "image_url": "https://s3-media3.fl.yelpcdn.com/bphoto/j2kER-T3ByZAn1x6LQVrTQ/o.jpg", "is_closed": false, "url": "https://www.yelp.com/biz/las-margaritas-astoria-restaurant-astoria?adjust_creative=9gNmiWYX8uTbFBeTTvJMdA&utm_campaign=yelp_api_v3&utm_medium=api_v3_business_search&utm_source=9gNmiWYX8uTbFBeTTvJMdA", "review_count": 277, "categories": [{"alias": "mexican", "title": "Mexican"}, {"alias": "lounges", "title": "Lounges"}, {"alias": "cocktailbars", "title": "Cocktail Bars"}], "rating": 2.5, "coordinates": {"latitude": 40.7594468, "longitude": -73.9195285}, "transactions": ["pickup", "delivery"], "price": "$$", "location": {"address1": "38-01 Broadway", "address2": null, "address3": "", "city": "Astoria", "zip_code": "11103", "country": "US", "state": "NY", "display_address": ["38-01 Broadway", "Astoria, NY 11103"]}, "phone": "+17187771707", "display_phone": "(718) 777-1707", "distance": 4215.213310855967}, {"id": "jSjiUhpBpFvEIhxjkz1Fcw", "alias": "bk-taco-factory-brooklyn", "name": "BK Taco Factory", "image_url": "https://s3-media4.fl.yelpcdn.com/bphoto/Y5HZR0-t9p2Ui-_MXXRPxA/o.jpg", "is_closed": false, "url": "https://www.yelp.com/biz/bk-taco-factory-brooklyn?adjust_creative=9gNmiWYX8uTbFBeTTvJMdA&utm_campaign=yelp_api_v3&utm_medium=api_v3_business_search&utm_source=9gNmiWYX8uTbFBeTTvJMdA", "review_count": 75, "categories": [{"alias": "tacos", "title": "Tacos"}, {"alias": "seafood", "title": "Seafood"}], "rating": 4.5, "coordinates": {"latitude": 40.699987, "longitude": -73.921334}, "transactions": ["pickup", "delivery"], "location": {"address1": "195 Stanhope St", "address2": "", "address3": null, "city": "Brooklyn", "zip_code": "11237", "country": "US", "state": "NY", "display_address": ["195 Stanhope St", "Brooklyn, NY 11237"]}, "phone": "+17184434200", "display_phone": "(718) 443-4200", "distance": 7734.152275356217}, {"id": "FKzpfWUpyupl4q74Jt8fTA", "alias": "don-antonio-new-york-5", "name": "Don Antonio", "image_url": "https://s3-media1.fl.yelpcdn.com/bphoto/PexNBI8I2mYz8_8AuJgBVQ/o.jpg", "is_closed": false, "url": "https://www.yelp.com/biz/don-antonio-new-york-5?adjust_creative=9gNmiWYX8uTbFBeTTvJMdA&utm_campaign=yelp_api_v3&utm_medium=api_v3_business_search&utm_source=9gNmiWYX8uTbFBeTTvJMdA", "review_count": 1632, "categories": [{"alias": "pizza", "title": "Pizza"}, {"alias": "italian", "title": "Italian"}, {"alias": "cocktailbars", "title": "Cocktail Bars"}], "rating": 4.0, "coordinates": {"latitude": 40.762711, "longitude": -73.986708}, "transactions": ["pickup", "delivery"], "price": "$$", "location": {"address1": "309 W 50th St", "address2": "", "address3": "", "city": "New York", "zip_code": "10019", "country": "US", "state": "NY", "display_address": ["309 W 50th St", "New York, NY 10019"]}, "phone": "+16467191043", "display_phone": "(646) 719-1043", "distance": 1495.6998602280514}, {"id": "P3NfoMjBy_o2BTNNZ-5okg", "alias": "apotheke-new-york-4", "name": "Apotheke", "image_url": "https://s3-media2.fl.yelpcdn.com/bphoto/YIzf8_cqxipU9mj7ZfwwYg/o.jpg", "is_closed": false, "url": "https://www.yelp.com/biz/apotheke-new-york-4?adjust_creative=9gNmiWYX8uTbFBeTTvJMdA&utm_campaign=yelp_api_v3&utm_medium=api_v3_business_search&utm_source=9gNmiWYX8uTbFBeTTvJMdA", "review_count": 1513, "categories": [{"alias": "cocktailbars", "title": "Cocktail Bars"}, {"alias": "speakeasies", "title": "Speakeasies"}], "rating": 3.5, "coordinates": {"latitude": 40.71440617040858, "longitude": -73.99817232132496}, "transactions": [], "price": "$$$", "location": {"address1": "9 Doyers St", "address2": "", "address3": "", "city": "New York", "zip_code": "10013", "country": "US", "state": "NY", "display_address": ["9 Doyers St", "New York, NY 10013"]}, "phone": "+12124060400", "display_phone": "(212) 406-0400", "distance": 5530.513657032952}, {"id": "o5fBZCGs2HCkibIxQ2-2ig", "alias": "las-margaritas-restaurant-and-bar-ridgewood", "name": "Las Margaritas Restaurant & Bar", "image_url": "https://s3-media3.fl.yelpcdn.com/bphoto/wKLz-fIS5BcGzVWKqnoAeA/o.jpg", "is_closed": false, "url": "https://www.yelp.com/biz/las-margaritas-restaurant-and-bar-ridgewood?adjust_creative=9gNmiWYX8uTbFBeTTvJMdA&utm_campaign=yelp_api_v3&utm_medium=api_v3_business_search&utm_source=9gNmiWYX8uTbFBeTTvJMdA", "review_count": 116, "categories": [{"alias": "mexican", "title": "Mexican"}, {"alias": "bars", "title": "Bars"}, {"alias": "spanish", "title": "Spanish"}], "rating": 4.0, "coordinates": {"latitude": 40.70541, "longitude": -73.89673}, "transactions": ["pickup", "delivery"], "price": "$$", "location": {"address1": "6712 Fresh Pond Rd", "address2": "", "address3": null, "city": "Ridgewood", "zip_code": "11385", "country": "US", "state": "NY", "display_address": ["6712 Fresh Pond Rd", "Ridgewood, NY 11385"]}, "phone": "+17184174040", "display_phone": "(718) 417-4040", "distance": 8567.628273746404}, {"id": "6CEVkAlYw9W_ZHOuNylr8w", "alias": "home-made-taqueria-brooklyn", "name": "Home Made Taqueria", "image_url": "https://s3-media1.fl.yelpcdn.com/bphoto/Km6-xaJUIFJfwt7hEz-X0A/o.jpg", "is_closed": false, "url": "https://www.yelp.com/biz/home-made-taqueria-brooklyn?adjust_creative=9gNmiWYX8uTbFBeTTvJMdA&utm_campaign=yelp_api_v3&utm_medium=api_v3_business_search&utm_source=9gNmiWYX8uTbFBeTTvJMdA", "review_count": 25, "categories": [{"alias": "mexican", "title": "Mexican"}], "rating": 4.5, "coordinates": {"latitude": 40.720638, "longitude": -73.943909}, "transactions": ["pickup", "delivery"], "location": {"address1": "517 Meeker Ave", "address2": "", "address3": null, "city": "Brooklyn", "zip_code": "11222", "country": "US", "state": "NY", "display_address": ["517 Meeker Ave", "Brooklyn, NY 11222"]}, "phone": "+13475990090", "display_phone": "(347) 599-0090", "distance": 4799.725022415001}, {"id": "wygR5Tl5bS42ojSGEZHf8w", "alias": "bar-cima-new-york", "name": "Bar Cima", "image_url": "https://s3-media4.fl.yelpcdn.com/bphoto/WOOyw5y5ynLhrR91gQuS8g/o.jpg", "is_closed": false, "url": "https://www.yelp.com/biz/bar-cima-new-york?adjust_creative=9gNmiWYX8uTbFBeTTvJMdA&utm_campaign=yelp_api_v3&utm_medium=api_v3_business_search&utm_source=9gNmiWYX8uTbFBeTTvJMdA", "review_count": 3, "categories": [{"alias": "lounges", "title": "Lounges"}, {"alias": "cocktailbars", "title": "Cocktail Bars"}], "rating": 5.0, "coordinates": {"latitude": 40.75213, "longitude": -73.98383}, "transactions": [], "location": {"address1": "30 W 39th St", "address2": "", "address3": null, "city": "New York", "zip_code": "10018", "country": "US", "state": "NY", "display_address": ["30 W 39th St", "New York, NY 10018"]}, "phone": "+16466858274", "display_phone": "(646) 685-8274", "distance": 1437.424642648416}, {"id": "cQWUPxESnMx69dshABS_rg", "alias": "taquitos-mexico-brooklyn", "name": "Taquitos Mexico", "image_url": "https://s3-media2.fl.yelpcdn.com/bphoto/3NgsXs38KNRYaNtYFs3Cag/o.jpg", "is_closed": false, "url": "https://www.yelp.com/biz/taquitos-mexico-brooklyn?adjust_creative=9gNmiWYX8uTbFBeTTvJMdA&utm_campaign=yelp_api_v3&utm_medium=api_v3_business_search&utm_source=9gNmiWYX8uTbFBeTTvJMdA", "review_count": 232, "categories": [{"alias": "mexican", "title": "Mexican"}], "rating": 4.0, "coordinates": {"latitude": 40.623125, "longitude": -74.00117}, "transactions": ["pickup", "delivery"], "price": "$", "location": {"address1": "6720 14th Ave", "address2": "", "address3": "", "city": "Brooklyn", "zip_code": "11219", "country": "US", "state": "NY", "display_address": ["6720 14th Ave", "Brooklyn, NY 11219"]}, "phone": "+17189424990", "display_phone": "(718) 942-4990", "distance": 15360.77621093469}, {"id": "sZPxl39jgDcxdOoES9Q7Hw", "alias": "my-ranch-taqueria-englewood-2", "name": "My Ranch Taqueria", "image_url": "https://s3-media3.fl.yelpcdn.com/bphoto/Qq3hEkpGJoBm_Xza4yGoAQ/o.jpg", "is_closed": false, "url": "https://www.yelp.com/biz/my-ranch-taqueria-englewood-2?adjust_creative=9gNmiWYX8uTbFBeTTvJMdA&utm_campaign=yelp_api_v3&utm_medium=api_v3_business_search&utm_source=9gNmiWYX8uTbFBeTTvJMdA", "review_count": 91, "categories": [{"alias": "mexican", "title": "Mexican"}], "rating": 4.5, "coordinates": {"latitude": 40.88346, "longitude": -73.98919}, "transactions": ["pickup", "delivery"], "price": "$$", "location": {"address1": "134 Rt 4 E", "address2": null, "address3": "", "city": "Englewood", "zip_code": "07631", "country": "US", "state": "NJ", "display_address": ["134 Rt 4 E", "Englewood, NJ 07631"]}, "phone": "+12014319004", "display_phone": "(201) 431-9004", "distance": 13933.828578816529}, {"id": "httHQj4gGRsgFAh3y65jtg", "alias": "playwright-tavern-and-restaurant-new-york-3", "name": "Playwright Tavern & Restaurant", "image_url": "https://s3-media2.fl.yelpcdn.com/bphoto/S9ZDK4ZTz3l7Eh5ja5NE4w/o.jpg", "is_closed": false, "url": "https://www.yelp.com/biz/playwright-tavern-and-restaurant-new-york-3?adjust_creative=9gNmiWYX8uTbFBeTTvJMdA&utm_campaign=yelp_api_v3&utm_medium=api_v3_business_search&utm_source=9gNmiWYX8uTbFBeTTvJMdA", "review_count": 390, "categories": [{"alias": "tradamerican", "title": "American (Traditional)"}, {"alias": "irish_pubs", "title": "Irish Pub"}], "rating": 3.5, "coordinates": {"latitude": 40.760541, "longitude": -73.984125}, "transactions": ["delivery"], "price": "$$", "location": {"address1": "202 W 49th St", "address2": null, "address3": "", "city": "New York", "zip_code": "10019", "country": "US", "state": "NY", "display_address": ["202 W 49th St", "New York, NY 10019"]}, "phone": "+12122629229", "display_phone": "(212) 262-9229", "distance": 1234.9378893260396}, {"id": "HMxnmbxliUkf5askOyKxaA", "alias": "viva-margarita-hackensack", "name": "Viva Margarita", "image_url": "https://s3-media1.fl.yelpcdn.com/bphoto/QX0iCPQzPYlrmjXj44Xi3w/o.jpg", "is_closed": false, "url": "https://www.yelp.com/biz/viva-margarita-hackensack?adjust_creative=9gNmiWYX8uTbFBeTTvJMdA&utm_campaign=yelp_api_v3&utm_medium=api_v3_business_search&utm_source=9gNmiWYX8uTbFBeTTvJMdA", "review_count": 45, "categories": [{"alias": "mexican", "title": "Mexican"}, {"alias": "cocktailbars", "title": "Cocktail Bars"}], "rating": 3.5, "coordinates": {"latitude": 40.90364, "longitude": -74.04188}, "transactions": ["pickup", "delivery"], "price": "$$", "location": {"address1": "774 Main St", "address2": "", "address3": null, "city": "Hackensack", "zip_code": "07601", "country": "US", "state": "NJ", "display_address": ["774 Main St", "Hackensack, NJ 07601"]}, "phone": "+12013797779", "display_phone": "(201) 379-7779", "distance": 17196.245895062526}, {"id": "_Pz5L7DGORcaThGB4CWcfg", "alias": "la-loncheria-brooklyn", "name": "La Loncheria", "image_url": "https://s3-media3.fl.yelpcdn.com/bphoto/fgM5tTcmM1j7w2z-e1aZDA/o.jpg", "is_closed": false, "url": "https://www.yelp.com/biz/la-loncheria-brooklyn?adjust_creative=9gNmiWYX8uTbFBeTTvJMdA&utm_campaign=yelp_api_v3&utm_medium=api_v3_business_search&utm_source=9gNmiWYX8uTbFBeTTvJMdA", "review_count": 72, "categories": [{"alias": "mexican", "title": "Mexican"}], "rating": 4.5, "coordinates": {"latitude": 40.702921, "longitude": -73.929105}, "transactions": ["pickup", "delivery"], "price": "$$", "location": {"address1": "41 Wilson Ave", "address2": "", "address3": null, "city": "Brooklyn", "zip_code": "11237", "country": "US", "state": "NY", "display_address": ["41 Wilson Ave", "Brooklyn, NY 11237"]}, "phone": "+12127294235", "display_phone": "(212) 729-4235", "distance": 7124.212475927317}, {"id": "DaZ7-WpvtPkZxViVzt9pnQ", "alias": "flaming-burritos-union-city", "name": "Flaming Burritos", "image_url": "https://s3-media3.fl.yelpcdn.com/bphoto/DLE5uZ7QhSVfe73o5rAtLg/o.jpg", "is_closed": false, "url": "https://www.yelp.com/biz/flaming-burritos-union-city?adjust_creative=9gNmiWYX8uTbFBeTTvJMdA&utm_campaign=yelp_api_v3&utm_medium=api_v3_business_search&utm_source=9gNmiWYX8uTbFBeTTvJMdA", "review_count": 234, "categories": [{"alias": "mexican", "title": "Mexican"}, {"alias": "tex-mex", "title": "Tex-Mex"}], "rating": 3.5, "coordinates": {"latitude": 40.77843, "longitude": -74.017}, "transactions": ["pickup", "delivery"], "price": "$$", "location": {"address1": "4625 Park Ave", "address2": "", "address3": "", "city": "Union City", "zip_code": "07087", "country": "US", "state": "NJ", "display_address": ["4625 Park Ave", "Union City, NJ 07087"]}, "phone": "+12017585410", "display_phone": "(201) 758-5410", "distance": 4525.150840656862}, {"id": "dxvR8EWhq90Th1Pda47QMg", "alias": "taco-today-sunnyside", "name": "Taco Today", "image_url": "https://s3-media2.fl.yelpcdn.com/bphoto/8mLBlse1bPW31H_lq54LUA/o.jpg", "is_closed": false, "url": "https://www.yelp.com/biz/taco-today-sunnyside?adjust_creative=9gNmiWYX8uTbFBeTTvJMdA&utm_campaign=yelp_api_v3&utm_medium=api_v3_business_search&utm_source=9gNmiWYX8uTbFBeTTvJMdA", "review_count": 20, "categories": [{"alias": "hotdogs", "title": "Fast Food"}, {"alias": "tacos", "title": "Tacos"}], "rating": 4.0, "coordinates": {"latitude": 40.7405494712194, "longitude": -73.9226905016578}, "transactions": ["delivery"], "location": {"address1": "42-22 Greenpoint Ave", "address2": "", "address3": null, "city": "Sunnyside", "zip_code": "11104", "country": "US", "state": "NY", "display_address": ["42-22 Greenpoint Ave", "Sunnyside, NY 11104"]}, "phone": "+17184339825", "display_phone": "(718) 433-9825", "distance": 4484.4670137575595}, {"id": "TleAd45T6-9TP7FBO19dww", "alias": "tri-mexican-tacos-new-york", "name": "TRI Mexican Tacos", "image_url": "https://s3-media2.fl.yelpcdn.com/bphoto/k6ziUly9KGurh7GQQ4-RhQ/o.jpg", "is_closed": false, "url": "https://www.yelp.com/biz/tri-mexican-tacos-new-york?adjust_creative=9gNmiWYX8uTbFBeTTvJMdA&utm_campaign=yelp_api_v3&utm_medium=api_v3_business_search&utm_source=9gNmiWYX8uTbFBeTTvJMdA", "review_count": 10, "categories": [{"alias": "foodstands", "title": "Food Stands"}, {"alias": "mexican", "title": "Mexican"}], "rating": 4.5, "coordinates": {"latitude": 40.73918, "longitude": -73.98977}, "transactions": [], "price": "$", "location": {"address1": "20th St & Broadway", "address2": "", "address3": "", "city": "New York", "zip_code": "10003", "country": "US", "state": "NY", "display_address": ["20th St & Broadway", "New York, NY 10003"]}, "phone": "", "display_phone": "", "distance": 2798.0796687218767}, {"id": "fc61TdsmBK_iX67P_gI-YA", "alias": "jicama-nyc-new-york-2", "name": "Jicama NYC", "image_url": "https://s3-media1.fl.yelpcdn.com/bphoto/vBqm-JHPh-k0BuGKWyiXRw/o.jpg", "is_closed": false, "url": "https://www.yelp.com/biz/jicama-nyc-new-york-2?adjust_creative=9gNmiWYX8uTbFBeTTvJMdA&utm_campaign=yelp_api_v3&utm_medium=api_v3_business_search&utm_source=9gNmiWYX8uTbFBeTTvJMdA", "review_count": 20, "categories": [{"alias": "foodstands", "title": "Food Stands"}, {"alias": "mexican", "title": "Mexican"}], "rating": 3.5, "coordinates": {"latitude": 40.74826, "longitude": -73.988506}, "transactions": [], "price": "$", "location": {"address1": "894 Ave Of The Americas", "address2": "", "address3": "", "city": "New York", "zip_code": "10001", "country": "US", "state": "NY", "display_address": ["894 Ave Of The Americas", "New York, NY 10001"]}, "phone": "", "display_phone": "", "distance": 2003.9995173308641}, {"id": "_5G0SOM1ogWTsSmPBGRfzA", "alias": "el-gallo-taqueria-brooklyn-2", "name": "El Gallo Taqueria", "image_url": "https://s3-media1.fl.yelpcdn.com/bphoto/5q6-_W4V6jM-RL6jMFLDyg/o.jpg", "is_closed": false, "url": "https://www.yelp.com/biz/el-gallo-taqueria-brooklyn-2?adjust_creative=9gNmiWYX8uTbFBeTTvJMdA&utm_campaign=yelp_api_v3&utm_medium=api_v3_business_search&utm_source=9gNmiWYX8uTbFBeTTvJMdA", "review_count": 336, "categories": [{"alias": "tex-mex", "title": "Tex-Mex"}, {"alias": "newmexican", "title": "New Mexican Cuisine"}, {"alias": "mexican", "title": "Mexican"}], "rating": 4.0, "coordinates": {"latitude": 40.6035151454871, "longitude": -73.9779098353486}, "transactions": ["pickup", "delivery"], "price": "$$", "location": {"address1": "214 Highlawn Ave", "address2": "", "address3": null, "city": "Brooklyn", "zip_code": "11223", "country": "US", "state": "NY", "display_address": ["214 Highlawn Ave", "Brooklyn, NY 11223"]}, "phone": "+19176682332", "display_phone": "(917) 668-2332", "distance": 17322.801332130188}, {"id": "oq-3mheTFeiOq6ojzdzSNg", "alias": "cloister-cafe-new-york", "name": "Cloister Cafe", "image_url": "https://s3-media2.fl.yelpcdn.com/bphoto/yz_jJiWqZossG4FwB9RvbQ/o.jpg", "is_closed": false, "url": "https://www.yelp.com/biz/cloister-cafe-new-york?adjust_creative=9gNmiWYX8uTbFBeTTvJMdA&utm_campaign=yelp_api_v3&utm_medium=api_v3_business_search&utm_source=9gNmiWYX8uTbFBeTTvJMdA", "review_count": 506, "categories": [{"alias": "brazilian", "title": "Brazilian"}, {"alias": "mexican", "title": "Mexican"}, {"alias": "cocktailbars", "title": "Cocktail Bars"}], "rating": 3.0, "coordinates": {"latitude": 40.7293917334589, "longitude": -73.987914828836}, "transactions": ["pickup", "delivery"], "price": "$$", "location": {"address1": "238 E 9th St", "address2": "", "address3": "", "city": "New York", "zip_code": "10003", "country": "US", "state": "NY", "display_address": ["238 E 9th St", "New York, NY 10003"]}, "phone": "+12127779128", "display_phone": "(212) 777-9128", "distance": 3654.424770044165}, {"id": "5fUY5sq00VMPdb1SDJWBug", "alias": "new-mexico-place-brooklyn", "name": "New Mexico Place", "image_url": "https://s3-media1.fl.yelpcdn.com/bphoto/cjc2QiiLMto0yBZyJcnJ-Q/o.jpg", "is_closed": false, "url": "https://www.yelp.com/biz/new-mexico-place-brooklyn?adjust_creative=9gNmiWYX8uTbFBeTTvJMdA&utm_campaign=yelp_api_v3&utm_medium=api_v3_business_search&utm_source=9gNmiWYX8uTbFBeTTvJMdA", "review_count": 214, "categories": [{"alias": "mexican", "title": "Mexican"}, {"alias": "salad", "title": "Salad"}, {"alias": "seafood", "title": "Seafood"}], "rating": 3.5, "coordinates": {"latitude": 40.70851, "longitude": -73.94356}, "transactions": ["pickup", "delivery"], "price": "$", "location": {"address1": "189 Graham Ave", "address2": "", "address3": "", "city": "Brooklyn", "zip_code": "11206", "country": "US", "state": "NY", "display_address": ["189 Graham Ave", "Brooklyn, NY 11206"]}, "phone": "+17183024573", "display_phone": "(718) 302-4573", "distance": 6043.025937725748}, {"id": "Ai2mbsb0cYZoMWC3DAAP3Q", "alias": "bklyn-burro-brooklyn-5", "name": "B'klyn Burro", "image_url": "https://s3-media2.fl.yelpcdn.com/bphoto/-2YchsT4WP7iZe9-DCNzcA/o.jpg", "is_closed": false, "url": "https://www.yelp.com/biz/bklyn-burro-brooklyn-5?adjust_creative=9gNmiWYX8uTbFBeTTvJMdA&utm_campaign=yelp_api_v3&utm_medium=api_v3_business_search&utm_source=9gNmiWYX8uTbFBeTTvJMdA", "review_count": 146, "categories": [{"alias": "mexican", "title": "Mexican"}], "rating": 4.0, "coordinates": {"latitude": 40.6827188, "longitude": -73.9640973}, "transactions": ["pickup", "delivery"], "price": "$$", "location": {"address1": "922 Fulton St", "address2": null, "address3": "", "city": "Brooklyn", "zip_code": "11238", "country": "US", "state": "NY", "display_address": ["922 Fulton St", "Brooklyn, NY 11238"]}, "phone": "+17186228776", "display_phone": "(718) 622-8776", "distance": 8514.018660042822}, {"id": "jHd7KHMvpI53bZyL9UGTug", "alias": "oxido-new-york-3", "name": "Oxido", "image_url": "https://s3-media2.fl.yelpcdn.com/bphoto/HdknsZK4Afdzm2G0Ikeakg/o.jpg", "is_closed": false, "url": "https://www.yelp.com/biz/oxido-new-york-3?adjust_creative=9gNmiWYX8uTbFBeTTvJMdA&utm_campaign=yelp_api_v3&utm_medium=api_v3_business_search&utm_source=9gNmiWYX8uTbFBeTTvJMdA", "review_count": 50, "categories": [{"alias": "mexican", "title": "Mexican"}], "rating": 3.5, "coordinates": {"latitude": 40.7547219061481, "longitude": -73.9862432694773}, "transactions": ["pickup", "delivery"], "location": {"address1": "1450 Broadway", "address2": "", "address3": null, "city": "New York", "zip_code": "10036", "country": "US", "state": "NY", "display_address": ["1450 Broadway", "New York, NY 10036"]}, "phone": "+12122217640", "display_phone": "(212) 221-7640", "distance": 1488.7749111121284}, {"id": "c_Kellz-oODKoNpcRbV24w", "alias": "mono-mono-new-york-9", "name": "MONO+MONO", "image_url": "https://s3-media3.fl.yelpcdn.com/bphoto/nqXBTIgznqjmbESAZsW0hA/o.jpg", "is_closed": false, "url": "https://www.yelp.com/biz/mono-mono-new-york-9?adjust_creative=9gNmiWYX8uTbFBeTTvJMdA&utm_campaign=yelp_api_v3&utm_medium=api_v3_business_search&utm_source=9gNmiWYX8uTbFBeTTvJMdA", "review_count": 826, "categories": [{"alias": "korean", "title": "Korean"}, {"alias": "cocktailbars", "title": "Cocktail Bars"}, {"alias": "desserts", "title": "Desserts"}], "rating": 4.0, "coordinates": {"latitude": 40.72549, "longitude": -73.98803}, "transactions": ["pickup", "delivery"], "price": "$$", "location": {"address1": "116 E 4th St", "address2": "", "address3": "", "city": "New York", "zip_code": "10003", "country": "US", "state": "NY", "display_address": ["116 E 4th St", "New York, NY 10003"]}, "phone": "+13476202431", "display_phone": "(347) 620-2431", "distance": 4064.1229632424997}, {"id": "GAvyDral555vltKrupUcjw", "alias": "osteria-laguna-new-york", "name": "Osteria Laguna", "image_url": "https://s3-media2.fl.yelpcdn.com/bphoto/0slQRRmdXa2m43Z2gLcjFQ/o.jpg", "is_closed": false, "url": "https://www.yelp.com/biz/osteria-laguna-new-york?adjust_creative=9gNmiWYX8uTbFBeTTvJMdA&utm_campaign=yelp_api_v3&utm_medium=api_v3_business_search&utm_source=9gNmiWYX8uTbFBeTTvJMdA", "review_count": 397, "categories": [{"alias": "italian", "title": "Italian"}, {"alias": "desserts", "title": "Desserts"}, {"alias": "wine_bars", "title": "Wine Bars"}], "rating": 3.5, "coordinates": {"latitude": 40.750656315963745, "longitude": -73.97356620000002}, "transactions": ["pickup", "delivery"], "price": "$$$", "location": {"address1": "209 E 42nd St", "address2": "", "address3": "", "city": "New York", "zip_code": "10017", "country": "US", "state": "NY", "display_address": ["209 E 42nd St", "New York, NY 10017"]}, "phone": "+12125570001", "display_phone": "(212) 557-0001", "distance": 1005.1200575834564}, {"id": "MIaM6XD8nW-y89GaXxs-pw", "alias": "yolandas-tamales-new-york", "name": "Yolanda's Tamales", "image_url": "https://s3-media3.fl.yelpcdn.com/bphoto/LEHxdMh-w9BoLOu8Vlu0Sg/o.jpg", "is_closed": false, "url": "https://www.yelp.com/biz/yolandas-tamales-new-york?adjust_creative=9gNmiWYX8uTbFBeTTvJMdA&utm_campaign=yelp_api_v3&utm_medium=api_v3_business_search&utm_source=9gNmiWYX8uTbFBeTTvJMdA", "review_count": 41, "categories": [{"alias": "mexican", "title": "Mexican"}, {"alias": "foodstands", "title": "Food Stands"}], "rating": 5.0, "coordinates": {"latitude": 40.821342, "longitude": -73.953975}, "transactions": [], "price": "$", "location": {"address1": "3380 Broadway", "address2": "", "address3": "", "city": "New York", "zip_code": "10031", "country": "US", "state": "NY", "display_address": ["3380 Broadway", "New York, NY 10031"]}, "phone": "+13474993757", "display_phone": "(347) 499-3757", "distance": 7036.312214677943}, {"id": "Uut2fBy53XdIgx1rLWdQeg", "alias": "empanada-mama-l-e-s-new-york-10", "name": "Empanada Mama L.E.S", "image_url": "https://s3-media2.fl.yelpcdn.com/bphoto/jVEXnJv1Qg5orvbDo7Lq2g/o.jpg", "is_closed": false, "url": "https://www.yelp.com/biz/empanada-mama-l-e-s-new-york-10?adjust_creative=9gNmiWYX8uTbFBeTTvJMdA&utm_campaign=yelp_api_v3&utm_medium=api_v3_business_search&utm_source=9gNmiWYX8uTbFBeTTvJMdA", "review_count": 905, "categories": [{"alias": "latin", "title": "Latin American"}, {"alias": "fooddeliveryservices", "title": "Food Delivery Services"}, {"alias": "burgers", "title": "Burgers"}], "rating": 4.0, "coordinates": {"latitude": 40.71873, "longitude": -73.9909}, "transactions": ["pickup", "delivery"], "price": "$", "location": {"address1": "95 Allen St", "address2": null, "address3": "", "city": "New York", "zip_code": "10002", "country": "US", "state": "NY", "display_address": ["95 Allen St", "New York, NY 10002"]}, "phone": "+12126730300", "display_phone": "(212) 673-0300", "distance": 4842.609783871834}, {"id": "rFhI8Gedy7XQksVD-ixOHw", "alias": "oppa-bistro-new-york", "name": "Oppa Bistro", "image_url": "https://s3-media3.fl.yelpcdn.com/bphoto/FxzgzXmz9MoV0O5j5G5eSA/o.jpg", "is_closed": false, "url": "https://www.yelp.com/biz/oppa-bistro-new-york?adjust_creative=9gNmiWYX8uTbFBeTTvJMdA&utm_campaign=yelp_api_v3&utm_medium=api_v3_business_search&utm_source=9gNmiWYX8uTbFBeTTvJMdA", "review_count": 166, "categories": [{"alias": "cocktailbars", "title": "Cocktail Bars"}, {"alias": "tapasmallplates", "title": "Tapas/Small Plates"}, {"alias": "korean", "title": "Korean"}], "rating": 4.0, "coordinates": {"latitude": 40.731826, "longitude": -74.0013903}, "transactions": ["pickup", "delivery"], "price": "$$", "location": {"address1": "162 West 4th St", "address2": "", "address3": "", "city": "New York", "zip_code": "10014", "country": "US", "state": "NY", "display_address": ["162 West 4th St", "New York, NY 10014"]}, "phone": "+16464100503", "display_phone": "(646) 410-0503", "distance": 4053.629006144568}, {"id": "S-BwjmHOZ--bC4nUR4-cmA", "alias": "oceana-new-york-2", "name": "Oceana", "image_url": "https://s3-media1.fl.yelpcdn.com/bphoto/XN6FbnVxecR2hWN5x7Fk0g/o.jpg", "is_closed": false, "url": "https://www.yelp.com/biz/oceana-new-york-2?adjust_creative=9gNmiWYX8uTbFBeTTvJMdA&utm_campaign=yelp_api_v3&utm_medium=api_v3_business_search&utm_source=9gNmiWYX8uTbFBeTTvJMdA", "review_count": 621, "categories": [{"alias": "seafood", "title": "Seafood"}], "rating": 4.0, "coordinates": {"latitude": 40.7597971248568, "longitude": -73.9825657859833}, "transactions": ["delivery"], "price": "$$$", "location": {"address1": "120 W 49th St", "address2": "", "address3": "", "city": "New York", "zip_code": "10020", "country": "US", "state": "NY", "display_address": ["120 W 49th St", "New York, NY 10020"]}, "phone": "+12127595941", "display_phone": "(212) 759-5941", "distance": 1096.425381266376}, {"id": "kawmpvfSzhDAy9pk8n3MxQ", "alias": "the-haab-woodside-2", "name": "The Haab", "image_url": "https://s3-media2.fl.yelpcdn.com/bphoto/saJpQ5icFrHRn27OyXwqbw/o.jpg", "is_closed": false, "url": "https://www.yelp.com/biz/the-haab-woodside-2?adjust_creative=9gNmiWYX8uTbFBeTTvJMdA&utm_campaign=yelp_api_v3&utm_medium=api_v3_business_search&utm_source=9gNmiWYX8uTbFBeTTvJMdA", "review_count": 198, "categories": [{"alias": "mexican", "title": "Mexican"}, {"alias": "breakfast_brunch", "title": "Breakfast & Brunch"}], "rating": 4.0, "coordinates": {"latitude": 40.740273, "longitude": -73.917675}, "transactions": ["pickup", "delivery"], "price": "$$", "location": {"address1": "4722 48th Ave", "address2": "", "address3": "", "city": "Woodside", "zip_code": "11377", "country": "US", "state": "NY", "display_address": ["4722 48th Ave", "Woodside, NY 11377"]}, "phone": "+17187294838", "display_phone": "(718) 729-4838", "distance": 4850.823584420018}, {"id": "TPGpcrpSm4V8blvXnIgakQ", "alias": "xime-deli-the-bronx", "name": "Xime Deli", "image_url": "https://s3-media2.fl.yelpcdn.com/bphoto/-PMqUBPibZ1ij15thrLo7w/o.jpg", "is_closed": false, "url": "https://www.yelp.com/biz/xime-deli-the-bronx?adjust_creative=9gNmiWYX8uTbFBeTTvJMdA&utm_campaign=yelp_api_v3&utm_medium=api_v3_business_search&utm_source=9gNmiWYX8uTbFBeTTvJMdA", "review_count": 5, "categories": [{"alias": "mexican", "title": "Mexican"}, {"alias": "beerbar", "title": "Beer Bar"}], "rating": 5.0, "coordinates": {"latitude": 40.808248, "longitude": -73.921432}, "transactions": ["pickup", "delivery"], "location": {"address1": "448 E 138th St", "address2": null, "address3": null, "city": "The Bronx", "zip_code": "10454", "country": "US", "state": "NY", "display_address": ["448 E 138th St", "The Bronx, NY 10454"]}, "phone": "+13472704167", "display_phone": "(347) 270-4167", "distance": 6799.918045859347}, {"id": "VMi_DQ5eszzDoJ5QVDy22w", "alias": "alfaro-s-restaurant-north-bergen", "name": "Alfaro\u2019s Restaurant", "image_url": "https://s3-media4.fl.yelpcdn.com/bphoto/zLi2zxGxPQLs5BTW5EVyrg/o.jpg", "is_closed": false, "url": "https://www.yelp.com/biz/alfaro-s-restaurant-north-bergen?adjust_creative=9gNmiWYX8uTbFBeTTvJMdA&utm_campaign=yelp_api_v3&utm_medium=api_v3_business_search&utm_source=9gNmiWYX8uTbFBeTTvJMdA", "review_count": 1, "categories": [{"alias": "mexican", "title": "Mexican"}], "rating": 5.0, "coordinates": {"latitude": 40.80355, "longitude": -74.00558}, "transactions": [], "location": {"address1": "8123 Bergenline Ave", "address2": "", "address3": null, "city": "North Bergen", "zip_code": "07047", "country": "US", "state": "NJ", "display_address": ["8123 Bergenline Ave", "North Bergen, NJ 07047"]}, "phone": "+12018541300", "display_phone": "(201) 854-1300", "distance": 5791.653005258574}, {"id": "h8uXSLLFAdgltp36x0sXJQ", "alias": "chofi-birria-union-city", "name": "Chofi Birria", "image_url": "https://s3-media4.fl.yelpcdn.com/bphoto/GKPB6JZgG5rvaoUWuAnFzQ/o.jpg", "is_closed": false, "url": "https://www.yelp.com/biz/chofi-birria-union-city?adjust_creative=9gNmiWYX8uTbFBeTTvJMdA&utm_campaign=yelp_api_v3&utm_medium=api_v3_business_search&utm_source=9gNmiWYX8uTbFBeTTvJMdA", "review_count": 145, "categories": [{"alias": "mexican", "title": "Mexican"}], "rating": 4.5, "coordinates": {"latitude": 40.76468, "longitude": -74.0392}, "transactions": ["pickup", "delivery"], "price": "$$", "location": {"address1": "1706 Summit Ave", "address2": null, "address3": null, "city": "Union City", "zip_code": "07087", "country": "US", "state": "NJ", "display_address": ["1706 Summit Ave", "Union City, NJ 07087"]}, "phone": "+12014306515", "display_phone": "(201) 430-6515", "distance": 5894.055725894043}, {"id": "iufQFxf-g1j-5lC6GRTiog", "alias": "the-migrant-kitchen-brooklyn-brooklyn", "name": "The Migrant Kitchen - Brooklyn", "image_url": "https://s3-media1.fl.yelpcdn.com/bphoto/Q2kxEefNhre0WBriY_i3MA/o.jpg", "is_closed": false, "url": "https://www.yelp.com/biz/the-migrant-kitchen-brooklyn-brooklyn?adjust_creative=9gNmiWYX8uTbFBeTTvJMdA&utm_campaign=yelp_api_v3&utm_medium=api_v3_business_search&utm_source=9gNmiWYX8uTbFBeTTvJMdA", "review_count": 53, "categories": [{"alias": "mideastern", "title": "Middle Eastern"}, {"alias": "latin", "title": "Latin American"}], "rating": 4.5, "coordinates": {"latitude": 40.70343127955398, "longitude": -73.99161055480388}, "transactions": ["pickup", "delivery"], "location": {"address1": "55 Water St", "address2": null, "address3": "", "city": "Brooklyn", "zip_code": "11201", "country": "US", "state": "NY", "display_address": ["55 Water St", "Brooklyn, NY 11201"]}, "phone": "+19177475601", "display_phone": "(917) 747-5601", "distance": 6470.5254765954805}, {"id": "njV8tFM7PivgDhWng_Lb6g", "alias": "las-margaritas-brooklyn-2", "name": "Las Margaritas", "image_url": "https://s3-media4.fl.yelpcdn.com/bphoto/tqqzcRpCeK-5Nu0zhJYWfw/o.jpg", "is_closed": false, "url": "https://www.yelp.com/biz/las-margaritas-brooklyn-2?adjust_creative=9gNmiWYX8uTbFBeTTvJMdA&utm_campaign=yelp_api_v3&utm_medium=api_v3_business_search&utm_source=9gNmiWYX8uTbFBeTTvJMdA", "review_count": 307, "categories": [{"alias": "mexican", "title": "Mexican"}], "rating": 4.0, "coordinates": {"latitude": 40.6333399, "longitude": -74.02719}, "transactions": ["pickup", "delivery"], "price": "$$", "location": {"address1": "7206 3rd Ave", "address2": "", "address3": "", "city": "Brooklyn", "zip_code": "11209", "country": "US", "state": "NY", "display_address": ["7206 3rd Ave", "Brooklyn, NY 11209"]}, "phone": "+17182387630", "display_phone": "(718) 238-7630", "distance": 14809.836266613733}, {"id": "FaebPpZ8fKuvPtMOZ_dslw", "alias": "estrellita-poblana-iii-bronx", "name": "Estrellita Poblana III", "image_url": "https://s3-media4.fl.yelpcdn.com/bphoto/iDjs0I34HAVNg_8ST0u4Yw/o.jpg", "is_closed": false, "url": "https://www.yelp.com/biz/estrellita-poblana-iii-bronx?adjust_creative=9gNmiWYX8uTbFBeTTvJMdA&utm_campaign=yelp_api_v3&utm_medium=api_v3_business_search&utm_source=9gNmiWYX8uTbFBeTTvJMdA", "review_count": 188, "categories": [{"alias": "mexican", "title": "Mexican"}], "rating": 4.0, "coordinates": {"latitude": 40.853828, "longitude": -73.888672}, "transactions": [], "price": "$$", "location": {"address1": "2328 Arthur Ave", "address2": "Ste 5", "address3": "", "city": "Bronx", "zip_code": "10458", "country": "US", "state": "NY", "display_address": ["2328 Arthur Ave", "Ste 5", "Bronx, NY 10458"]}, "phone": "+17182207641", "display_phone": "(718) 220-7641", "distance": 12535.249710023789}, {"id": "lwdQoALcv8OguKwUahqhZg", "alias": "darios-restaurant-newark", "name": "Dario's Restaurant", "image_url": "https://s3-media1.fl.yelpcdn.com/bphoto/OySMmfMMyUw6Tj7ty6BEgg/o.jpg", "is_closed": false, "url": "https://www.yelp.com/biz/darios-restaurant-newark?adjust_creative=9gNmiWYX8uTbFBeTTvJMdA&utm_campaign=yelp_api_v3&utm_medium=api_v3_business_search&utm_source=9gNmiWYX8uTbFBeTTvJMdA", "review_count": 221, "categories": [{"alias": "mexican", "title": "Mexican"}], "rating": 4.5, "coordinates": {"latitude": 40.7372604310513, "longitude": -74.1721954196692}, "transactions": ["pickup", "delivery"], "price": "$", "location": {"address1": "20 Academy St", "address2": "", "address3": "", "city": "Newark", "zip_code": "07102", "country": "US", "state": "NJ", "display_address": ["20 Academy St", "Newark, NJ 07102"]}, "phone": "+19737411106", "display_phone": "(973) 741-1106", "distance": 17269.971389313203}, {"id": "j3HLOkrjzBjcvYPiIHua1A", "alias": "jaspers-taphouse-kitchen-new-york", "name": "Jasper's Taphouse + Kitchen", "image_url": "https://s3-media2.fl.yelpcdn.com/bphoto/lR6IRt49Vzr2YxABYh76aw/o.jpg", "is_closed": false, "url": "https://www.yelp.com/biz/jaspers-taphouse-kitchen-new-york?adjust_creative=9gNmiWYX8uTbFBeTTvJMdA&utm_campaign=yelp_api_v3&utm_medium=api_v3_business_search&utm_source=9gNmiWYX8uTbFBeTTvJMdA", "review_count": 429, "categories": [{"alias": "newamerican", "title": "American (New)"}, {"alias": "pubs", "title": "Pubs"}], "rating": 4.0, "coordinates": {"latitude": 40.764266, "longitude": -73.9886122}, "transactions": ["pickup", "delivery"], "price": "$$", "location": {"address1": "761 9th Ave", "address2": null, "address3": "", "city": "New York", "zip_code": "10019", "country": "US", "state": "NY", "display_address": ["761 9th Ave", "New York, NY 10019"]}, "phone": "+12129571000", "display_phone": "(212) 957-1000", "distance": 1700.4518174932168}, {"id": "qmSBFiAikpyUO3JA8ez1Ow", "alias": "el-loco-burrito-brooklyn-2", "name": "El Loco Burrito", "image_url": "https://s3-media2.fl.yelpcdn.com/bphoto/E-MwLbbHDXYCw8EhmbE_-A/o.jpg", "is_closed": false, "url": "https://www.yelp.com/biz/el-loco-burrito-brooklyn-2?adjust_creative=9gNmiWYX8uTbFBeTTvJMdA&utm_campaign=yelp_api_v3&utm_medium=api_v3_business_search&utm_source=9gNmiWYX8uTbFBeTTvJMdA", "review_count": 197, "categories": [{"alias": "mexican", "title": "Mexican"}], "rating": 3.0, "coordinates": {"latitude": 40.7147469, "longitude": -73.9445868}, "transactions": ["pickup", "delivery"], "price": "$", "location": {"address1": "345 Graham Ave", "address2": "", "address3": null, "city": "Brooklyn", "zip_code": "11211", "country": "US", "state": "NY", "display_address": ["345 Graham Ave", "Brooklyn, NY 11211"]}, "phone": "+17183888215", "display_phone": "(718) 388-8215", "distance": 5362.314029451789}, {"id": "0yMlU3xbdawYFXmjNc0dhw", "alias": "the-harrow-new-york-new-york", "name": "The Harrow New York", "image_url": "https://s3-media2.fl.yelpcdn.com/bphoto/cDnuvoM9ejO1Qb9_HegWVA/o.jpg", "is_closed": false, "url": "https://www.yelp.com/biz/the-harrow-new-york-new-york?adjust_creative=9gNmiWYX8uTbFBeTTvJMdA&utm_campaign=yelp_api_v3&utm_medium=api_v3_business_search&utm_source=9gNmiWYX8uTbFBeTTvJMdA", "review_count": 270, "categories": [{"alias": "newamerican", "title": "American (New)"}, {"alias": "cocktailbars", "title": "Cocktail Bars"}, {"alias": "wine_bars", "title": "Wine Bars"}], "rating": 4.5, "coordinates": {"latitude": 40.76419, "longitude": -73.99182}, "transactions": ["pickup", "delivery"], "price": "$$", "location": {"address1": "720 10th Ave", "address2": null, "address3": "", "city": "New York", "zip_code": "10019", "country": "US", "state": "NY", "display_address": ["720 10th Ave", "New York, NY 10019"]}, "phone": "+12127576977", "display_phone": "(212) 757-6977", "distance": 1956.4829871968643}, {"id": "XghOzJn16M-nvaKMOdC5og", "alias": "verlaine-new-york-2", "name": "Verlaine", "image_url": "https://s3-media1.fl.yelpcdn.com/bphoto/nhYw6SOnjsiqJfw7r4eEng/o.jpg", "is_closed": false, "url": "https://www.yelp.com/biz/verlaine-new-york-2?adjust_creative=9gNmiWYX8uTbFBeTTvJMdA&utm_campaign=yelp_api_v3&utm_medium=api_v3_business_search&utm_source=9gNmiWYX8uTbFBeTTvJMdA", "review_count": 1496, "categories": [{"alias": "tapasmallplates", "title": "Tapas/Small Plates"}, {"alias": "cocktailbars", "title": "Cocktail Bars"}, {"alias": "vietnamese", "title": "Vietnamese"}], "rating": 4.0, "coordinates": {"latitude": 40.720079, "longitude": -73.987785}, "transactions": ["pickup"], "price": "$$", "location": {"address1": "110 Rivington St", "address2": "", "address3": "", "city": "New York", "zip_code": "10002", "country": "US", "state": "NY", "display_address": ["110 Rivington St", "New York, NY 10002"]}, "phone": "+12126142493", "display_phone": "(212) 614-2493", "distance": 4610.046150806455}, {"id": "YI8UuwEIVbJ5cVQO7QKWbA", "alias": "homemade-taqueria-new-york", "name": "Homemade Taqueria", "image_url": "https://s3-media2.fl.yelpcdn.com/bphoto/Lg_cwp9snolxHn3RLlvFIA/o.jpg", "is_closed": false, "url": "https://www.yelp.com/biz/homemade-taqueria-new-york?adjust_creative=9gNmiWYX8uTbFBeTTvJMdA&utm_campaign=yelp_api_v3&utm_medium=api_v3_business_search&utm_source=9gNmiWYX8uTbFBeTTvJMdA", "review_count": 18, "categories": [{"alias": "mexican", "title": "Mexican"}, {"alias": "desserts", "title": "Desserts"}, {"alias": "empanadas", "title": "Empanadas"}], "rating": 4.0, "coordinates": {"latitude": 40.8012, "longitude": -73.96119}, "transactions": ["pickup", "delivery"], "location": {"address1": "999 Columbus Ave", "address2": "", "address3": null, "city": "New York", "zip_code": "10025", "country": "US", "state": "NY", "display_address": ["999 Columbus Ave", "New York, NY 10025"]}, "phone": "+12124193866", "display_phone": "(212) 419-3866", "distance": 4722.83300954193}, {"id": "F89nDDlYZ7wbRe8EpLCqBw", "alias": "avra-48th-street-new-york", "name": "Avra 48th Street", "image_url": "https://s3-media4.fl.yelpcdn.com/bphoto/TvLumNxdcWX2ZX9MWUwMJw/o.jpg", "is_closed": false, "url": "https://www.yelp.com/biz/avra-48th-street-new-york?adjust_creative=9gNmiWYX8uTbFBeTTvJMdA&utm_campaign=yelp_api_v3&utm_medium=api_v3_business_search&utm_source=9gNmiWYX8uTbFBeTTvJMdA", "review_count": 999, "categories": [{"alias": "seafood", "title": "Seafood"}, {"alias": "greek", "title": "Greek"}, {"alias": "mediterranean", "title": "Mediterranean"}], "rating": 4.0, "coordinates": {"latitude": 40.755048569901554, "longitude": -73.97243859999999}, "transactions": ["pickup", "delivery"], "price": "$$$", "location": {"address1": "141 E 48th St", "address2": "", "address3": "", "city": "New York", "zip_code": "10017", "country": "US", "state": "NY", "display_address": ["141 E 48th St", "New York, NY 10017"]}, "phone": "+12127598550", "display_phone": "(212) 759-8550", "distance": 518.3813132110787}, {"id": "7qs5v182p5SnxmGgffkhLw", "alias": "azul-rooftop-new-york", "name": "Azul Rooftop", "image_url": "https://s3-media2.fl.yelpcdn.com/bphoto/k1uzS53sQ_ueEkmhNqcbig/o.jpg", "is_closed": false, "url": "https://www.yelp.com/biz/azul-rooftop-new-york?adjust_creative=9gNmiWYX8uTbFBeTTvJMdA&utm_campaign=yelp_api_v3&utm_medium=api_v3_business_search&utm_source=9gNmiWYX8uTbFBeTTvJMdA", "review_count": 76, "categories": [{"alias": "lounges", "title": "Lounges"}], "rating": 3.0, "coordinates": {"latitude": 40.726368, "longitude": -74.0088425}, "transactions": ["delivery"], "price": "$$$", "location": {"address1": "525 Greenwich St", "address2": "", "address3": "", "city": "New York", "zip_code": "10013", "country": "US", "state": "NY", "display_address": ["525 Greenwich St", "New York, NY 10013"]}, "phone": "+12126084848", "display_phone": "(212) 608-4848", "distance": 4924.546539303557}, {"id": "3SGrN-62z9J-1R94ZzZdKw", "alias": "sexy-taco-new-york", "name": "Sexy Taco", "image_url": "https://s3-media2.fl.yelpcdn.com/bphoto/TW27zFlEiCPjg1FrAWYcQg/o.jpg", "is_closed": false, "url": "https://www.yelp.com/biz/sexy-taco-new-york?adjust_creative=9gNmiWYX8uTbFBeTTvJMdA&utm_campaign=yelp_api_v3&utm_medium=api_v3_business_search&utm_source=9gNmiWYX8uTbFBeTTvJMdA", "review_count": 34, "categories": [{"alias": "tacos", "title": "Tacos"}, {"alias": "breakfast_brunch", "title": "Breakfast & Brunch"}], "rating": 4.0, "coordinates": {"latitude": 40.816941, "longitude": -73.942896}, "transactions": ["pickup", "delivery"], "price": "$$", "location": {"address1": "2340 Adam Clayton Powell Jr Blvd", "address2": "", "address3": "", "city": "New York", "zip_code": "10030", "country": "US", "state": "NY", "display_address": ["2340 Adam Clayton Powell Jr Blvd", "New York, NY 10030"]}, "phone": "+19172615539", "display_phone": "(917) 261-5539", "distance": 6810.4177043178925}, {"id": "0kFP2UiYHoJHx6d9w1ZNhg", "alias": "el-carrito-rojo-new-york", "name": "El Carrito Rojo", "image_url": "https://s3-media4.fl.yelpcdn.com/bphoto/Q3qa8k1oawMFkZg2-XwSSQ/o.jpg", "is_closed": false, "url": "https://www.yelp.com/biz/el-carrito-rojo-new-york?adjust_creative=9gNmiWYX8uTbFBeTTvJMdA&utm_campaign=yelp_api_v3&utm_medium=api_v3_business_search&utm_source=9gNmiWYX8uTbFBeTTvJMdA", "review_count": 21, "categories": [{"alias": "foodtrucks", "title": "Food Trucks"}, {"alias": "tacos", "title": "Tacos"}], "rating": 3.5, "coordinates": {"latitude": 40.7402744, "longitude": -73.99395799999999}, "transactions": [], "price": "$", "location": {"address1": "59 W 19th St", "address2": "", "address3": "", "city": "New York", "zip_code": "10011", "country": "US", "state": "NY", "display_address": ["59 W 19th St", "New York, NY 10011"]}, "phone": "+13473418434", "display_phone": "(347) 341-8434", "distance": 2938.6938475519873}, {"id": "qE54DGl95Q8oQhZnwVEgvw", "alias": "el-vaquerito-new-york", "name": "El Vaquerito", "image_url": "https://s3-media2.fl.yelpcdn.com/bphoto/VRe3VtGYFo864qj1h3xrnA/o.jpg", "is_closed": false, "url": "https://www.yelp.com/biz/el-vaquerito-new-york?adjust_creative=9gNmiWYX8uTbFBeTTvJMdA&utm_campaign=yelp_api_v3&utm_medium=api_v3_business_search&utm_source=9gNmiWYX8uTbFBeTTvJMdA", "review_count": 13, "categories": [{"alias": "mexican", "title": "Mexican"}], "rating": 3.5, "coordinates": {"latitude": 40.75369, "longitude": -73.90612}, "transactions": ["pickup", "delivery"], "location": {"address1": "54-11 Northern Blvd", "address2": null, "address3": "", "city": "New York", "zip_code": "11377", "country": "US", "state": "NY", "display_address": ["54-11 Northern Blvd", "New York, NY 11377"]}, "phone": "", "display_phone": "", "distance": 5369.274251693876}, {"id": "Z3wa8EmAr0yfihPZZMLE_A", "alias": "el-cabron-new-york", "name": "El Cabron", "image_url": "https://s3-media3.fl.yelpcdn.com/bphoto/VEdZGFUrzhjxqPY0te-UOw/o.jpg", "is_closed": false, "url": "https://www.yelp.com/biz/el-cabron-new-york?adjust_creative=9gNmiWYX8uTbFBeTTvJMdA&utm_campaign=yelp_api_v3&utm_medium=api_v3_business_search&utm_source=9gNmiWYX8uTbFBeTTvJMdA", "review_count": 105, "categories": [{"alias": "mexican", "title": "Mexican"}], "rating": 4.0, "coordinates": {"latitude": 40.715540088754075, "longitude": -73.99001288834393}, "transactions": ["pickup", "delivery"], "price": "$", "location": {"address1": "25A Essex St", "address2": "", "address3": "", "city": "New York", "zip_code": "10002", "country": "US", "state": "NY", "display_address": ["25A Essex St", "New York, NY 10002"]}, "phone": "+16469645000", "display_phone": "(646) 964-5000", "distance": 5148.474534228779}, {"id": "G-y2Ph8VaIVQ6RygcqOpfQ", "alias": "dos-toros-taqueria-new-york-36", "name": "Dos Toros Taqueria", "image_url": "https://s3-media1.fl.yelpcdn.com/bphoto/8Qfh4nJzbZM37lfKCLyN2g/o.jpg", "is_closed": false, "url": "https://www.yelp.com/biz/dos-toros-taqueria-new-york-36?adjust_creative=9gNmiWYX8uTbFBeTTvJMdA&utm_campaign=yelp_api_v3&utm_medium=api_v3_business_search&utm_source=9gNmiWYX8uTbFBeTTvJMdA", "review_count": 16, "categories": [{"alias": "mexican", "title": "Mexican"}], "rating": 3.5, "coordinates": {"latitude": 40.7518321782203, "longitude": -73.9799775928259}, "transactions": [], "location": {"address1": "285 Madison Ave", "address2": "", "address3": null, "city": "New York", "zip_code": "10016", "country": "US", "state": "NY", "display_address": ["285 Madison Ave", "New York, NY 10016"]}, "phone": "", "display_phone": "", "distance": 1197.7036230006372}, {"id": "EaNRl3vlDOsNF-gkCR5mBA", "alias": "la-sir\u00e8ne-uws-new-york", "name": "La Sir\u00e8ne-UWS", "image_url": "https://s3-media2.fl.yelpcdn.com/bphoto/qctiw5MpkPvdWvc1mlWHlg/o.jpg", "is_closed": false, "url": "https://www.yelp.com/biz/la-sir%C3%A8ne-uws-new-york?adjust_creative=9gNmiWYX8uTbFBeTTvJMdA&utm_campaign=yelp_api_v3&utm_medium=api_v3_business_search&utm_source=9gNmiWYX8uTbFBeTTvJMdA", "review_count": 118, "categories": [{"alias": "french", "title": "French"}, {"alias": "breakfast_brunch", "title": "Breakfast & Brunch"}, {"alias": "wine_bars", "title": "Wine Bars"}], "rating": 4.0, "coordinates": {"latitude": 40.7838, "longitude": -73.97806}, "transactions": ["pickup", "delivery"], "price": "$$$", "location": {"address1": "416 Amsterdam Ave", "address2": null, "address3": null, "city": "New York", "zip_code": "10024", "country": "US", "state": "NY", "display_address": ["416 Amsterdam Ave", "New York, NY 10024"]}, "phone": "+19172615279", "display_phone": "(917) 261-5279", "distance": 2833.0209115995676}, {"id": "P8PGGzxZeMm6Na5gYqvudw", "alias": "travesias-bronx-2", "name": "Travesias", "image_url": "https://s3-media2.fl.yelpcdn.com/bphoto/JYwlMUUw-sC5tTI-I7tumA/o.jpg", "is_closed": false, "url": "https://www.yelp.com/biz/travesias-bronx-2?adjust_creative=9gNmiWYX8uTbFBeTTvJMdA&utm_campaign=yelp_api_v3&utm_medium=api_v3_business_search&utm_source=9gNmiWYX8uTbFBeTTvJMdA", "review_count": 629, "categories": [{"alias": "latin", "title": "Latin American"}], "rating": 4.0, "coordinates": {"latitude": 40.8243203, "longitude": -73.8203809}, "transactions": ["delivery", "pickup"], "price": "$$$", "location": {"address1": "3834 E Tremont Ave", "address2": null, "address3": "", "city": "Bronx", "zip_code": "10465", "country": "US", "state": "NY", "display_address": ["3834 E Tremont Ave", "Bronx, NY 10465"]}, "phone": "+17188283834", "display_phone": "(718) 828-3834", "distance": 14491.211896346582}, {"id": "pTwogT0CkRPqaPk14AlmCQ", "alias": "michelada-house-ii-jackson-heights", "name": "Michelada House II", "image_url": "https://s3-media4.fl.yelpcdn.com/bphoto/X8z4bXe8iz3_fwR9OvPrSw/o.jpg", "is_closed": false, "url": "https://www.yelp.com/biz/michelada-house-ii-jackson-heights?adjust_creative=9gNmiWYX8uTbFBeTTvJMdA&utm_campaign=yelp_api_v3&utm_medium=api_v3_business_search&utm_source=9gNmiWYX8uTbFBeTTvJMdA", "review_count": 7, "categories": [{"alias": "mexican", "title": "Mexican"}], "rating": 4.0, "coordinates": {"latitude": 40.7485, "longitude": -73.87759}, "transactions": [], "location": {"address1": "88-19 Roosevelt Ave", "address2": "", "address3": null, "city": "Jackson Heights", "zip_code": "11372", "country": "US", "state": "NY", "display_address": ["88-19 Roosevelt Ave", "Jackson Heights, NY 11372"]}, "phone": "+17184339595", "display_phone": "(718) 433-9595", "distance": 7835.728561716372}], "total": 4800, "region": {"center": {"longitude": -73.96957397460938, "latitude": 40.75917470627005}}}