{"businesses": [{"id": "mzuH_l94kFbjleoVpJvwZA", "alias": "cassidys-pub-and-restaurant-new-york", "name": "Cassidy's Pub & Restaurant", "image_url": "https://s3-media3.fl.yelpcdn.com/bphoto/_8KA2SiMlezSfZ8Wxr1SKw/o.jpg", "is_closed": false, "url": "https://www.yelp.com/biz/cassidys-pub-and-restaurant-new-york?adjust_creative=9gNmiWYX8uTbFBeTTvJMdA&utm_campaign=yelp_api_v3&utm_medium=api_v3_business_search&utm_source=9gNmiWYX8uTbFBeTTvJMdA", "review_count": 150, "categories": [{"alias": "irish_pubs", "title": "Irish Pub"}, {"alias": "irish", "title": "Irish"}], "rating": 3.5, "coordinates": {"latitude": 40.7627499, "longitude": -73.97725}, "transactions": ["delivery", "pickup"], "price": "$$", "location": {"address1": "65 W 55th St", "address2": "", "address3": "", "city": "New York", "zip_code": "10019", "country": "US", "state": "NY", "display_address": ["65 W 55th St", "New York, NY 10019"]}, "phone": "+12123970814", "display_phone": "(212) 397-0814", "distance": 762.4043377583238}, {"id": "jW22gmsZjh5hFJsC1qUDOA", "alias": "the-baroness-bar-burgers-beer-long-island-city", "name": "The Baroness Bar Burgers + Beer", "image_url": "https://s3-media3.fl.yelpcdn.com/bphoto/Ny7YRWchAKWUAwXLwNuyHQ/o.jpg", "is_closed": false, "url": "https://www.yelp.com/biz/the-baroness-bar-burgers-beer-long-island-city?adjust_creative=9gNmiWYX8uTbFBeTTvJMdA&utm_campaign=yelp_api_v3&utm_medium=api_v3_business_search&utm_source=9gNmiWYX8uTbFBeTTvJMdA", "review_count": 480, "categories": [{"alias": "wine_bars", "title": "Wine Bars"}, {"alias": "burgers", "title": "Burgers"}, {"alias": "beerbar", "title": "Beer Bar"}], "rating": 4.0, "coordinates": {"latitude": 40.74496, "longitude": -73.95362}, "transactions": ["delivery"], "price": "$$", "location": {"address1": "47-18 Vernon Blvd", "address2": null, "address3": "", "city": "Long Island City", "zip_code": "11101", "country": "US", "state": "NY", "display_address": ["47-18 Vernon Blvd", "Long Island City, NY 11101"]}, "phone": "+17182551336", "display_phone": "(718) 255-1336", "distance": 2073.4446736154405}, {"id": "mv4A3Yl90ZLONO03ksqRrg", "alias": "ix-restaurant-brooklyn-3", "name": "Ix Restaurant", "image_url": "https://s3-media4.fl.yelpcdn.com/bphoto/_QhN9gOkeA4EZeD_VKiNew/o.jpg", "is_closed": false, "url": "https://www.yelp.com/biz/ix-restaurant-brooklyn-3?adjust_creative=9gNmiWYX8uTbFBeTTvJMdA&utm_campaign=yelp_api_v3&utm_medium=api_v3_business_search&utm_source=9gNmiWYX8uTbFBeTTvJMdA", "review_count": 194, "categories": [{"alias": "coffee", "title": "Coffee & Tea"}, {"alias": "latin", "title": "Latin American"}, {"alias": "breakfast_brunch", "title": "Breakfast & Brunch"}], "rating": 4.5, "coordinates": {"latitude": 40.6609148441096, "longitude": -73.9613892462263}, "transactions": ["delivery", "pickup"], "price": "$$", "location": {"address1": "43 Lincoln Rd", "address2": "", "address3": null, "city": "Brooklyn", "zip_code": "11225", "country": "US", "state": "NY", "display_address": ["43 Lincoln Rd", "Brooklyn, NY 11225"]}, "phone": "+13475336920", "display_phone": "(347) 533-6920", "distance": 10947.743881449504}, {"id": "9A2cDPA78es4Ecjd6VFZcA", "alias": "nenes-deli-taqueria-brooklyn", "name": "Nenes Deli Taqueria", "image_url": "https://s3-media3.fl.yelpcdn.com/bphoto/VAJ4QFtNCGZwffefXv3T2Q/o.jpg", "is_closed": false, "url": "https://www.yelp.com/biz/nenes-deli-taqueria-brooklyn?adjust_creative=9gNmiWYX8uTbFBeTTvJMdA&utm_campaign=yelp_api_v3&utm_medium=api_v3_business_search&utm_source=9gNmiWYX8uTbFBeTTvJMdA", "review_count": 160, "categories": [{"alias": "tacos", "title": "Tacos"}], "rating": 4.5, "coordinates": {"latitude": 40.70018, "longitude": -73.92781}, "transactions": ["delivery", "pickup"], "location": {"address1": "14 Starr St", "address2": "", "address3": null, "city": "Brooklyn", "zip_code": "11237", "country": "US", "state": "NY", "display_address": ["14 Starr St", "Brooklyn, NY 11237"]}, "phone": "+13474136684", "display_phone": "(347) 413-6684", "distance": 7444.247905959636}, {"id": "8-boHR8m_gWYHF4XXasYbA", "alias": "tacos-mi-mexico-food-truck-new-york-4", "name": "Tacos Mi Mexico Food Truck", "image_url": "https://s3-media1.fl.yelpcdn.com/bphoto/XqXO91lMvcRpUQlcjO3Y9g/o.jpg", "is_closed": false, "url": "https://www.yelp.com/biz/tacos-mi-mexico-food-truck-new-york-4?adjust_creative=9gNmiWYX8uTbFBeTTvJMdA&utm_campaign=yelp_api_v3&utm_medium=api_v3_business_search&utm_source=9gNmiWYX8uTbFBeTTvJMdA", "review_count": 16, "categories": [{"alias": "mexican", "title": "Mexican"}, {"alias": "foodtrucks", "title": "Food Trucks"}], "rating": 5.0, "coordinates": {"latitude": 40.782706, "longitude": -73.948542}, "transactions": ["delivery"], "price": "$", "location": {"address1": "1801 2nd Ave", "address2": null, "address3": null, "city": "New York", "zip_code": "10128", "country": "US", "state": "NY", "display_address": ["1801 2nd Ave", "New York, NY 10128"]}, "phone": "+19292684020", "display_phone": "(929) 268-4020", "distance": 3159.6256249312123}, {"id": "qaKB8CgaWhlBTk_t7YOQ_w", "alias": "north-river-lobster-co-new-york", "name": "North River Lobster Co", "image_url": "https://s3-media4.fl.yelpcdn.com/bphoto/v4VgzHuWmZmLxgI7XqNDBw/o.jpg", "is_closed": false, "url": "https://www.yelp.com/biz/north-river-lobster-co-new-york?adjust_creative=9gNmiWYX8uTbFBeTTvJMdA&utm_campaign=yelp_api_v3&utm_medium=api_v3_business_search&utm_source=9gNmiWYX8uTbFBeTTvJMdA", "review_count": 615, "categories": [{"alias": "seafood", "title": "Seafood"}], "rating": 3.5, "coordinates": {"latitude": 40.761968685867, "longitude": -74.0028237923088}, "transactions": ["delivery", "pickup"], "price": "$$", "location": {"address1": "Pier 81 W 41st St", "address2": "", "address3": "", "city": "New York", "zip_code": "10036", "country": "US", "state": "NY", "display_address": ["Pier 81 W 41st St", "New York, NY 10036"]}, "phone": "+12126308831", "display_phone": "(212) 630-8831", "distance": 2817.6094548566193}, {"id": "lTUNj8Q4Yv8OB1vD7YZKOA", "alias": "el-jalapeno-taqueria-new-york-2", "name": "El Jalapeno taqueria", "image_url": "https://s3-media3.fl.yelpcdn.com/bphoto/4z9kgdbWwAjb1BoSEt4pcA/o.jpg", "is_closed": false, "url": "https://www.yelp.com/biz/el-jalapeno-taqueria-new-york-2?adjust_creative=9gNmiWYX8uTbFBeTTvJMdA&utm_campaign=yelp_api_v3&utm_medium=api_v3_business_search&utm_source=9gNmiWYX8uTbFBeTTvJMdA", "review_count": 12, "categories": [{"alias": "mexican", "title": "Mexican"}, {"alias": "foodtrucks", "title": "Food Trucks"}], "rating": 5.0, "coordinates": {"latitude": 40.733196172640056, "longitude": -74.002585065464}, "transactions": ["delivery"], "price": "$", "location": {"address1": "204 W 4th St", "address2": "", "address3": null, "city": "New York", "zip_code": "10014", "country": "US", "state": "NY", "display_address": ["204 W 4th St", "New York, NY 10014"]}, "phone": "+13476970081", "display_phone": "(347) 697-0081", "distance": 4009.7381260973148}, {"id": "g3QERUGn1BIS-_WJVwnKyQ", "alias": "cantina-lobos-village-of-pelham-2", "name": "Cantina Lobos", "image_url": "https://s3-media3.fl.yelpcdn.com/bphoto/iYuJWbbgEKz0ykjH2KKbmg/o.jpg", "is_closed": false, "url": "https://www.yelp.com/biz/cantina-lobos-village-of-pelham-2?adjust_creative=9gNmiWYX8uTbFBeTTvJMdA&utm_campaign=yelp_api_v3&utm_medium=api_v3_business_search&utm_source=9gNmiWYX8uTbFBeTTvJMdA", "review_count": 132, "categories": [{"alias": "mexican", "title": "Mexican"}], "rating": 4.0, "coordinates": {"latitude": 40.906394318171, "longitude": -73.8117176678981}, "transactions": ["delivery", "pickup"], "price": "$$", "location": {"address1": "217 Wolfs Ln", "address2": "", "address3": null, "city": "Village of Pelham", "zip_code": "10803", "country": "US", "state": "NY", "display_address": ["217 Wolfs Ln", "Village of Pelham, NY 10803"]}, "phone": "+19143808644", "display_phone": "(914) 380-8644", "distance": 21079.812808591432}, {"id": "pMUsX9vXcHcS9KTRbFewbw", "alias": "picante-picante-bronx-4", "name": "Picante Picante", "image_url": "https://s3-media4.fl.yelpcdn.com/bphoto/Q9v9jqcz7SYpdLy0QnwKgg/o.jpg", "is_closed": false, "url": "https://www.yelp.com/biz/picante-picante-bronx-4?adjust_creative=9gNmiWYX8uTbFBeTTvJMdA&utm_campaign=yelp_api_v3&utm_medium=api_v3_business_search&utm_source=9gNmiWYX8uTbFBeTTvJMdA", "review_count": 192, "categories": [{"alias": "mexican", "title": "Mexican"}], "rating": 4.0, "coordinates": {"latitude": 40.8781, "longitude": -73.903}, "transactions": ["delivery", "pickup"], "price": "$$", "location": {"address1": "156 W 231st St", "address2": "", "address3": "", "city": "Bronx", "zip_code": "10463", "country": "US", "state": "NY", "display_address": ["156 W 231st St", "Bronx, NY 10463"]}, "phone": "+17187087100", "display_phone": "(718) 708-7100", "distance": 14356.61043158601}, {"id": "zupIzmhdcH0U6vJQQxDBiQ", "alias": "bar-bruno-brooklyn-2", "name": "Bar Bruno", "image_url": "https://s3-media2.fl.yelpcdn.com/bphoto/u2ky7ICWnun6WOYOaY018g/o.jpg", "is_closed": false, "url": "https://www.yelp.com/biz/bar-bruno-brooklyn-2?adjust_creative=9gNmiWYX8uTbFBeTTvJMdA&utm_campaign=yelp_api_v3&utm_medium=api_v3_business_search&utm_source=9gNmiWYX8uTbFBeTTvJMdA", "review_count": 307, "categories": [{"alias": "newamerican", "title": "American (New)"}, {"alias": "mexican", "title": "Mexican"}, {"alias": "bars", "title": "Bars"}], "rating": 4.0, "coordinates": {"latitude": 40.6833674, "longitude": -73.9997959}, "transactions": ["delivery", "pickup"], "price": "$$", "location": {"address1": "520 Henry St", "address2": null, "address3": "", "city": "Brooklyn", "zip_code": "11231", "country": "US", "state": "NY", "display_address": ["520 Henry St", "Brooklyn, NY 11231"]}, "phone": "+13477630850", "display_phone": "(347) 763-0850", "distance": 8805.747162721587}, {"id": "eCD1l-Xx3QqnhrSsoccgMg", "alias": "tacocina-brooklyn", "name": "Tacocina", "image_url": "https://s3-media4.fl.yelpcdn.com/bphoto/B7Nc3cXHIPvh-qZBrWclfQ/o.jpg", "is_closed": false, "url": "https://www.yelp.com/biz/tacocina-brooklyn?adjust_creative=9gNmiWYX8uTbFBeTTvJMdA&utm_campaign=yelp_api_v3&utm_medium=api_v3_business_search&utm_source=9gNmiWYX8uTbFBeTTvJMdA", "review_count": 125, "categories": [{"alias": "tacos", "title": "Tacos"}, {"alias": "foodstands", "title": "Food Stands"}], "rating": 3.5, "coordinates": {"latitude": 40.715238, "longitude": -73.967644}, "transactions": ["delivery"], "price": "$$", "location": {"address1": "25 River St", "address2": "", "address3": null, "city": "Brooklyn", "zip_code": "11249", "country": "US", "state": "NY", "display_address": ["25 River St", "Brooklyn, NY 11249"]}, "phone": "+16467836825", "display_phone": "(646) 783-6825", "distance": 4888.238720413391}, {"id": "R4-Y6ogPoGUkvDlRLAfOgg", "alias": "acento-latin-kitchen-and-bar-astoria", "name": "Acento Latin Kitchen and Bar", "image_url": "https://s3-media1.fl.yelpcdn.com/bphoto/9wOIabx0tCUNRjqAKNXKeg/o.jpg", "is_closed": false, "url": "https://www.yelp.com/biz/acento-latin-kitchen-and-bar-astoria?adjust_creative=9gNmiWYX8uTbFBeTTvJMdA&utm_campaign=yelp_api_v3&utm_medium=api_v3_business_search&utm_source=9gNmiWYX8uTbFBeTTvJMdA", "review_count": 99, "categories": [{"alias": "latin", "title": "Latin American"}, {"alias": "bars", "title": "Bars"}, {"alias": "seafood", "title": "Seafood"}], "rating": 4.0, "coordinates": {"latitude": 40.7752594932846, "longitude": -73.9094452481536}, "transactions": ["delivery", "pickup"], "price": "$$", "location": {"address1": "33-06 Ditmars Blvd", "address2": "", "address3": null, "city": "Astoria", "zip_code": "11105", "country": "US", "state": "NY", "display_address": ["33-06 Ditmars Blvd", "Astoria, NY 11105"]}, "phone": "+17184409435", "display_phone": "(718) 440-9435", "distance": 5370.349113655329}, {"id": "jQjQHNAM8xXB73kFkfg9kA", "alias": "tacos-cholula-new-york", "name": "Tacos Cholula", "image_url": "https://s3-media1.fl.yelpcdn.com/bphoto/_JlaiQQIga5YxUIE1NQafg/o.jpg", "is_closed": false, "url": "https://www.yelp.com/biz/tacos-cholula-new-york?adjust_creative=9gNmiWYX8uTbFBeTTvJMdA&utm_campaign=yelp_api_v3&utm_medium=api_v3_business_search&utm_source=9gNmiWYX8uTbFBeTTvJMdA", "review_count": 161, "categories": [{"alias": "foodtrucks", "title": "Food Trucks"}, {"alias": "tacos", "title": "Tacos"}], "rating": 4.5, "coordinates": {"latitude": 40.72301, "longitude": -73.98605}, "transactions": [], "price": "$", "location": {"address1": "25 Ave A", "address2": "", "address3": "", "city": "New York", "zip_code": "10009", "country": "US", "state": "NY", "display_address": ["25 Ave A", "New York, NY 10009"]}, "phone": "+19294054961", "display_phone": "(929) 405-4961", "distance": 4254.271296781151}, {"id": "M1AZASfo_GUin8IJ9Rf0Qg", "alias": "lolas-mexican-restaurant-brooklyn", "name": "Lola's Mexican Restaurant", "image_url": "https://s3-media1.fl.yelpcdn.com/bphoto/u6h9FQA8Apkx6r5aVOnunA/o.jpg", "is_closed": false, "url": "https://www.yelp.com/biz/lolas-mexican-restaurant-brooklyn?adjust_creative=9gNmiWYX8uTbFBeTTvJMdA&utm_campaign=yelp_api_v3&utm_medium=api_v3_business_search&utm_source=9gNmiWYX8uTbFBeTTvJMdA", "review_count": 49, "categories": [{"alias": "mexican", "title": "Mexican"}], "rating": 4.0, "coordinates": {"latitude": 40.61852257777158, "longitude": -73.93198009999999}, "transactions": ["delivery", "pickup"], "price": "$$", "location": {"address1": "2101 Flatbush Ave", "address2": null, "address3": "", "city": "Brooklyn", "zip_code": "11234", "country": "US", "state": "NY", "display_address": ["2101 Flatbush Ave", "Brooklyn, NY 11234"]}, "phone": "+19292843675", "display_phone": "(929) 284-3675", "distance": 15957.756288113893}, {"id": "MRF4bNFPAyHe2rMS1yZobg", "alias": "el-toro-mexican-grill-new-york", "name": "El Toro Mexican Grill", "image_url": "https://s3-media3.fl.yelpcdn.com/bphoto/JOoIxeOTtKKe5pu7RNaX9A/o.jpg", "is_closed": false, "url": "https://www.yelp.com/biz/el-toro-mexican-grill-new-york?adjust_creative=9gNmiWYX8uTbFBeTTvJMdA&utm_campaign=yelp_api_v3&utm_medium=api_v3_business_search&utm_source=9gNmiWYX8uTbFBeTTvJMdA", "review_count": 122, "categories": [{"alias": "mexican", "title": "Mexican"}], "rating": 3.0, "coordinates": {"latitude": 40.705648, "longitude": -74.012401}, "transactions": ["delivery", "pickup"], "price": "$", "location": {"address1": "69 New St", "address2": "", "address3": "", "city": "New York", "zip_code": "10004", "country": "US", "state": "NY", "display_address": ["69 New St", "New York, NY 10004"]}, "phone": "+12123633900", "display_phone": "(212) 363-3900", "distance": 6960.381269885486}, {"id": "xP3sGOzcyK56mY0cnOXU8w", "alias": "las-estrellas-de-mexico-union-city", "name": "Las Estrellas De Mexico", "image_url": "https://s3-media3.fl.yelpcdn.com/bphoto/ou-xmzo9PcK8Uki0M59XOQ/o.jpg", "is_closed": false, "url": "https://www.yelp.com/biz/las-estrellas-de-mexico-union-city?adjust_creative=9gNmiWYX8uTbFBeTTvJMdA&utm_campaign=yelp_api_v3&utm_medium=api_v3_business_search&utm_source=9gNmiWYX8uTbFBeTTvJMdA", "review_count": 18, "categories": [{"alias": "mexican", "title": "Mexican"}], "rating": 3.0, "coordinates": {"latitude": 40.76871, "longitude": -74.03357}, "transactions": ["delivery", "pickup"], "price": "$$", "location": {"address1": "2421 West St", "address2": "", "address3": "", "city": "Union City", "zip_code": "07087", "country": "US", "state": "NJ", "display_address": ["2421 West St", "Union City, NJ 07087"]}, "phone": "+12018665200", "display_phone": "(201) 866-5200", "distance": 5488.627387771614}, {"id": "e80JDJkf5WdRe5GorvEcgg", "alias": "san-loco-new-york-5", "name": "San Loco", "image_url": "https://s3-media3.fl.yelpcdn.com/bphoto/z9h6oC3iuGAEIG2V3eXs1w/o.jpg", "is_closed": false, "url": "https://www.yelp.com/biz/san-loco-new-york-5?adjust_creative=9gNmiWYX8uTbFBeTTvJMdA&utm_campaign=yelp_api_v3&utm_medium=api_v3_business_search&utm_source=9gNmiWYX8uTbFBeTTvJMdA", "review_count": 23, "categories": [{"alias": "mexican", "title": "Mexican"}, {"alias": "tex-mex", "title": "Tex-Mex"}], "rating": 3.5, "coordinates": {"latitude": 40.7243318, "longitude": -73.978931}, "transactions": ["delivery", "pickup"], "location": {"address1": "111 Ave C", "address2": null, "address3": "", "city": "New York", "zip_code": "10009", "country": "US", "state": "NY", "display_address": ["111 Ave C", "New York, NY 10009"]}, "phone": "+12122607948", "display_phone": "(212) 260-7948", "distance": 3953.734757429619}, {"id": "qXdxckyNMQ_jFz7ZFvAWXg", "alias": "dos-toros-taqueria-new-york-8", "name": "Dos Toros Taqueria", "image_url": "https://s3-media2.fl.yelpcdn.com/bphoto/aiyIpPovIs6WiA77ahjc_A/o.jpg", "is_closed": false, "url": "https://www.yelp.com/biz/dos-toros-taqueria-new-york-8?adjust_creative=9gNmiWYX8uTbFBeTTvJMdA&utm_campaign=yelp_api_v3&utm_medium=api_v3_business_search&utm_source=9gNmiWYX8uTbFBeTTvJMdA", "review_count": 146, "categories": [{"alias": "mexican", "title": "Mexican"}], "rating": 3.5, "coordinates": {"latitude": 40.739847, "longitude": -73.986326}, "transactions": ["delivery", "pickup"], "price": "$$", "location": {"address1": "295 Park Ave S", "address2": "", "address3": "", "city": "New York", "zip_code": "10010", "country": "US", "state": "NY", "display_address": ["295 Park Ave S", "New York, NY 10010"]}, "phone": "+13479466225", "display_phone": "(347) 946-6225", "distance": 2571.024098508394}, {"id": "rNldYbdOcJRGmLgD29ZELA", "alias": "don-panchito-new-york-2", "name": "Don Panchito", "image_url": "https://s3-media1.fl.yelpcdn.com/bphoto/cuOtapROYdfGiWiYvUzm9g/o.jpg", "is_closed": false, "url": "https://www.yelp.com/biz/don-panchito-new-york-2?adjust_creative=9gNmiWYX8uTbFBeTTvJMdA&utm_campaign=yelp_api_v3&utm_medium=api_v3_business_search&utm_source=9gNmiWYX8uTbFBeTTvJMdA", "review_count": 65, "categories": [{"alias": "mexican", "title": "Mexican"}, {"alias": "foodtrucks", "title": "Food Trucks"}], "rating": 4.0, "coordinates": {"latitude": 40.7154074225537, "longitude": -73.9603268362965}, "transactions": [], "price": "$", "location": {"address1": null, "address2": null, "address3": null, "city": "New York", "zip_code": "11211", "country": "US", "state": "NY", "display_address": ["New York, NY 11211"]}, "phone": "+13476353864", "display_phone": "(347) 635-3864", "distance": 4928.6627357550005}, {"id": "l-ELX4tgoaNucr33ZvdzbQ", "alias": "el-santo-taqueria-brooklyn", "name": "El Santo Taqueria", "image_url": "https://s3-media3.fl.yelpcdn.com/bphoto/Vx6ixaZZffD9Ronw99W9UA/o.jpg", "is_closed": false, "url": "https://www.yelp.com/biz/el-santo-taqueria-brooklyn?adjust_creative=9gNmiWYX8uTbFBeTTvJMdA&utm_campaign=yelp_api_v3&utm_medium=api_v3_business_search&utm_source=9gNmiWYX8uTbFBeTTvJMdA", "review_count": 92, "categories": [{"alias": "mexican", "title": "Mexican"}, {"alias": "cocktailbars", "title": "Cocktail Bars"}], "rating": 4.0, "coordinates": {"latitude": 40.70427, "longitude": -73.9302}, "transactions": ["delivery", "pickup"], "price": "$$", "location": {"address1": "1053 Flushing Ave", "address2": "", "address3": null, "city": "Brooklyn", "zip_code": "11237", "country": "US", "state": "NY", "display_address": ["1053 Flushing Ave", "Brooklyn, NY 11237"]}, "phone": "+17183663138", "display_phone": "(718) 366-3138", "distance": 6938.0038128953365}, {"id": "-EOqWiMqQ_6QwLBKwmWdsQ", "alias": "alma-negra-brooklyn", "name": "Alma Negra", "image_url": "https://s3-media1.fl.yelpcdn.com/bphoto/WW4un73PGPevw-JuzfDCIw/o.jpg", "is_closed": false, "url": "https://www.yelp.com/biz/alma-negra-brooklyn?adjust_creative=9gNmiWYX8uTbFBeTTvJMdA&utm_campaign=yelp_api_v3&utm_medium=api_v3_business_search&utm_source=9gNmiWYX8uTbFBeTTvJMdA", "review_count": 33, "categories": [{"alias": "mexican", "title": "Mexican"}, {"alias": "cocktailbars", "title": "Cocktail Bars"}, {"alias": "salad", "title": "Salad"}], "rating": 4.5, "coordinates": {"latitude": 40.668789863362726, "longitude": -73.990421}, "transactions": ["delivery", "pickup"], "location": {"address1": "494 4th Ave", "address2": "", "address3": null, "city": "Brooklyn", "zip_code": "11215", "country": "US", "state": "NY", "display_address": ["494 4th Ave", "Brooklyn, NY 11215"]}, "phone": "", "display_phone": "", "distance": 10202.756685699553}, {"id": "pvpR8HJc1ofHpl0zKqmQVg", "alias": "el-burrito-borracho-new-york-2", "name": "El Burrito Borracho", "image_url": "", "is_closed": false, "url": "https://www.yelp.com/biz/el-burrito-borracho-new-york-2?adjust_creative=9gNmiWYX8uTbFBeTTvJMdA&utm_campaign=yelp_api_v3&utm_medium=api_v3_business_search&utm_source=9gNmiWYX8uTbFBeTTvJMdA", "review_count": 1, "categories": [{"alias": "fooddeliveryservices", "title": "Food Delivery Services"}, {"alias": "mexican", "title": "Mexican"}], "rating": 1.0, "coordinates": {"latitude": 40.75889205932617, "longitude": -73.96851348876953}, "transactions": ["delivery"], "location": {"address1": null, "address2": null, "address3": null, "city": "New York", "zip_code": "10022", "country": "US", "state": "NY", "display_address": ["New York, NY 10022"]}, "phone": "+12123004010", "display_phone": "(212) 300-4010", "distance": 29.91304878595567}, {"id": "JpEENiSNl3MzAQN1FyKPdw", "alias": "los-girasoles-restaurant-bronx-2", "name": "Los Girasoles Restaurant", "image_url": "https://s3-media2.fl.yelpcdn.com/bphoto/LCue3_MuEk3773Xod4WEFQ/o.jpg", "is_closed": false, "url": "https://www.yelp.com/biz/los-girasoles-restaurant-bronx-2?adjust_creative=9gNmiWYX8uTbFBeTTvJMdA&utm_campaign=yelp_api_v3&utm_medium=api_v3_business_search&utm_source=9gNmiWYX8uTbFBeTTvJMdA", "review_count": 25, "categories": [{"alias": "mexican", "title": "Mexican"}], "rating": 4.5, "coordinates": {"latitude": 40.86304, "longitude": -73.88982}, "transactions": [], "price": "$", "location": {"address1": "2613 Webster Ave", "address2": "", "address3": "", "city": "Bronx", "zip_code": "10458", "country": "US", "state": "NY", "display_address": ["2613 Webster Ave", "Bronx, NY 10458"]}, "phone": "+17185618089", "display_phone": "(718) 561-8089", "distance": 13366.535018722338}, {"id": "g3FOPlO-Gp0J4HfjurW74Q", "alias": "sarav\u00e1-the-modern-bistro-brooklyn", "name": "Sarav\u00e1 - The Modern Bistro", "image_url": "https://s3-media2.fl.yelpcdn.com/bphoto/6OJU136ZAx9ej_lkRjFs5w/o.jpg", "is_closed": false, "url": "https://www.yelp.com/biz/sarav%C3%A1-the-modern-bistro-brooklyn?adjust_creative=9gNmiWYX8uTbFBeTTvJMdA&utm_campaign=yelp_api_v3&utm_medium=api_v3_business_search&utm_source=9gNmiWYX8uTbFBeTTvJMdA", "review_count": 231, "categories": [{"alias": "breakfast_brunch", "title": "Breakfast & Brunch"}, {"alias": "cocktailbars", "title": "Cocktail Bars"}, {"alias": "brazilian", "title": "Brazilian"}], "rating": 4.5, "coordinates": {"latitude": 40.63589, "longitude": -74.02582}, "transactions": ["delivery", "pickup"], "price": "$$", "location": {"address1": "6819 Third Ave", "address2": "(347) 662-6821", "address3": "", "city": "Brooklyn", "zip_code": "11220", "country": "US", "state": "NY", "display_address": ["6819 Third Ave", "(347) 662-6821", "Brooklyn, NY 11220"]}, "phone": "+13476626821", "display_phone": "(347) 662-6821", "distance": 14502.210653077784}, {"id": "6Pa3-9piblDJu0l8u84Jhg", "alias": "mi-mariachi-taqueria-jersey-city-2", "name": "Mi Mariachi Taqueria", "image_url": "https://s3-media3.fl.yelpcdn.com/bphoto/k3G68sNDpKddezqzd9pw7Q/o.jpg", "is_closed": false, "url": "https://www.yelp.com/biz/mi-mariachi-taqueria-jersey-city-2?adjust_creative=9gNmiWYX8uTbFBeTTvJMdA&utm_campaign=yelp_api_v3&utm_medium=api_v3_business_search&utm_source=9gNmiWYX8uTbFBeTTvJMdA", "review_count": 343, "categories": [{"alias": "mexican", "title": "Mexican"}], "rating": 4.5, "coordinates": {"latitude": 40.73156, "longitude": -74.06974}, "transactions": ["delivery"], "price": "$", "location": {"address1": "213 Sip Ave", "address2": "", "address3": "", "city": "Jersey City", "zip_code": "07306", "country": "US", "state": "NJ", "display_address": ["213 Sip Ave", "Jersey City, NJ 07306"]}, "phone": "+12012221998", "display_phone": "(201) 222-1998", "distance": 8977.164672368692}, {"id": "leYx3XTNEDLn9ezoXjlA5g", "alias": "krush-new-york-3", "name": "Krush", "image_url": "https://s3-media3.fl.yelpcdn.com/bphoto/3GJ_zgUScEyfxZuXpq5i4A/o.jpg", "is_closed": false, "url": "https://www.yelp.com/biz/krush-new-york-3?adjust_creative=9gNmiWYX8uTbFBeTTvJMdA&utm_campaign=yelp_api_v3&utm_medium=api_v3_business_search&utm_source=9gNmiWYX8uTbFBeTTvJMdA", "review_count": 224, "categories": [{"alias": "sportsbars", "title": "Sports Bars"}, {"alias": "korean", "title": "Korean"}, {"alias": "asianfusion", "title": "Asian Fusion"}], "rating": 3.5, "coordinates": {"latitude": 40.747204, "longitude": -73.986198}, "transactions": ["delivery", "pickup"], "price": "$$", "location": {"address1": "2 W 32nd St", "address2": "Fl 4", "address3": "", "city": "New York", "zip_code": "10001", "country": "US", "state": "NY", "display_address": ["2 W 32nd St", "Fl 4", "New York, NY 10001"]}, "phone": "+19172612099", "display_phone": "(917) 261-2099", "distance": 1926.8933297453464}, {"id": "LXeUqlG7z4_jZG6rXvhnzQ", "alias": "mezcal-kitchen-bayonne", "name": "Mezcal Kitchen", "image_url": "https://s3-media2.fl.yelpcdn.com/bphoto/TCH2DFqkjFkPnvHkV7yoPQ/o.jpg", "is_closed": false, "url": "https://www.yelp.com/biz/mezcal-kitchen-bayonne?adjust_creative=9gNmiWYX8uTbFBeTTvJMdA&utm_campaign=yelp_api_v3&utm_medium=api_v3_business_search&utm_source=9gNmiWYX8uTbFBeTTvJMdA", "review_count": 161, "categories": [{"alias": "mexican", "title": "Mexican"}, {"alias": "bars", "title": "Bars"}], "rating": 3.5, "coordinates": {"latitude": 40.66334, "longitude": -74.11837}, "transactions": ["delivery", "pickup"], "price": "$$", "location": {"address1": "482 Broadway", "address2": null, "address3": "", "city": "Bayonne", "zip_code": "07002", "country": "US", "state": "NJ", "display_address": ["482 Broadway", "Bayonne, NJ 07002"]}, "phone": "+12014712135", "display_phone": "(201) 471-2135", "distance": 16459.98844724843}, {"id": "ve78MsETSSr4f_9yc3wmwA", "alias": "astoria-taco-factory-astoria", "name": "Astoria Taco Factory", "image_url": "https://s3-media1.fl.yelpcdn.com/bphoto/bU-LN-7MSEyVprqUWLHA0w/o.jpg", "is_closed": false, "url": "https://www.yelp.com/biz/astoria-taco-factory-astoria?adjust_creative=9gNmiWYX8uTbFBeTTvJMdA&utm_campaign=yelp_api_v3&utm_medium=api_v3_business_search&utm_source=9gNmiWYX8uTbFBeTTvJMdA", "review_count": 83, "categories": [{"alias": "tacos", "title": "Tacos"}], "rating": 4.5, "coordinates": {"latitude": 40.77118, "longitude": -73.9272}, "transactions": ["delivery", "pickup"], "location": {"address1": "28-02 21st St", "address2": "", "address3": null, "city": "Astoria", "zip_code": "11102", "country": "US", "state": "NY", "display_address": ["28-02 21st St", "Astoria, NY 11102"]}, "phone": "+17186852899", "display_phone": "(718) 685-2899", "distance": 3809.6585318021275}, {"id": "4EGq0GMAJwGIrfhVg4PxVw", "alias": "swick-2-go-astoria", "name": "Swick 2 Go", "image_url": "https://s3-media3.fl.yelpcdn.com/bphoto/kt58Rkv3IjlIsJS4f2dydw/o.jpg", "is_closed": false, "url": "https://www.yelp.com/biz/swick-2-go-astoria?adjust_creative=9gNmiWYX8uTbFBeTTvJMdA&utm_campaign=yelp_api_v3&utm_medium=api_v3_business_search&utm_source=9gNmiWYX8uTbFBeTTvJMdA", "review_count": 44, "categories": [{"alias": "mexican", "title": "Mexican"}, {"alias": "breakfast_brunch", "title": "Breakfast & Brunch"}, {"alias": "coffee", "title": "Coffee & Tea"}], "rating": 4.0, "coordinates": {"latitude": 40.7564825, "longitude": -73.9254339}, "transactions": ["delivery", "pickup"], "price": "$", "location": {"address1": "3504 35th St", "address2": "", "address3": null, "city": "Astoria", "zip_code": "11106", "country": "US", "state": "NY", "display_address": ["3504 35th St", "Astoria, NY 11106"]}, "phone": "+17187866096", "display_phone": "(718) 786-6096", "distance": 3729.8352206115837}, {"id": "jSPjrnWeKIbWcDTzxnchyg", "alias": "pedacito-de-mexico-ii-new-york", "name": "Pedacito De Mexico II", "image_url": "https://s3-media1.fl.yelpcdn.com/bphoto/FeVnD3TAClN2mbRwtybadA/o.jpg", "is_closed": false, "url": "https://www.yelp.com/biz/pedacito-de-mexico-ii-new-york?adjust_creative=9gNmiWYX8uTbFBeTTvJMdA&utm_campaign=yelp_api_v3&utm_medium=api_v3_business_search&utm_source=9gNmiWYX8uTbFBeTTvJMdA", "review_count": 1, "categories": [{"alias": "foodtrucks", "title": "Food Trucks"}, {"alias": "mexican", "title": "Mexican"}], "rating": 5.0, "coordinates": {"latitude": 40.74123, "longitude": -73.91756}, "transactions": [], "location": {"address1": "47-11 47 Ave", "address2": "", "address3": null, "city": "New York", "zip_code": "11377", "country": "US", "state": "NY", "display_address": ["47-11 47 Ave", "New York, NY 11377"]}, "phone": "+13472351182", "display_phone": "(347) 235-1182", "distance": 4814.682356721804}, {"id": "TV_rsstsxdcFh_YmaSSv_g", "alias": "jalisco-tacos-bronx", "name": "Jalisco Tacos", "image_url": "https://s3-media3.fl.yelpcdn.com/bphoto/Ut20lPL5kdxxR5NvFtwkCw/o.jpg", "is_closed": false, "url": "https://www.yelp.com/biz/jalisco-tacos-bronx?adjust_creative=9gNmiWYX8uTbFBeTTvJMdA&utm_campaign=yelp_api_v3&utm_medium=api_v3_business_search&utm_source=9gNmiWYX8uTbFBeTTvJMdA", "review_count": 20, "categories": [{"alias": "mexican", "title": "Mexican"}], "rating": 4.5, "coordinates": {"latitude": 40.80622, "longitude": -73.91748}, "transactions": ["delivery"], "price": "$", "location": {"address1": "214 St Anns Ave", "address2": "", "address3": "", "city": "Bronx", "zip_code": "10454", "country": "US", "state": "NY", "display_address": ["214 St Anns Ave", "Bronx, NY 10454"]}, "phone": "+17185854148", "display_phone": "(718) 585-4148", "distance": 6828.488707817019}, {"id": "vQcK7BH6maW9dAZWJOuW3Q", "alias": "the-mermaid-inn-new-york-2", "name": "The Mermaid Inn", "image_url": "https://s3-media3.fl.yelpcdn.com/bphoto/clu1t11N921Td56I55DZCg/o.jpg", "is_closed": false, "url": "https://www.yelp.com/biz/the-mermaid-inn-new-york-2?adjust_creative=9gNmiWYX8uTbFBeTTvJMdA&utm_campaign=yelp_api_v3&utm_medium=api_v3_business_search&utm_source=9gNmiWYX8uTbFBeTTvJMdA", "review_count": 1294, "categories": [{"alias": "seafood", "title": "Seafood"}, {"alias": "breakfast_brunch", "title": "Breakfast & Brunch"}, {"alias": "sandwiches", "title": "Sandwiches"}], "rating": 4.0, "coordinates": {"latitude": 40.7887398925594, "longitude": -73.9744491607132}, "transactions": ["delivery", "pickup"], "price": "$$", "location": {"address1": "570 Amsterdam Ave", "address2": "", "address3": "", "city": "New York", "zip_code": "10024", "country": "US", "state": "NY", "display_address": ["570 Amsterdam Ave", "New York, NY 10024"]}, "phone": "+12127997400", "display_phone": "(212) 799-7400", "distance": 3313.0279489949903}, {"id": "XsxnMWdMpVixA7Yyq_vq7Q", "alias": "palomas-brooklyn", "name": "Paloma's", "image_url": "https://s3-media1.fl.yelpcdn.com/bphoto/MdEFP0Syvmdt2t3p1qZYxQ/o.jpg", "is_closed": false, "url": "https://www.yelp.com/biz/palomas-brooklyn?adjust_creative=9gNmiWYX8uTbFBeTTvJMdA&utm_campaign=yelp_api_v3&utm_medium=api_v3_business_search&utm_source=9gNmiWYX8uTbFBeTTvJMdA", "review_count": 175, "categories": [{"alias": "mexican", "title": "Mexican"}], "rating": 4.0, "coordinates": {"latitude": 40.70347, "longitude": -73.91213}, "transactions": ["delivery", "pickup"], "price": "$$", "location": {"address1": "435 Menahan St", "address2": null, "address3": "", "city": "Brooklyn", "zip_code": "11237", "country": "US", "state": "NY", "display_address": ["435 Menahan St", "Brooklyn, NY 11237"]}, "phone": "+17185522811", "display_phone": "(718) 552-2811", "distance": 7859.38686548462}, {"id": "BRqPr7YpcQCu23e5i__Frw", "alias": "orale-tacos-astoria-2", "name": "Orale Tacos", "image_url": "https://s3-media3.fl.yelpcdn.com/bphoto/1ngbJBqwobpEpJ8_bfIydg/o.jpg", "is_closed": false, "url": "https://www.yelp.com/biz/orale-tacos-astoria-2?adjust_creative=9gNmiWYX8uTbFBeTTvJMdA&utm_campaign=yelp_api_v3&utm_medium=api_v3_business_search&utm_source=9gNmiWYX8uTbFBeTTvJMdA", "review_count": 82, "categories": [{"alias": "tacos", "title": "Tacos"}], "rating": 4.0, "coordinates": {"latitude": 40.7689108, "longitude": -73.9256464}, "transactions": ["delivery", "pickup"], "price": "$", "location": {"address1": "23-23 30th Ave", "address2": "", "address3": null, "city": "Astoria", "zip_code": "11102", "country": "US", "state": "NY", "display_address": ["23-23 30th Ave", "Astoria, NY 11102"]}, "phone": "+17185451212", "display_phone": "(718) 545-1212", "distance": 3854.7062355649905}, {"id": "ITs0XFx1EEErfBcI218LXg", "alias": "mi-ranchito-restaurant-newark", "name": "Mi Ranchito Restaurant", "image_url": "https://s3-media1.fl.yelpcdn.com/bphoto/1CS5fJj5Us33dvMN-S-WDQ/o.jpg", "is_closed": false, "url": "https://www.yelp.com/biz/mi-ranchito-restaurant-newark?adjust_creative=9gNmiWYX8uTbFBeTTvJMdA&utm_campaign=yelp_api_v3&utm_medium=api_v3_business_search&utm_source=9gNmiWYX8uTbFBeTTvJMdA", "review_count": 11, "categories": [{"alias": "mexican", "title": "Mexican"}, {"alias": "latin", "title": "Latin American"}], "rating": 4.5, "coordinates": {"latitude": 40.75318, "longitude": -74.17092}, "transactions": ["delivery", "pickup"], "location": {"address1": "86 Broadway", "address2": null, "address3": "", "city": "Newark", "zip_code": "07104", "country": "US", "state": "NJ", "display_address": ["86 Broadway", "Newark, NJ 07104"]}, "phone": "+19738782695", "display_phone": "(973) 878-2695", "distance": 16960.498627324534}, {"id": "UKy0nNjMkOBEU3dOCH831w", "alias": "cuba-restaurant-and-rum-bar-new-york", "name": "Cuba Restaurant and Rum Bar", "image_url": "https://s3-media1.fl.yelpcdn.com/bphoto/muPAyvtBaDu6svjGt0_Mdg/o.jpg", "is_closed": false, "url": "https://www.yelp.com/biz/cuba-restaurant-and-rum-bar-new-york?adjust_creative=9gNmiWYX8uTbFBeTTvJMdA&utm_campaign=yelp_api_v3&utm_medium=api_v3_business_search&utm_source=9gNmiWYX8uTbFBeTTvJMdA", "review_count": 1673, "categories": [{"alias": "cuban", "title": "Cuban"}, {"alias": "caribbean", "title": "Caribbean"}, {"alias": "cocktailbars", "title": "Cocktail Bars"}], "rating": 4.0, "coordinates": {"latitude": 40.729084, "longitude": -73.998832}, "transactions": ["delivery", "pickup"], "price": "$$", "location": {"address1": "222 Thompson St", "address2": null, "address3": "", "city": "New York", "zip_code": "10012", "country": "US", "state": "NY", "display_address": ["222 Thompson St", "New York, NY 10012"]}, "phone": "+12124207878", "display_phone": "(212) 420-7878", "distance": 4155.144702851015}, {"id": "C-8mGN7lt5rIraO5n-15ug", "alias": "the-smith-new-york-2", "name": "The Smith", "image_url": "https://s3-media2.fl.yelpcdn.com/bphoto/B9c_dlv3GFfi0ozNZW3fwQ/o.jpg", "is_closed": false, "url": "https://www.yelp.com/biz/the-smith-new-york-2?adjust_creative=9gNmiWYX8uTbFBeTTvJMdA&utm_campaign=yelp_api_v3&utm_medium=api_v3_business_search&utm_source=9gNmiWYX8uTbFBeTTvJMdA", "review_count": 3073, "categories": [{"alias": "newamerican", "title": "American (New)"}, {"alias": "breakfast_brunch", "title": "Breakfast & Brunch"}, {"alias": "cocktailbars", "title": "Cocktail Bars"}], "rating": 4.0, "coordinates": {"latitude": 40.755165, "longitude": -73.967868}, "transactions": ["delivery", "pickup"], "price": "$$", "location": {"address1": "956 2nd Ave", "address2": "", "address3": "", "city": "New York", "zip_code": "10022", "country": "US", "state": "NY", "display_address": ["956 2nd Ave", "New York, NY 10022"]}, "phone": "+12126442700", "display_phone": "(212) 644-2700", "distance": 468.44098606934006}, {"id": "kLxfxcs8DPVjeOt9jvPwrw", "alias": "doris-brooklyn", "name": "Doris", "image_url": "https://s3-media1.fl.yelpcdn.com/bphoto/a6kcPrxpHmPKlNY1ILQZTg/o.jpg", "is_closed": false, "url": "https://www.yelp.com/biz/doris-brooklyn?adjust_creative=9gNmiWYX8uTbFBeTTvJMdA&utm_campaign=yelp_api_v3&utm_medium=api_v3_business_search&utm_source=9gNmiWYX8uTbFBeTTvJMdA", "review_count": 104, "categories": [{"alias": "bars", "title": "Bars"}], "rating": 4.0, "coordinates": {"latitude": 40.68121, "longitude": -73.957436}, "transactions": [], "price": "$$", "location": {"address1": "1088 Fulton St", "address2": "", "address3": "", "city": "Brooklyn", "zip_code": "11238", "country": "US", "state": "NY", "display_address": ["1088 Fulton St", "Brooklyn, NY 11238"]}, "phone": "+13472403350", "display_phone": "(347) 240-3350", "distance": 8729.421493847552}, {"id": "1uQJ10U7g6Erz5yZ0l_g3w", "alias": "e-a-t-new-york", "name": "E.A.T.", "image_url": "https://s3-media1.fl.yelpcdn.com/bphoto/NDSiKaNk8zatOhNqP_NuZg/o.jpg", "is_closed": false, "url": "https://www.yelp.com/biz/e-a-t-new-york?adjust_creative=9gNmiWYX8uTbFBeTTvJMdA&utm_campaign=yelp_api_v3&utm_medium=api_v3_business_search&utm_source=9gNmiWYX8uTbFBeTTvJMdA", "review_count": 364, "categories": [{"alias": "breakfast_brunch", "title": "Breakfast & Brunch"}, {"alias": "cafes", "title": "Cafes"}], "rating": 2.0, "coordinates": {"latitude": 40.77737, "longitude": -73.96154}, "transactions": ["delivery", "pickup"], "price": "$$", "location": {"address1": "1064 Madison Ave", "address2": "", "address3": "", "city": "New York", "zip_code": "10028", "country": "US", "state": "NY", "display_address": ["1064 Madison Ave", "New York, NY 10028"]}, "phone": "+12127720022", "display_phone": "(212) 772-0022", "distance": 2128.7018376884953}, {"id": "1-QgkACd4atRtc4AOGWz_Q", "alias": "tacos-y-jugos-genesis-elmhurst-3", "name": "Tacos Y Jugos Genesis", "image_url": "https://s3-media4.fl.yelpcdn.com/bphoto/Z49M9Za5nK4BEXp-0tb9EQ/o.jpg", "is_closed": false, "url": "https://www.yelp.com/biz/tacos-y-jugos-genesis-elmhurst-3?adjust_creative=9gNmiWYX8uTbFBeTTvJMdA&utm_campaign=yelp_api_v3&utm_medium=api_v3_business_search&utm_source=9gNmiWYX8uTbFBeTTvJMdA", "review_count": 150, "categories": [{"alias": "mexican", "title": "Mexican"}, {"alias": "sandwiches", "title": "Sandwiches"}, {"alias": "juicebars", "title": "Juice Bars & Smoothies"}], "rating": 4.0, "coordinates": {"latitude": 40.7435971734647, "longitude": -73.8868284970522}, "transactions": ["delivery", "pickup"], "price": "$", "location": {"address1": "7804 Woodside Ave", "address2": "", "address3": "", "city": "Elmhurst", "zip_code": "11373", "country": "US", "state": "NY", "display_address": ["7804 Woodside Ave", "Elmhurst, NY 11373"]}, "phone": "+17184262080", "display_phone": "(718) 426-2080", "distance": 7182.111996635173}, {"id": "KhGbD1U51KKcl6frzNDa0A", "alias": "taqueria-el-patron-mexican-grill-brooklyn", "name": "Taqueria El Patron Mexican Grill", "image_url": "https://s3-media2.fl.yelpcdn.com/bphoto/_phyi9RSMZg0LYneADrEFg/o.jpg", "is_closed": false, "url": "https://www.yelp.com/biz/taqueria-el-patron-mexican-grill-brooklyn?adjust_creative=9gNmiWYX8uTbFBeTTvJMdA&utm_campaign=yelp_api_v3&utm_medium=api_v3_business_search&utm_source=9gNmiWYX8uTbFBeTTvJMdA", "review_count": 236, "categories": [{"alias": "mexican", "title": "Mexican"}], "rating": 3.5, "coordinates": {"latitude": 40.6609280639479, "longitude": -73.9614267185271}, "transactions": ["delivery", "pickup"], "price": "$$$", "location": {"address1": "51 Lincoln Rd", "address2": "", "address3": "", "city": "Brooklyn", "zip_code": "11225", "country": "US", "state": "NY", "display_address": ["51 Lincoln Rd", "Brooklyn, NY 11225"]}, "phone": "+19178938733", "display_phone": "(917) 893-8733", "distance": 10946.078218263441}, {"id": "k1-h8_XaklkJWey4U3T18g", "alias": "sol-azteca-mexican-food-jersey-city", "name": "Sol Azteca Mexican Food", "image_url": "https://s3-media2.fl.yelpcdn.com/bphoto/YYSQZON5ryv_-FQqSo5CWg/o.jpg", "is_closed": false, "url": "https://www.yelp.com/biz/sol-azteca-mexican-food-jersey-city?adjust_creative=9gNmiWYX8uTbFBeTTvJMdA&utm_campaign=yelp_api_v3&utm_medium=api_v3_business_search&utm_source=9gNmiWYX8uTbFBeTTvJMdA", "review_count": 50, "categories": [{"alias": "tacos", "title": "Tacos"}], "rating": 3.5, "coordinates": {"latitude": 40.719431, "longitude": -74.049646}, "transactions": ["delivery", "pickup"], "location": {"address1": "328 Montgomery St", "address2": "", "address3": null, "city": "Jersey City", "zip_code": "07302", "country": "US", "state": "NJ", "display_address": ["328 Montgomery St", "Jersey City, NJ 07302"]}, "phone": "+12013323001", "display_phone": "(201) 332-3001", "distance": 8062.858789236106}, {"id": "4QVG74AmkmhjE63-gwyWow", "alias": "mexican-deli-new-york-2", "name": "Mexican Deli", "image_url": "https://s3-media4.fl.yelpcdn.com/bphoto/HKz9jX4A0gnvLfToeGFXRw/o.jpg", "is_closed": false, "url": "https://www.yelp.com/biz/mexican-deli-new-york-2?adjust_creative=9gNmiWYX8uTbFBeTTvJMdA&utm_campaign=yelp_api_v3&utm_medium=api_v3_business_search&utm_source=9gNmiWYX8uTbFBeTTvJMdA", "review_count": 41, "categories": [{"alias": "mexican", "title": "Mexican"}, {"alias": "delis", "title": "Delis"}, {"alias": "sandwiches", "title": "Sandwiches"}], "rating": 4.0, "coordinates": {"latitude": 40.799684, "longitude": -73.968647}, "transactions": ["delivery", "pickup"], "price": "$", "location": {"address1": "2711 Broadway", "address2": "", "address3": "", "city": "New York", "zip_code": "10025", "country": "US", "state": "NY", "display_address": ["2711 Broadway", "New York, NY 10025"]}, "phone": "+12129321111", "display_phone": "(212) 932-1111", "distance": 4503.353408900291}, {"id": "HuSaFUqMDLbovpU-XbR9UA", "alias": "the-original-soupman-new-york-7", "name": "The Original Soupman", "image_url": "https://s3-media2.fl.yelpcdn.com/bphoto/5L8avyaq9YeenqCzJu6eTg/o.jpg", "is_closed": false, "url": "https://www.yelp.com/biz/the-original-soupman-new-york-7?adjust_creative=9gNmiWYX8uTbFBeTTvJMdA&utm_campaign=yelp_api_v3&utm_medium=api_v3_business_search&utm_source=9gNmiWYX8uTbFBeTTvJMdA", "review_count": 588, "categories": [{"alias": "soup", "title": "Soup"}, {"alias": "seafood", "title": "Seafood"}], "rating": 4.0, "coordinates": {"latitude": 40.76538473997948, "longitude": -73.9834392665359}, "transactions": ["delivery", "pickup"], "price": "$", "location": {"address1": "259A W 55th St", "address2": "", "address3": "", "city": "New York", "zip_code": "10019", "country": "US", "state": "NY", "display_address": ["259A W 55th St", "New York, NY 10019"]}, "phone": "+12129560900", "display_phone": "(212) 956-0900", "distance": 1356.6442025965748}, {"id": "utU3ytd40hb3yIM5sXaL2A", "alias": "lucy-s-kitchen-ridgewood", "name": "Lucy\u2019s Kitchen", "image_url": "https://s3-media2.fl.yelpcdn.com/bphoto/xDi9bk2X0venBxjZTfvkHg/o.jpg", "is_closed": false, "url": "https://www.yelp.com/biz/lucy-s-kitchen-ridgewood?adjust_creative=9gNmiWYX8uTbFBeTTvJMdA&utm_campaign=yelp_api_v3&utm_medium=api_v3_business_search&utm_source=9gNmiWYX8uTbFBeTTvJMdA", "review_count": 5, "categories": [{"alias": "tacos", "title": "Tacos"}], "rating": 5.0, "coordinates": {"latitude": 40.70573, "longitude": -73.91038}, "transactions": ["delivery", "pickup"], "location": {"address1": "552 Onderdonk Ave", "address2": "", "address3": null, "city": "Ridgewood", "zip_code": "11385", "country": "US", "state": "NY", "display_address": ["552 Onderdonk Ave", "Ridgewood, NY 11385"]}, "phone": "+17188854385", "display_phone": "(718) 885-4385", "distance": 7758.784520600484}, {"id": "BmVH2X6mw8-zyq567Vcx7A", "alias": "chango-kitchen-hoboken", "name": "Chango Kitchen", "image_url": "https://s3-media3.fl.yelpcdn.com/bphoto/iiHf91-0zi8R7Rs5FEiTBg/o.jpg", "is_closed": false, "url": "https://www.yelp.com/biz/chango-kitchen-hoboken?adjust_creative=9gNmiWYX8uTbFBeTTvJMdA&utm_campaign=yelp_api_v3&utm_medium=api_v3_business_search&utm_source=9gNmiWYX8uTbFBeTTvJMdA", "review_count": 115, "categories": [{"alias": "latin", "title": "Latin American"}, {"alias": "cuban", "title": "Cuban"}, {"alias": "caribbean", "title": "Caribbean"}], "rating": 4.5, "coordinates": {"latitude": 40.74069, "longitude": -74.03351}, "transactions": ["delivery", "pickup"], "location": {"address1": "301 Willow Ave", "address2": null, "address3": "", "city": "Hoboken", "zip_code": "07030", "country": "US", "state": "NJ", "display_address": ["301 Willow Ave", "Hoboken, NJ 07030"]}, "phone": "+12016109801", "display_phone": "(201) 610-9801", "distance": 5766.316128704448}, {"id": "210LxcDl5dXlYOMlIUmEFQ", "alias": "lips-new-york-new-york-2", "name": "Lips - New York", "image_url": "https://s3-media2.fl.yelpcdn.com/bphoto/83x8G3UlFNQrCJkCvJuYWw/o.jpg", "is_closed": false, "url": "https://www.yelp.com/biz/lips-new-york-new-york-2?adjust_creative=9gNmiWYX8uTbFBeTTvJMdA&utm_campaign=yelp_api_v3&utm_medium=api_v3_business_search&utm_source=9gNmiWYX8uTbFBeTTvJMdA", "review_count": 768, "categories": [{"alias": "tradamerican", "title": "American (Traditional)"}, {"alias": "bars", "title": "Bars"}, {"alias": "cabaret", "title": "Cabaret"}], "rating": 4.0, "coordinates": {"latitude": 40.75923, "longitude": -73.96691}, "transactions": ["delivery"], "price": "$$$", "location": {"address1": "227 E 56th St", "address2": "", "address3": "", "city": "New York", "zip_code": "10022", "country": "US", "state": "NY", "display_address": ["227 E 56th St", "New York, NY 10022"]}, "phone": "+12126757710", "display_phone": "(212) 675-7710", "distance": 232.85755632826428}, {"id": "IAYa1h5Hh0jVtzXDUsojiQ", "alias": "tequila-sunrise-bayside", "name": "Tequila Sunrise", "image_url": "https://s3-media3.fl.yelpcdn.com/bphoto/2nx7z_P5q-g5KL7QQSh-EA/o.jpg", "is_closed": false, "url": "https://www.yelp.com/biz/tequila-sunrise-bayside?adjust_creative=9gNmiWYX8uTbFBeTTvJMdA&utm_campaign=yelp_api_v3&utm_medium=api_v3_business_search&utm_source=9gNmiWYX8uTbFBeTTvJMdA", "review_count": 276, "categories": [{"alias": "mexican", "title": "Mexican"}, {"alias": "bars", "title": "Bars"}, {"alias": "latin", "title": "Latin American"}], "rating": 3.0, "coordinates": {"latitude": 40.76937, "longitude": -73.77356}, "transactions": ["delivery", "pickup"], "price": "$$", "location": {"address1": "34-37 Bell Blvd", "address2": "", "address3": "", "city": "Bayside", "zip_code": "11361", "country": "US", "state": "NY", "display_address": ["34-37 Bell Blvd", "Bayside, NY 11361"]}, "phone": "+17186310377", "display_phone": "(718) 631-0377", "distance": 16548.0328005328}, {"id": "iUsk8CPoDyoBmwVdU1_9QQ", "alias": "sidewalk-tacos-new-york-3", "name": "Sidewalk Tacos", "image_url": "https://s3-media3.fl.yelpcdn.com/bphoto/FGcSdNQn5kma2duXsepMkA/o.jpg", "is_closed": false, "url": "https://www.yelp.com/biz/sidewalk-tacos-new-york-3?adjust_creative=9gNmiWYX8uTbFBeTTvJMdA&utm_campaign=yelp_api_v3&utm_medium=api_v3_business_search&utm_source=9gNmiWYX8uTbFBeTTvJMdA", "review_count": 34, "categories": [{"alias": "mexican", "title": "Mexican"}, {"alias": "foodtrucks", "title": "Food Trucks"}], "rating": 4.0, "coordinates": {"latitude": 40.7284088, "longitude": -73.9996719}, "transactions": [], "price": "$", "location": {"address1": "Bleecker & Thompson", "address2": "", "address3": "", "city": "New York", "zip_code": "10012", "country": "US", "state": "NY", "display_address": ["Bleecker & Thompson", "New York, NY 10012"]}, "phone": "+16464549255", "display_phone": "(646) 454-9255", "distance": 4259.77272703496}, {"id": "_3U3dNdAw-2yD67xAQbCPw", "alias": "taqueria-el-patron-mexican-grill-brooklyn-2", "name": "Taqueria El Patron Mexican Grill", "image_url": "https://s3-media4.fl.yelpcdn.com/bphoto/Xev4k2LmHuXqLRtsdMbqiQ/o.jpg", "is_closed": false, "url": "https://www.yelp.com/biz/taqueria-el-patron-mexican-grill-brooklyn-2?adjust_creative=9gNmiWYX8uTbFBeTTvJMdA&utm_campaign=yelp_api_v3&utm_medium=api_v3_business_search&utm_source=9gNmiWYX8uTbFBeTTvJMdA", "review_count": 21, "categories": [{"alias": "mexican", "title": "Mexican"}], "rating": 4.5, "coordinates": {"latitude": 40.6768, "longitude": -73.98004}, "transactions": ["delivery", "pickup"], "location": {"address1": "191 5th Ave", "address2": null, "address3": "", "city": "Brooklyn", "zip_code": "11215", "country": "US", "state": "NY", "display_address": ["191 5th Ave", "Brooklyn, NY 11215"]}, "phone": "+13479161188", "display_phone": "(347) 916-1188", "distance": 9206.27536951972}], "total": 4800, "region": {"center": {"longitude": -73.96957397460938, "latitude": 40.75917470627005}}}