{"businesses": [{"id": "DY2wlHlgC5eHITs-d5rT4w", "alias": "panchos-new-york-2", "name": "Panchos", "image_url": "https://s3-media3.fl.yelpcdn.com/bphoto/Xu-8FDtnm42D4bFgGouG_g/o.jpg", "is_closed": false, "url": "https://www.yelp.com/biz/panchos-new-york-2?adjust_creative=9gNmiWYX8uTbFBeTTvJMdA&utm_campaign=yelp_api_v3&utm_medium=api_v3_business_search&utm_source=9gNmiWYX8uTbFBeTTvJMdA", "review_count": 70, "categories": [{"alias": "mexican", "title": "Mexican"}, {"alias": "breakfast_brunch", "title": "Breakfast & Brunch"}], "rating": 4.5, "coordinates": {"latitude": 40.8015, "longitude": -73.96534}, "transactions": ["delivery", "pickup"], "price": "$", "location": {"address1": "964 Amsterdam Ave", "address2": "", "address3": "", "city": "New York", "zip_code": "10025", "country": "US", "state": "NY", "display_address": ["964 Amsterdam Ave", "New York, NY 10025"]}, "phone": "+12123165400", "display_phone": "(212) 316-5400", "distance": 4717.779141409403}, {"id": "boRM4i0UQswxQIp6CA9y_A", "alias": "la-esquina-soho-new-york", "name": "La Esquina - SoHo", "image_url": "https://s3-media4.fl.yelpcdn.com/bphoto/VnZy4zvQYvMDp96tEGbLYA/o.jpg", "is_closed": false, "url": "https://www.yelp.com/biz/la-esquina-soho-new-york?adjust_creative=9gNmiWYX8uTbFBeTTvJMdA&utm_campaign=yelp_api_v3&utm_medium=api_v3_business_search&utm_source=9gNmiWYX8uTbFBeTTvJMdA", "review_count": 2163, "categories": [{"alias": "latin", "title": "Latin American"}, {"alias": "breakfast_brunch", "title": "Breakfast & Brunch"}, {"alias": "mexican", "title": "Mexican"}], "rating": 3.5, "coordinates": {"latitude": 40.721372, "longitude": -73.997529}, "transactions": ["delivery", "pickup"], "price": "$$", "location": {"address1": "114 Kenmare St", "address2": "", "address3": "", "city": "New York", "zip_code": "10012", "country": "US", "state": "NY", "display_address": ["114 Kenmare St", "New York, NY 10012"]}, "phone": "+16466137100", "display_phone": "(646) 613-7100", "distance": 4818.306757293478}, {"id": "LJTGRkX5yWoqx1jJ7E4zqw", "alias": "haymaker-bar-and-kitchen-new-york", "name": "Haymaker Bar and Kitchen", "image_url": "https://s3-media1.fl.yelpcdn.com/bphoto/-0u1fc73yGbX2KSXEzS_dA/o.jpg", "is_closed": false, "url": "https://www.yelp.com/biz/haymaker-bar-and-kitchen-new-york?adjust_creative=9gNmiWYX8uTbFBeTTvJMdA&utm_campaign=yelp_api_v3&utm_medium=api_v3_business_search&utm_source=9gNmiWYX8uTbFBeTTvJMdA", "review_count": 381, "categories": [{"alias": "gastropubs", "title": "Gastropubs"}, {"alias": "beerbar", "title": "Beer Bar"}, {"alias": "breakfast_brunch", "title": "Breakfast & Brunch"}], "rating": 4.0, "coordinates": {"latitude": 40.7487508496393, "longitude": -73.995229748466}, "transactions": ["restaurant_reservation", "delivery", "pickup"], "price": "$$", "location": {"address1": "252 W 29th St", "address2": "", "address3": "", "city": "New York", "zip_code": "10001", "country": "US", "state": "NY", "display_address": ["252 W 29th St", "New York, NY 10001"]}, "phone": "+16464298237", "display_phone": "(646) 429-8237", "distance": 2452.2591024978224}, {"id": "OwV-MtDBC2H08rVcBqP2mA", "alias": "pio-pio-8-new-york-5", "name": "Pio Pio 8", "image_url": "https://s3-media1.fl.yelpcdn.com/bphoto/HezN3FXL21Ru-UGkqyEMaA/o.jpg", "is_closed": false, "url": "https://www.yelp.com/biz/pio-pio-8-new-york-5?adjust_creative=9gNmiWYX8uTbFBeTTvJMdA&utm_campaign=yelp_api_v3&utm_medium=api_v3_business_search&utm_source=9gNmiWYX8uTbFBeTTvJMdA", "review_count": 2543, "categories": [{"alias": "latin", "title": "Latin American"}, {"alias": "peruvian", "title": "Peruvian"}], "rating": 4.0, "coordinates": {"latitude": 40.760506289326, "longitude": -73.994564488901}, "transactions": ["delivery"], "price": "$$$", "location": {"address1": "604 10th Ave", "address2": "", "address3": "", "city": "New York", "zip_code": "10036", "country": "US", "state": "NY", "display_address": ["604 10th Ave", "New York, NY 10036"]}, "phone": "+12124592929", "display_phone": "(212) 459-2929", "distance": 2110.0230558651297}, {"id": "4Z0sxJTNkxhRBH3l5PG_qw", "alias": "bar-tulix-new-york-3", "name": "Bar Tulix", "image_url": "https://s3-media2.fl.yelpcdn.com/bphoto/iIMX-qoPrCvOZP2Oq4cdgQ/o.jpg", "is_closed": false, "url": "https://www.yelp.com/biz/bar-tulix-new-york-3?adjust_creative=9gNmiWYX8uTbFBeTTvJMdA&utm_campaign=yelp_api_v3&utm_medium=api_v3_business_search&utm_source=9gNmiWYX8uTbFBeTTvJMdA", "review_count": 58, "categories": [{"alias": "mexican", "title": "Mexican"}, {"alias": "seafood", "title": "Seafood"}], "rating": 4.0, "coordinates": {"latitude": 40.72577, "longitude": -73.99808}, "transactions": ["delivery", "pickup"], "location": {"address1": "25 W Houston St", "address2": null, "address3": "", "city": "New York", "zip_code": "10012", "country": "US", "state": "NY", "display_address": ["25 W Houston St", "New York, NY 10012"]}, "phone": "+12123347320", "display_phone": "(212) 334-7320", "distance": 4424.4291957983005}, {"id": "XO6IbZn2oxonPrfcXHK4HA", "alias": "casa-mexicana-new-york-2", "name": "Casa Mexicana", "image_url": "https://s3-media2.fl.yelpcdn.com/bphoto/ZutDA20wzBiJbsEsZwiMdA/o.jpg", "is_closed": false, "url": "https://www.yelp.com/biz/casa-mexicana-new-york-2?adjust_creative=9gNmiWYX8uTbFBeTTvJMdA&utm_campaign=yelp_api_v3&utm_medium=api_v3_business_search&utm_source=9gNmiWYX8uTbFBeTTvJMdA", "review_count": 221, "categories": [{"alias": "mexican", "title": "Mexican"}], "rating": 4.0, "coordinates": {"latitude": 40.7989892, "longitude": -73.966955}, "transactions": ["delivery", "pickup"], "price": "$$", "location": {"address1": "894 Amsterdam Ave", "address2": null, "address3": "", "city": "New York", "zip_code": "10025", "country": "US", "state": "NY", "display_address": ["894 Amsterdam Ave", "New York, NY 10025"]}, "phone": "+16469228295", "display_phone": "(646) 922-8295", "distance": 4419.813417225483}, {"id": "H08vCdbcP3oy0cBEKqM5KQ", "alias": "el-rey-del-sabor-new-york", "name": "El Rey del Sabor", "image_url": "https://s3-media2.fl.yelpcdn.com/bphoto/mbnRmlbbnMdCqEKUobeSUA/o.jpg", "is_closed": false, "url": "https://www.yelp.com/biz/el-rey-del-sabor-new-york?adjust_creative=9gNmiWYX8uTbFBeTTvJMdA&utm_campaign=yelp_api_v3&utm_medium=api_v3_business_search&utm_source=9gNmiWYX8uTbFBeTTvJMdA", "review_count": 73, "categories": [{"alias": "foodstands", "title": "Food Stands"}, {"alias": "mexican", "title": "Mexican"}], "rating": 4.0, "coordinates": {"latitude": 40.7622400274526, "longitude": -73.9663818196397}, "transactions": [], "price": "$", "location": {"address1": "166 E 60th St", "address2": "", "address3": "", "city": "New York", "zip_code": "10021", "country": "US", "state": "NY", "display_address": ["166 E 60th St", "New York, NY 10021"]}, "phone": "+13473532939", "display_phone": "(347) 353-2939", "distance": 434.12016758770284}, {"id": "L5eqJRy8Yx_4El6rUxWmBw", "alias": "el-vez-burrito-bar-new-york", "name": "El Vez Burrito Bar", "image_url": "https://s3-media4.fl.yelpcdn.com/bphoto/j1LtD2Bzxvzo1PFWXb_MPQ/o.jpg", "is_closed": false, "url": "https://www.yelp.com/biz/el-vez-burrito-bar-new-york?adjust_creative=9gNmiWYX8uTbFBeTTvJMdA&utm_campaign=yelp_api_v3&utm_medium=api_v3_business_search&utm_source=9gNmiWYX8uTbFBeTTvJMdA", "review_count": 155, "categories": [{"alias": "mexican", "title": "Mexican"}, {"alias": "salad", "title": "Salad"}, {"alias": "breakfast_brunch", "title": "Breakfast & Brunch"}], "rating": 4.0, "coordinates": {"latitude": 40.7147356376792, "longitude": -74.015635}, "transactions": [], "price": "$$", "location": {"address1": "259 Vesey St", "address2": "", "address3": "", "city": "New York", "zip_code": "10282", "country": "US", "state": "NY", "display_address": ["259 Vesey St", "New York, NY 10282"]}, "phone": "+12122332500", "display_phone": "(212) 233-2500", "distance": 6283.160629708872}, {"id": "mhrLDFTxUzW2koRAzjlt5g", "alias": "chavelas-brooklyn-2", "name": "Chavela's", "image_url": "https://s3-media4.fl.yelpcdn.com/bphoto/R5sb4kX3GETd9aEBRNOVXg/o.jpg", "is_closed": false, "url": "https://www.yelp.com/biz/chavelas-brooklyn-2?adjust_creative=9gNmiWYX8uTbFBeTTvJMdA&utm_campaign=yelp_api_v3&utm_medium=api_v3_business_search&utm_source=9gNmiWYX8uTbFBeTTvJMdA", "review_count": 1259, "categories": [{"alias": "mexican", "title": "Mexican"}, {"alias": "bars", "title": "Bars"}], "rating": 4.0, "coordinates": {"latitude": 40.673484, "longitude": -73.957267}, "transactions": ["delivery", "pickup"], "price": "$$", "location": {"address1": "736 Franklin Ave", "address2": null, "address3": "", "city": "Brooklyn", "zip_code": "11238", "country": "US", "state": "NY", "display_address": ["736 Franklin Ave", "Brooklyn, NY 11238"]}, "phone": "+17186223100", "display_phone": "(718) 622-3100", "distance": 9584.65807493143}, {"id": "RyEd54MOTc5OcYtOiDt11g", "alias": "iguana-restaurant-and-dance-lounge-new-york", "name": "Iguana Restaurant & Dance Lounge", "image_url": "https://s3-media2.fl.yelpcdn.com/bphoto/a3VIDmIf_3zs57NeScTg_w/o.jpg", "is_closed": false, "url": "https://www.yelp.com/biz/iguana-restaurant-and-dance-lounge-new-york?adjust_creative=9gNmiWYX8uTbFBeTTvJMdA&utm_campaign=yelp_api_v3&utm_medium=api_v3_business_search&utm_source=9gNmiWYX8uTbFBeTTvJMdA", "review_count": 940, "categories": [{"alias": "danceclubs", "title": "Dance Clubs"}, {"alias": "mexican", "title": "Mexican"}, {"alias": "tex-mex", "title": "Tex-Mex"}], "rating": 3.0, "coordinates": {"latitude": 40.7642063, "longitude": -73.9832105}, "transactions": ["delivery", "pickup"], "price": "$$", "location": {"address1": "240 W 54th St", "address2": "", "address3": "", "city": "New York", "zip_code": "10019", "country": "US", "state": "NY", "display_address": ["240 W 54th St", "New York, NY 10019"]}, "phone": "+12127655454", "display_phone": "(212) 765-5454", "distance": 1277.529855071169}, {"id": "f7g3GhoQs9nQVTJEL2p48Q", "alias": "gran-electrica-brooklyn-3", "name": "Gran Electrica", "image_url": "https://s3-media1.fl.yelpcdn.com/bphoto/8dZWTy7qI5HQpLbBFQG71Q/o.jpg", "is_closed": false, "url": "https://www.yelp.com/biz/gran-electrica-brooklyn-3?adjust_creative=9gNmiWYX8uTbFBeTTvJMdA&utm_campaign=yelp_api_v3&utm_medium=api_v3_business_search&utm_source=9gNmiWYX8uTbFBeTTvJMdA", "review_count": 524, "categories": [{"alias": "mexican", "title": "Mexican"}, {"alias": "breakfast_brunch", "title": "Breakfast & Brunch"}, {"alias": "cocktailbars", "title": "Cocktail Bars"}], "rating": 3.5, "coordinates": {"latitude": 40.7027, "longitude": -73.99314}, "transactions": ["delivery", "pickup"], "price": "$$", "location": {"address1": "5 Front St", "address2": "", "address3": "", "city": "Brooklyn", "zip_code": "11201", "country": "US", "state": "NY", "display_address": ["5 Front St", "Brooklyn, NY 11201"]}, "phone": "+17188522700", "display_phone": "(718) 852-2700", "distance": 6586.851931380988}, {"id": "jzVv_21473lAMYXIhVbuTA", "alias": "de-mole-astoria-astoria", "name": "De Mole Astoria", "image_url": "https://s3-media2.fl.yelpcdn.com/bphoto/ydAsU1lYjsOPkeb_Lbowiw/o.jpg", "is_closed": false, "url": "https://www.yelp.com/biz/de-mole-astoria-astoria?adjust_creative=9gNmiWYX8uTbFBeTTvJMdA&utm_campaign=yelp_api_v3&utm_medium=api_v3_business_search&utm_source=9gNmiWYX8uTbFBeTTvJMdA", "review_count": 413, "categories": [{"alias": "mexican", "title": "Mexican"}], "rating": 4.0, "coordinates": {"latitude": 40.7625999, "longitude": -73.9129028}, "transactions": ["delivery", "pickup"], "price": "$$", "location": {"address1": "4220 30th Ave", "address2": "", "address3": "", "city": "Astoria", "zip_code": "11103", "country": "US", "state": "NY", "display_address": ["4220 30th Ave", "Astoria, NY 11103"]}, "phone": "+17187771655", "display_phone": "(718) 777-1655", "distance": 4793.736639079687}, {"id": "juULANORQ2onWkEvSMjlaw", "alias": "al-horno-lean-mexican-kitchen-new-york-5", "name": "Al Horno Lean Mexican Kitchen", "image_url": "https://s3-media1.fl.yelpcdn.com/bphoto/KgIi2Lq-T1F2HTfWiFjfmg/o.jpg", "is_closed": false, "url": "https://www.yelp.com/biz/al-horno-lean-mexican-kitchen-new-york-5?adjust_creative=9gNmiWYX8uTbFBeTTvJMdA&utm_campaign=yelp_api_v3&utm_medium=api_v3_business_search&utm_source=9gNmiWYX8uTbFBeTTvJMdA", "review_count": 139, "categories": [{"alias": "mexican", "title": "Mexican"}], "rating": 3.5, "coordinates": {"latitude": 40.75967, "longitude": -73.96525}, "transactions": ["delivery", "pickup"], "price": "$$", "location": {"address1": "1089 2nd Ave", "address2": "", "address3": "", "city": "New York", "zip_code": "10022", "country": "US", "state": "NY", "display_address": ["1089 2nd Ave", "New York, NY 10022"]}, "phone": "+12125469316", "display_phone": "(212) 546-9316", "distance": 363.4291584730575}, {"id": "7hu07o2L614x-waBF91N2w", "alias": "mas-veggies-vegan-taqueria-new-york-3", "name": "Mas Veggies Vegan Taqueria", "image_url": "https://s3-media3.fl.yelpcdn.com/bphoto/btmuGAcXMwWqZw_i2zRgjA/o.jpg", "is_closed": false, "url": "https://www.yelp.com/biz/mas-veggies-vegan-taqueria-new-york-3?adjust_creative=9gNmiWYX8uTbFBeTTvJMdA&utm_campaign=yelp_api_v3&utm_medium=api_v3_business_search&utm_source=9gNmiWYX8uTbFBeTTvJMdA", "review_count": 2, "categories": [{"alias": "fooddeliveryservices", "title": "Food Delivery Services"}, {"alias": "vegan", "title": "Vegan"}, {"alias": "mexican", "title": "Mexican"}], "rating": 4.5, "coordinates": {"latitude": 40.75679, "longitude": -73.96679}, "transactions": ["delivery"], "location": {"address1": "1004 2nd Ave", "address2": "", "address3": null, "city": "New York", "zip_code": "10022", "country": "US", "state": "NY", "display_address": ["1004 2nd Ave", "New York, NY 10022"]}, "phone": "+19174518970", "display_phone": "(917) 451-8970", "distance": 354.5356657761877}, {"id": "5PIEHs-0Jv-tS8bjDrypew", "alias": "taco-tumba-astoria", "name": "Taco Tumba", "image_url": "https://s3-media4.fl.yelpcdn.com/bphoto/0j9zY4oaKCJ2eBenbu3bFA/o.jpg", "is_closed": false, "url": "https://www.yelp.com/biz/taco-tumba-astoria?adjust_creative=9gNmiWYX8uTbFBeTTvJMdA&utm_campaign=yelp_api_v3&utm_medium=api_v3_business_search&utm_source=9gNmiWYX8uTbFBeTTvJMdA", "review_count": 103, "categories": [{"alias": "tacos", "title": "Tacos"}, {"alias": "cocktailbars", "title": "Cocktail Bars"}], "rating": 4.0, "coordinates": {"latitude": 40.76372534484979, "longitude": -73.9154483}, "transactions": ["delivery", "pickup"], "location": {"address1": "30-10 Steinway St", "address2": "", "address3": null, "city": "Astoria", "zip_code": "11103", "country": "US", "state": "NY", "display_address": ["30-10 Steinway St", "Astoria, NY 11103"]}, "phone": "+19292080755", "display_phone": "(929) 208-0755", "distance": 4586.6123456836085}, {"id": "j9a6xr78a6tPBblKvvBJew", "alias": "the-cactus-shop-brooklyn", "name": "The Cactus Shop", "image_url": "https://s3-media4.fl.yelpcdn.com/bphoto/qa2JmutkSNSdmCUmRa0v4A/o.jpg", "is_closed": false, "url": "https://www.yelp.com/biz/the-cactus-shop-brooklyn?adjust_creative=9gNmiWYX8uTbFBeTTvJMdA&utm_campaign=yelp_api_v3&utm_medium=api_v3_business_search&utm_source=9gNmiWYX8uTbFBeTTvJMdA", "review_count": 41, "categories": [{"alias": "cocktailbars", "title": "Cocktail Bars"}, {"alias": "gardening", "title": "Nurseries & Gardening"}, {"alias": "mexican", "title": "Mexican"}], "rating": 4.0, "coordinates": {"latitude": 40.71672, "longitude": -73.96543}, "transactions": ["delivery", "pickup"], "price": "$$", "location": {"address1": "231 Kent Ave", "address2": "", "address3": null, "city": "Brooklyn", "zip_code": "11249", "country": "US", "state": "NY", "display_address": ["231 Kent Ave", "Brooklyn, NY 11249"]}, "phone": "+13477498474", "display_phone": "(347) 749-8474", "distance": 4738.077571434979}, {"id": "ePKsXWq7alN3Q1kQ6cKaUg", "alias": "the-red-grill-new-york", "name": "The Red Grill", "image_url": "https://s3-media4.fl.yelpcdn.com/bphoto/Xtfzu7QkDDJT3fHK1Z5sQA/o.jpg", "is_closed": false, "url": "https://www.yelp.com/biz/the-red-grill-new-york?adjust_creative=9gNmiWYX8uTbFBeTTvJMdA&utm_campaign=yelp_api_v3&utm_medium=api_v3_business_search&utm_source=9gNmiWYX8uTbFBeTTvJMdA", "review_count": 77, "categories": [{"alias": "mexican", "title": "Mexican"}, {"alias": "breakfast_brunch", "title": "Breakfast & Brunch"}, {"alias": "seafood", "title": "Seafood"}], "rating": 4.0, "coordinates": {"latitude": 40.77935, "longitude": -73.95089}, "transactions": ["delivery", "pickup"], "location": {"address1": "1701 2nd Ave", "address2": "", "address3": null, "city": "New York", "zip_code": "10128", "country": "US", "state": "NY", "display_address": ["1701 2nd Ave", "New York, NY 10128"]}, "phone": "+12127222188", "display_phone": "(212) 722-2188", "distance": 2741.0106908035273}, {"id": "bbSVzQG_vBlc7uKOT-IATQ", "alias": "dos-toros-taqueria-new-york-34", "name": "Dos Toros Taqueria", "image_url": "https://s3-media3.fl.yelpcdn.com/bphoto/YNKkLDHM3C6WvM5cUMjtuw/o.jpg", "is_closed": false, "url": "https://www.yelp.com/biz/dos-toros-taqueria-new-york-34?adjust_creative=9gNmiWYX8uTbFBeTTvJMdA&utm_campaign=yelp_api_v3&utm_medium=api_v3_business_search&utm_source=9gNmiWYX8uTbFBeTTvJMdA", "review_count": 26, "categories": [{"alias": "mexican", "title": "Mexican"}], "rating": 3.5, "coordinates": {"latitude": 40.75685, "longitude": -73.97738}, "transactions": ["delivery", "pickup"], "location": {"address1": "10 E 48th St", "address2": "", "address3": null, "city": "New York", "zip_code": "10017", "country": "US", "state": "NY", "display_address": ["10 E 48th St", "New York, NY 10017"]}, "phone": "+16469214880", "display_phone": "(646) 921-4880", "distance": 706.9993186937788}, {"id": "msTXsZGFMWSCMsdf6yIB2Q", "alias": "la-cocina-de-mama-new-york", "name": "La Cocina De Mama", "image_url": "https://s3-media4.fl.yelpcdn.com/bphoto/5huNLSpk-lLWE_HtmcemtA/o.jpg", "is_closed": false, "url": "https://www.yelp.com/biz/la-cocina-de-mama-new-york?adjust_creative=9gNmiWYX8uTbFBeTTvJMdA&utm_campaign=yelp_api_v3&utm_medium=api_v3_business_search&utm_source=9gNmiWYX8uTbFBeTTvJMdA", "review_count": 16, "categories": [{"alias": "mexican", "title": "Mexican"}], "rating": 5.0, "coordinates": {"latitude": 40.793995, "longitude": -73.944716}, "transactions": ["delivery", "pickup"], "location": {"address1": "154E 109th St", "address2": null, "address3": "", "city": "New York", "zip_code": "10029", "country": "US", "state": "NY", "display_address": ["154E 109th St", "New York, NY 10029"]}, "phone": "+12123483619", "display_phone": "(212) 348-3619", "distance": 4401.3771622244985}, {"id": "ApzxIf8AYh3MEgvF63Zuvw", "alias": "cantina-48-new-york-2", "name": "Cantina 48", "image_url": "https://s3-media1.fl.yelpcdn.com/bphoto/KFRW-wVXo45cUx2sMFEqIQ/o.jpg", "is_closed": false, "url": "https://www.yelp.com/biz/cantina-48-new-york-2?adjust_creative=9gNmiWYX8uTbFBeTTvJMdA&utm_campaign=yelp_api_v3&utm_medium=api_v3_business_search&utm_source=9gNmiWYX8uTbFBeTTvJMdA", "review_count": 12, "categories": [{"alias": "lounges", "title": "Lounges"}, {"alias": "mexican", "title": "Mexican"}], "rating": 3.5, "coordinates": {"latitude": 40.76497, "longitude": -73.99607}, "transactions": ["delivery"], "location": {"address1": "605 W 48th St", "address2": "Fl 3", "address3": null, "city": "New York", "zip_code": "10036", "country": "US", "state": "NY", "display_address": ["605 W 48th St", "Fl 3", "New York, NY 10036"]}, "phone": "+12129571700", "display_phone": "(212) 957-1700", "distance": 2320.2891043581058}, {"id": "ifGXrRqs-zp6ek7LsoozrQ", "alias": "taqueria-diana-new-york", "name": "Taqueria Diana", "image_url": "https://s3-media3.fl.yelpcdn.com/bphoto/maR9NPS80WT_KJyOaNmVuA/o.jpg", "is_closed": false, "url": "https://www.yelp.com/biz/taqueria-diana-new-york?adjust_creative=9gNmiWYX8uTbFBeTTvJMdA&utm_campaign=yelp_api_v3&utm_medium=api_v3_business_search&utm_source=9gNmiWYX8uTbFBeTTvJMdA", "review_count": 782, "categories": [{"alias": "mexican", "title": "Mexican"}], "rating": 3.5, "coordinates": {"latitude": 40.7284337609976, "longitude": -73.9879844318771}, "transactions": ["delivery", "pickup"], "price": "$", "location": {"address1": "129 2nd Ave", "address2": null, "address3": "", "city": "New York", "zip_code": "10003", "country": "US", "state": "NY", "display_address": ["129 2nd Ave", "New York, NY 10003"]}, "phone": "+16464227871", "display_phone": "(646) 422-7871", "distance": 3753.6507293876894}, {"id": "vC5XPdWzKa-c8iUQlUwEUQ", "alias": "orale-mexican-kitchen-hoboken", "name": "Orale Mexican Kitchen", "image_url": "https://s3-media2.fl.yelpcdn.com/bphoto/JoGSshioz1P0iwN1iEIAqg/o.jpg", "is_closed": false, "url": "https://www.yelp.com/biz/orale-mexican-kitchen-hoboken?adjust_creative=9gNmiWYX8uTbFBeTTvJMdA&utm_campaign=yelp_api_v3&utm_medium=api_v3_business_search&utm_source=9gNmiWYX8uTbFBeTTvJMdA", "review_count": 312, "categories": [{"alias": "mexican", "title": "Mexican"}, {"alias": "cocktailbars", "title": "Cocktail Bars"}], "rating": 4.0, "coordinates": {"latitude": 40.75493, "longitude": -74.02968}, "transactions": ["delivery"], "price": "$$", "location": {"address1": "1426 Willow Ave", "address2": null, "address3": "", "city": "Hoboken", "zip_code": "07030", "country": "US", "state": "NJ", "display_address": ["1426 Willow Ave", "Hoboken, NJ 07030"]}, "phone": "+12019423937", "display_phone": "(201) 942-3937", "distance": 5082.255909117085}, {"id": "Jd2_ZC4ugEMSY9ElivNZgg", "alias": "summer-salt-new-york-3", "name": "Summer Salt", "image_url": "https://s3-media2.fl.yelpcdn.com/bphoto/P0Vi6svCSDFKhSW_KC15jg/o.jpg", "is_closed": false, "url": "https://www.yelp.com/biz/summer-salt-new-york-3?adjust_creative=9gNmiWYX8uTbFBeTTvJMdA&utm_campaign=yelp_api_v3&utm_medium=api_v3_business_search&utm_source=9gNmiWYX8uTbFBeTTvJMdA", "review_count": 190, "categories": [{"alias": "tacos", "title": "Tacos"}, {"alias": "newmexican", "title": "New Mexican Cuisine"}], "rating": 4.5, "coordinates": {"latitude": 40.74057, "longitude": -73.98768}, "transactions": ["delivery", "pickup"], "location": {"address1": "30 East 23rd St", "address2": null, "address3": "", "city": "New York", "zip_code": "10010", "country": "US", "state": "NY", "display_address": ["30 East 23rd St", "New York, NY 10010"]}, "phone": "+12122090648", "display_phone": "(212) 209-0648", "distance": 2574.054902539089}, {"id": "zwWksgd8M4-g7RBmVudYTg", "alias": "aldama-brooklyn", "name": "Aldama", "image_url": "https://s3-media1.fl.yelpcdn.com/bphoto/vG5ecyJ0kA175rSX0je0zQ/o.jpg", "is_closed": false, "url": "https://www.yelp.com/biz/aldama-brooklyn?adjust_creative=9gNmiWYX8uTbFBeTTvJMdA&utm_campaign=yelp_api_v3&utm_medium=api_v3_business_search&utm_source=9gNmiWYX8uTbFBeTTvJMdA", "review_count": 70, "categories": [{"alias": "mexican", "title": "Mexican"}, {"alias": "cocktailbars", "title": "Cocktail Bars"}], "rating": 4.0, "coordinates": {"latitude": 40.710999707909046, "longitude": -73.96489653736353}, "transactions": [], "location": {"address1": "91 S 6th St", "address2": "", "address3": null, "city": "Brooklyn", "zip_code": "11249", "country": "US", "state": "NY", "display_address": ["91 S 6th St", "Brooklyn, NY 11249"]}, "phone": "+19292980233", "display_phone": "(929) 298-0233", "distance": 5371.287071754027}, {"id": "ojeMH0rbOOMx9ajChbVkJQ", "alias": "papatzul-new-york", "name": "Papatzul", "image_url": "https://s3-media3.fl.yelpcdn.com/bphoto/RJoBMK-itx2Lnuw4L5H5mA/o.jpg", "is_closed": false, "url": "https://www.yelp.com/biz/papatzul-new-york?adjust_creative=9gNmiWYX8uTbFBeTTvJMdA&utm_campaign=yelp_api_v3&utm_medium=api_v3_business_search&utm_source=9gNmiWYX8uTbFBeTTvJMdA", "review_count": 474, "categories": [{"alias": "mexican", "title": "Mexican"}, {"alias": "bars", "title": "Bars"}], "rating": 3.5, "coordinates": {"latitude": 40.722148, "longitude": -74.003677}, "transactions": ["delivery", "pickup"], "price": "$$", "location": {"address1": "55 Grand St", "address2": null, "address3": "", "city": "New York", "zip_code": "10013", "country": "US", "state": "NY", "display_address": ["55 Grand St", "New York, NY 10013"]}, "phone": "+12122748225", "display_phone": "(212) 274-8225", "distance": 5019.752502699866}, {"id": "rpTW8Ozm8q8kN5RWOYSvFA", "alias": "oaxaca-taco-de-revolucion-long-island-city-2", "name": "Oaxaca Taco De Revolucion", "image_url": "https://s3-media1.fl.yelpcdn.com/bphoto/uDh8rtm2R4wDijEGfT7AqQ/o.jpg", "is_closed": false, "url": "https://www.yelp.com/biz/oaxaca-taco-de-revolucion-long-island-city-2?adjust_creative=9gNmiWYX8uTbFBeTTvJMdA&utm_campaign=yelp_api_v3&utm_medium=api_v3_business_search&utm_source=9gNmiWYX8uTbFBeTTvJMdA", "review_count": 2, "categories": [{"alias": "mexican", "title": "Mexican"}], "rating": 2.5, "coordinates": {"latitude": 40.7475815, "longitude": -73.9542618}, "transactions": [], "location": {"address1": "5-29 46th Ave", "address2": "", "address3": "", "city": "Long Island City", "zip_code": "11101", "country": "US", "state": "NY", "display_address": ["5-29 46th Ave", "Long Island City, NY 11101"]}, "phone": "", "display_phone": "", "distance": 1830.8736725129586}, {"id": "UBqLK5kg0kT72CIaBYa5Zg", "alias": "patron-mexican-grill-new-york-3", "name": "Patron Mexican Grill", "image_url": "https://s3-media2.fl.yelpcdn.com/bphoto/ROOK2lvI_po2VEdz0UrjfQ/o.jpg", "is_closed": false, "url": "https://www.yelp.com/biz/patron-mexican-grill-new-york-3?adjust_creative=9gNmiWYX8uTbFBeTTvJMdA&utm_campaign=yelp_api_v3&utm_medium=api_v3_business_search&utm_source=9gNmiWYX8uTbFBeTTvJMdA", "review_count": 482, "categories": [{"alias": "mexican", "title": "Mexican"}], "rating": 3.5, "coordinates": {"latitude": 40.75923, "longitude": -73.99173}, "transactions": ["delivery", "pickup"], "price": "$$", "location": {"address1": "608 9th Ave", "address2": "", "address3": "", "city": "New York", "zip_code": "10036", "country": "US", "state": "NY", "display_address": ["608 9th Ave", "New York, NY 10036"]}, "phone": "+12129579050", "display_phone": "(212) 957-9050", "distance": 1863.8602637470187}, {"id": "W87C7jAakZL1GkV5kzb5XA", "alias": "pinks-cantina-new-york-4", "name": "Pinks Cantina", "image_url": "https://s3-media4.fl.yelpcdn.com/bphoto/vjJJ7cssNkqaxQBlqQaT6Q/o.jpg", "is_closed": false, "url": "https://www.yelp.com/biz/pinks-cantina-new-york-4?adjust_creative=9gNmiWYX8uTbFBeTTvJMdA&utm_campaign=yelp_api_v3&utm_medium=api_v3_business_search&utm_source=9gNmiWYX8uTbFBeTTvJMdA", "review_count": 33, "categories": [{"alias": "mexican", "title": "Mexican"}, {"alias": "lounges", "title": "Lounges"}], "rating": 4.0, "coordinates": {"latitude": 40.72229, "longitude": -73.99189}, "transactions": ["delivery", "pickup"], "location": {"address1": "203 Chrystie St", "address2": null, "address3": "", "city": "New York", "zip_code": "10002", "country": "US", "state": "NY", "display_address": ["203 Chrystie St", "New York, NY 10002"]}, "phone": "+16468580186", "display_phone": "(646) 858-0186", "distance": 4512.911711726396}, {"id": "unWoFZeSWa0DK1YMekO_Uw", "alias": "trademark-bar-kitchen-new-york", "name": "Trademark Bar + Kitchen", "image_url": "https://s3-media3.fl.yelpcdn.com/bphoto/aZ7xvwm29ZSw5RTE9pxTMA/o.jpg", "is_closed": false, "url": "https://www.yelp.com/biz/trademark-bar-kitchen-new-york?adjust_creative=9gNmiWYX8uTbFBeTTvJMdA&utm_campaign=yelp_api_v3&utm_medium=api_v3_business_search&utm_source=9gNmiWYX8uTbFBeTTvJMdA", "review_count": 714, "categories": [{"alias": "venues", "title": "Venues & Event Spaces"}, {"alias": "breakfast_brunch", "title": "Breakfast & Brunch"}, {"alias": "tradamerican", "title": "American (Traditional)"}], "rating": 4.5, "coordinates": {"latitude": 40.7503233942813, "longitude": -73.9855566306885}, "transactions": ["delivery", "pickup"], "price": "$$", "location": {"address1": "38 W 36th St", "address2": null, "address3": "", "city": "New York", "zip_code": "10018", "country": "US", "state": "NY", "display_address": ["38 W 36th St", "New York, NY 10018"]}, "phone": "+16468582320", "display_phone": "(646) 858-2320", "distance": 1667.6478909580371}, {"id": "NXjCypQNl7tBrdR3gkFqdg", "alias": "lupitas-restaurant-new-york-2", "name": "Lupita's Restaurant", "image_url": "https://s3-media1.fl.yelpcdn.com/bphoto/xKJ1sCscyNR7-rusQrxneA/o.jpg", "is_closed": false, "url": "https://www.yelp.com/biz/lupitas-restaurant-new-york-2?adjust_creative=9gNmiWYX8uTbFBeTTvJMdA&utm_campaign=yelp_api_v3&utm_medium=api_v3_business_search&utm_source=9gNmiWYX8uTbFBeTTvJMdA", "review_count": 142, "categories": [{"alias": "mexican", "title": "Mexican"}], "rating": 4.0, "coordinates": {"latitude": 40.790205, "longitude": -73.943136}, "transactions": ["delivery", "pickup"], "price": "$$", "location": {"address1": "2049 2nd Ave", "address2": "", "address3": "", "city": "New York", "zip_code": "10029", "country": "US", "state": "NY", "display_address": ["2049 2nd Ave", "New York, NY 10029"]}, "phone": "+16465904202", "display_phone": "(646) 590-4202", "distance": 4106.268190508033}, {"id": "2hmhZim4bX2lbjPSNc7LaA", "alias": "javelina-new-york-7", "name": "Javelina", "image_url": "https://s3-media2.fl.yelpcdn.com/bphoto/DxQ92dshupgnMBI4Q39i_g/o.jpg", "is_closed": false, "url": "https://www.yelp.com/biz/javelina-new-york-7?adjust_creative=9gNmiWYX8uTbFBeTTvJMdA&utm_campaign=yelp_api_v3&utm_medium=api_v3_business_search&utm_source=9gNmiWYX8uTbFBeTTvJMdA", "review_count": 528, "categories": [{"alias": "tex-mex", "title": "Tex-Mex"}, {"alias": "southern", "title": "Southern"}, {"alias": "mexican", "title": "Mexican"}], "rating": 4.0, "coordinates": {"latitude": 40.7368812561035, "longitude": -73.9873886108398}, "transactions": ["delivery", "pickup"], "price": "$$", "location": {"address1": "119 E 18th St", "address2": null, "address3": "", "city": "New York", "zip_code": "10003", "country": "US", "state": "NY", "display_address": ["119 E 18th St", "New York, NY 10003"]}, "phone": "+12125390202", "display_phone": "(212) 539-0202", "distance": 2897.9903253721686}, {"id": "QwL5LS436Xjo9MHFi2rc-g", "alias": "agave-new-york", "name": "Agave", "image_url": "https://s3-media4.fl.yelpcdn.com/bphoto/joSXh6iZAadg40a6uIzoyg/o.jpg", "is_closed": false, "url": "https://www.yelp.com/biz/agave-new-york?adjust_creative=9gNmiWYX8uTbFBeTTvJMdA&utm_campaign=yelp_api_v3&utm_medium=api_v3_business_search&utm_source=9gNmiWYX8uTbFBeTTvJMdA", "review_count": 1402, "categories": [{"alias": "mexican", "title": "Mexican"}, {"alias": "breakfast_brunch", "title": "Breakfast & Brunch"}, {"alias": "bars", "title": "Bars"}], "rating": 3.5, "coordinates": {"latitude": 40.734767, "longitude": -74.002415}, "transactions": ["restaurant_reservation", "delivery", "pickup"], "price": "$$", "location": {"address1": "140 7th Ave S", "address2": "", "address3": "", "city": "New York", "zip_code": "10014", "country": "US", "state": "NY", "display_address": ["140 7th Ave S", "New York, NY 10014"]}, "phone": "+12129892100", "display_phone": "(212) 989-2100", "distance": 3875.529917966328}, {"id": "Q10FeFs1mtNchv1NbNcsLg", "alias": "oaxaca-taqueria-new-york-6", "name": "Oaxaca Taqueria", "image_url": "https://s3-media2.fl.yelpcdn.com/bphoto/PF-ZGIO11nI8lVA5LOtz8A/o.jpg", "is_closed": false, "url": "https://www.yelp.com/biz/oaxaca-taqueria-new-york-6?adjust_creative=9gNmiWYX8uTbFBeTTvJMdA&utm_campaign=yelp_api_v3&utm_medium=api_v3_business_search&utm_source=9gNmiWYX8uTbFBeTTvJMdA", "review_count": 142, "categories": [{"alias": "mexican", "title": "Mexican"}], "rating": 3.5, "coordinates": {"latitude": 40.745314, "longitude": -73.97949471396348}, "transactions": ["delivery", "pickup"], "price": "$$", "location": {"address1": "152 E 33rd St", "address2": "", "address3": "", "city": "New York", "zip_code": "10016", "country": "US", "state": "NY", "display_address": ["152 E 33rd St", "New York, NY 10016"]}, "phone": "+12126844404", "display_phone": "(212) 684-4404", "distance": 1753.2133660536706}, {"id": "8p1HTzXEcC3TCbLz59xMng", "alias": "la-diagonal-new-york-5", "name": "La Diagonal", "image_url": "https://s3-media1.fl.yelpcdn.com/bphoto/tqzBoFbri3TkDFknmk7hTQ/o.jpg", "is_closed": false, "url": "https://www.yelp.com/biz/la-diagonal-new-york-5?adjust_creative=9gNmiWYX8uTbFBeTTvJMdA&utm_campaign=yelp_api_v3&utm_medium=api_v3_business_search&utm_source=9gNmiWYX8uTbFBeTTvJMdA", "review_count": 267, "categories": [{"alias": "bars", "title": "Bars"}, {"alias": "newmexican", "title": "New Mexican Cuisine"}, {"alias": "tapas", "title": "Tapas Bars"}], "rating": 4.0, "coordinates": {"latitude": 40.8061, "longitude": -73.95302}, "transactions": ["delivery", "pickup"], "price": "$$", "location": {"address1": "185 St Nicholas Ave", "address2": null, "address3": null, "city": "New York", "zip_code": "10026", "country": "US", "state": "NY", "display_address": ["185 St Nicholas Ave", "New York, NY 10026"]}, "phone": "+12124181220", "display_phone": "(212) 418-1220", "distance": 5403.545228452046}, {"id": "tJHmKLn1lWpaPuZTZrDgsA", "alias": "havana-ny-new-york-3", "name": "Havana NY", "image_url": "https://s3-media4.fl.yelpcdn.com/bphoto/sQv222eODf8g89GVKZQW6Q/o.jpg", "is_closed": false, "url": "https://www.yelp.com/biz/havana-ny-new-york-3?adjust_creative=9gNmiWYX8uTbFBeTTvJMdA&utm_campaign=yelp_api_v3&utm_medium=api_v3_business_search&utm_source=9gNmiWYX8uTbFBeTTvJMdA", "review_count": 357, "categories": [{"alias": "cuban", "title": "Cuban"}, {"alias": "latin", "title": "Latin American"}, {"alias": "venues", "title": "Venues & Event Spaces"}], "rating": 4.0, "coordinates": {"latitude": 40.75189, "longitude": -73.98517}, "transactions": ["delivery", "pickup"], "price": "$$$", "location": {"address1": "58 W 38th St", "address2": null, "address3": "", "city": "New York", "zip_code": "10018", "country": "US", "state": "NY", "display_address": ["58 W 38th St", "New York, NY 10018"]}, "phone": "+12129440990", "display_phone": "(212) 944-0990", "distance": 1552.5692942748358}, {"id": "NcIUA8l_kmbPEwqI9lzELg", "alias": "anejo-new-york-10", "name": "Anejo", "image_url": "https://s3-media4.fl.yelpcdn.com/bphoto/MoWnIw41GwDPEgWFQoES5Q/o.jpg", "is_closed": false, "url": "https://www.yelp.com/biz/anejo-new-york-10?adjust_creative=9gNmiWYX8uTbFBeTTvJMdA&utm_campaign=yelp_api_v3&utm_medium=api_v3_business_search&utm_source=9gNmiWYX8uTbFBeTTvJMdA", "review_count": 823, "categories": [{"alias": "mexican", "title": "Mexican"}, {"alias": "tapasmallplates", "title": "Tapas/Small Plates"}], "rating": 3.5, "coordinates": {"latitude": 40.762577, "longitude": -73.992919}, "transactions": ["delivery", "pickup"], "price": "$$", "location": {"address1": "668 10th Ave", "address2": "", "address3": "", "city": "New York", "zip_code": "10036", "country": "US", "state": "NY", "display_address": ["668 10th Ave", "New York, NY 10036"]}, "phone": "+12129204770", "display_phone": "(212) 920-4770", "distance": 2008.5089588489586}, {"id": "1m6viubAWUgsTgguIrJT6A", "alias": "cosme-new-york", "name": "Cosme", "image_url": "https://s3-media1.fl.yelpcdn.com/bphoto/Bj2OUs6p2sOxq4mgo0WYjg/o.jpg", "is_closed": false, "url": "https://www.yelp.com/biz/cosme-new-york?adjust_creative=9gNmiWYX8uTbFBeTTvJMdA&utm_campaign=yelp_api_v3&utm_medium=api_v3_business_search&utm_source=9gNmiWYX8uTbFBeTTvJMdA", "review_count": 1215, "categories": [{"alias": "mexican", "title": "Mexican"}, {"alias": "desserts", "title": "Desserts"}, {"alias": "cocktailbars", "title": "Cocktail Bars"}], "rating": 3.5, "coordinates": {"latitude": 40.739691, "longitude": -73.988428}, "transactions": ["delivery"], "price": "$$$$", "location": {"address1": "35 E 21st St", "address2": "", "address3": "", "city": "New York", "zip_code": "10010", "country": "US", "state": "NY", "display_address": ["35 E 21st St", "New York, NY 10010"]}, "phone": "+12129139659", "display_phone": "(212) 913-9659", "distance": 2686.284740585513}, {"id": "y2dSu-qwp1BmLfQRn_c-1Q", "alias": "bar-lula-new-york", "name": "Bar Lula", "image_url": "https://s3-media2.fl.yelpcdn.com/bphoto/J4C2_YmJf33QCYVkW-VvZQ/o.jpg", "is_closed": false, "url": "https://www.yelp.com/biz/bar-lula-new-york?adjust_creative=9gNmiWYX8uTbFBeTTvJMdA&utm_campaign=yelp_api_v3&utm_medium=api_v3_business_search&utm_source=9gNmiWYX8uTbFBeTTvJMdA", "review_count": 45, "categories": [{"alias": "cocktailbars", "title": "Cocktail Bars"}, {"alias": "french", "title": "French"}, {"alias": "mexican", "title": "Mexican"}], "rating": 4.5, "coordinates": {"latitude": 40.72743, "longitude": -73.98521}, "transactions": [], "location": {"address1": "132 1st Ave", "address2": null, "address3": "", "city": "New York", "zip_code": "10009", "country": "US", "state": "NY", "display_address": ["132 1st Ave", "New York, NY 10009"]}, "phone": "+12127277900", "display_phone": "(212) 727-7900", "distance": 3768.0967528019974}, {"id": "clTandR9fDd4OaREI8qTsQ", "alias": "el-tepeyac-taqueria-new-york-5", "name": "El Tepeyac Taqueria", "image_url": "https://s3-media4.fl.yelpcdn.com/bphoto/v_3jTF44YE71pv-JsmQM1Q/o.jpg", "is_closed": false, "url": "https://www.yelp.com/biz/el-tepeyac-taqueria-new-york-5?adjust_creative=9gNmiWYX8uTbFBeTTvJMdA&utm_campaign=yelp_api_v3&utm_medium=api_v3_business_search&utm_source=9gNmiWYX8uTbFBeTTvJMdA", "review_count": 4, "categories": [{"alias": "mexican", "title": "Mexican"}], "rating": 5.0, "coordinates": {"latitude": 40.78665, "longitude": -73.95019}, "transactions": ["delivery", "pickup"], "location": {"address1": "1505 Lexington Ave", "address2": null, "address3": "", "city": "New York", "zip_code": "10029", "country": "US", "state": "NY", "display_address": ["1505 Lexington Ave", "New York, NY 10029"]}, "phone": "+12127222020", "display_phone": "(212) 722-2020", "distance": 3464.7891311695457}, {"id": "cUyfnb3E7HvzNfbTgTjl_Q", "alias": "despa\u00f1a-fine-foods-and-tapas-cafe-new-york-2", "name": "Despa\u00f1a Fine Foods & Tapas Cafe", "image_url": "https://s3-media2.fl.yelpcdn.com/bphoto/P_ElQd-AkKJOWHPps-f-Mg/o.jpg", "is_closed": false, "url": "https://www.yelp.com/biz/despa%C3%B1a-fine-foods-and-tapas-cafe-new-york-2?adjust_creative=9gNmiWYX8uTbFBeTTvJMdA&utm_campaign=yelp_api_v3&utm_medium=api_v3_business_search&utm_source=9gNmiWYX8uTbFBeTTvJMdA", "review_count": 594, "categories": [{"alias": "spanish", "title": "Spanish"}], "rating": 4.5, "coordinates": {"latitude": 40.721094, "longitude": -73.9978255}, "transactions": ["delivery", "pickup"], "price": "$$", "location": {"address1": "408 Broome St", "address2": null, "address3": "", "city": "New York", "zip_code": "10013", "country": "US", "state": "NY", "display_address": ["408 Broome St", "New York, NY 10013"]}, "phone": "+12122195050", "display_phone": "(212) 219-5050", "distance": 4857.491672777191}, {"id": "zASGm-RyRNTY2xQir2nV_w", "alias": "jajaja-mexicana-brooklyn", "name": "Jajaja Mexicana", "image_url": "https://s3-media2.fl.yelpcdn.com/bphoto/01E7Hf18Oq7BMa1I6cy6Nw/o.jpg", "is_closed": false, "url": "https://www.yelp.com/biz/jajaja-mexicana-brooklyn?adjust_creative=9gNmiWYX8uTbFBeTTvJMdA&utm_campaign=yelp_api_v3&utm_medium=api_v3_business_search&utm_source=9gNmiWYX8uTbFBeTTvJMdA", "review_count": 94, "categories": [{"alias": "mexican", "title": "Mexican"}, {"alias": "vegan", "title": "Vegan"}, {"alias": "cocktailbars", "title": "Cocktail Bars"}], "rating": 4.5, "coordinates": {"latitude": 40.720138288951354, "longitude": -73.96157921170422}, "transactions": ["delivery", "pickup"], "price": "$$", "location": {"address1": "119 Kent Ave", "address2": "", "address3": null, "city": "Brooklyn", "zip_code": "11249", "country": "US", "state": "NY", "display_address": ["119 Kent Ave", "Brooklyn, NY 11249"]}, "phone": "+18604792872", "display_phone": "(860) 479-2872", "distance": 4392.59601549977}, {"id": "huCqalKTIWBv8w6fFsG49g", "alias": "tobal\u00e1-the-bronx", "name": "Tobal\u00e1", "image_url": "https://s3-media4.fl.yelpcdn.com/bphoto/f2PBuC9QagwX3NKpl6jotA/o.jpg", "is_closed": false, "url": "https://www.yelp.com/biz/tobal%C3%A1-the-bronx?adjust_creative=9gNmiWYX8uTbFBeTTvJMdA&utm_campaign=yelp_api_v3&utm_medium=api_v3_business_search&utm_source=9gNmiWYX8uTbFBeTTvJMdA", "review_count": 20, "categories": [{"alias": "mexican", "title": "Mexican"}, {"alias": "cocktailbars", "title": "Cocktail Bars"}], "rating": 4.5, "coordinates": {"latitude": 40.88748545950914, "longitude": -73.90687009999999}, "transactions": [], "location": {"address1": "3732 Riverdale Ave", "address2": "", "address3": null, "city": "The Bronx", "zip_code": "10463", "country": "US", "state": "NY", "display_address": ["3732 Riverdale Ave", "The Bronx, NY 10463"]}, "phone": "+13474276889", "display_phone": "(347) 427-6889", "distance": 15211.812088607752}, {"id": "vgg1dvDP-9tFWSacN4q0nA", "alias": "coppelia-new-york", "name": "Coppelia", "image_url": "https://s3-media3.fl.yelpcdn.com/bphoto/sXzxZcMCd5ZH2RzZ26QJZQ/o.jpg", "is_closed": false, "url": "https://www.yelp.com/biz/coppelia-new-york?adjust_creative=9gNmiWYX8uTbFBeTTvJMdA&utm_campaign=yelp_api_v3&utm_medium=api_v3_business_search&utm_source=9gNmiWYX8uTbFBeTTvJMdA", "review_count": 1505, "categories": [{"alias": "cuban", "title": "Cuban"}, {"alias": "latin", "title": "Latin American"}, {"alias": "bars", "title": "Bars"}], "rating": 4.0, "coordinates": {"latitude": 40.7389111700125, "longitude": -73.9999985153443}, "transactions": ["delivery", "pickup"], "price": "$$", "location": {"address1": "207 W 14th St", "address2": "", "address3": "", "city": "New York", "zip_code": "10011", "country": "US", "state": "NY", "display_address": ["207 W 14th St", "New York, NY 10011"]}, "phone": "+12128585001", "display_phone": "(212) 858-5001", "distance": 3412.5440551424117}, {"id": "MOZ5R0tqNmO2InOd3eDw5g", "alias": "lime-and-salt-queens-2", "name": "Lime & Salt", "image_url": "https://s3-media2.fl.yelpcdn.com/bphoto/lGqp4x__R9uoQIvYYrVLWw/o.jpg", "is_closed": false, "url": "https://www.yelp.com/biz/lime-and-salt-queens-2?adjust_creative=9gNmiWYX8uTbFBeTTvJMdA&utm_campaign=yelp_api_v3&utm_medium=api_v3_business_search&utm_source=9gNmiWYX8uTbFBeTTvJMdA", "review_count": 41, "categories": [{"alias": "newmexican", "title": "New Mexican Cuisine"}, {"alias": "mexican", "title": "Mexican"}], "rating": 4.5, "coordinates": {"latitude": 40.789873, "longitude": -73.8289994}, "transactions": ["delivery", "pickup"], "location": {"address1": "98-102 Queens Blvd", "address2": "", "address3": null, "city": "Queens", "zip_code": "11374", "country": "US", "state": "NY", "display_address": ["98-102 Queens Blvd", "Queens, NY 11374"]}, "phone": "+17182751575", "display_phone": "(718) 275-1575", "distance": 10296.02945221027}, {"id": "LyCE268_fz_MAZieFZY1lA", "alias": "el-cantinero-new-york", "name": "El Cantinero", "image_url": "https://s3-media1.fl.yelpcdn.com/bphoto/Ya5_c0EaexVqvqajW-sa-Q/o.jpg", "is_closed": false, "url": "https://www.yelp.com/biz/el-cantinero-new-york?adjust_creative=9gNmiWYX8uTbFBeTTvJMdA&utm_campaign=yelp_api_v3&utm_medium=api_v3_business_search&utm_source=9gNmiWYX8uTbFBeTTvJMdA", "review_count": 585, "categories": [{"alias": "mexican", "title": "Mexican"}, {"alias": "tex-mex", "title": "Tex-Mex"}], "rating": 3.0, "coordinates": {"latitude": 40.73364, "longitude": -73.99324}, "transactions": ["delivery"], "price": "$$", "location": {"address1": "86 University Pl", "address2": "", "address3": "", "city": "New York", "zip_code": "10003", "country": "US", "state": "NY", "display_address": ["86 University Pl", "New York, NY 10003"]}, "phone": "+12122559378", "display_phone": "(212) 255-9378", "distance": 3470.374187049037}, {"id": "jFYEsw6_4y4VMpSVB863sw", "alias": "mojave-astoria-2", "name": "Mojave", "image_url": "https://s3-media2.fl.yelpcdn.com/bphoto/3ahVJYCXCFm-Ug8ZPElHLA/o.jpg", "is_closed": false, "url": "https://www.yelp.com/biz/mojave-astoria-2?adjust_creative=9gNmiWYX8uTbFBeTTvJMdA&utm_campaign=yelp_api_v3&utm_medium=api_v3_business_search&utm_source=9gNmiWYX8uTbFBeTTvJMdA", "review_count": 791, "categories": [{"alias": "southern", "title": "Southern"}, {"alias": "mexican", "title": "Mexican"}, {"alias": "tex-mex", "title": "Tex-Mex"}], "rating": 3.5, "coordinates": {"latitude": 40.7753290076368, "longitude": -73.9119911693115}, "transactions": ["delivery", "pickup"], "price": "$$", "location": {"address1": "22-36 31st St", "address2": "", "address3": "", "city": "Astoria", "zip_code": "11105", "country": "US", "state": "NY", "display_address": ["22-36 31st St", "Astoria, NY 11105"]}, "phone": "+17185454100", "display_phone": "(718) 545-4100", "distance": 5171.353774779888}, {"id": "JYNBy2r3LVhJbLHE1bASfg", "alias": "the-smith-new-york-3", "name": "The Smith", "image_url": "https://s3-media1.fl.yelpcdn.com/bphoto/93G45TS0FUpmfCSAJ5e9iA/o.jpg", "is_closed": false, "url": "https://www.yelp.com/biz/the-smith-new-york-3?adjust_creative=9gNmiWYX8uTbFBeTTvJMdA&utm_campaign=yelp_api_v3&utm_medium=api_v3_business_search&utm_source=9gNmiWYX8uTbFBeTTvJMdA", "review_count": 2041, "categories": [{"alias": "newamerican", "title": "American (New)"}, {"alias": "breakfast_brunch", "title": "Breakfast & Brunch"}, {"alias": "cocktailbars", "title": "Cocktail Bars"}], "rating": 4.0, "coordinates": {"latitude": 40.7716201269986, "longitude": -73.9818377981476}, "transactions": ["delivery", "pickup"], "price": "$$", "location": {"address1": "1900 Broadway", "address2": "", "address3": "", "city": "New York", "zip_code": "10023", "country": "US", "state": "NY", "display_address": ["1900 Broadway", "New York, NY 10023"]}, "phone": "+12124965700", "display_phone": "(212) 496-5700", "distance": 1726.7968428644688}, {"id": "AIKjw2QLvVNdha3TciJYzg", "alias": "boqueria-soho-new-york-2", "name": "Boqueria Soho", "image_url": "https://s3-media2.fl.yelpcdn.com/bphoto/OFgH7zGCr_nQEALkKIjolw/o.jpg", "is_closed": false, "url": "https://www.yelp.com/biz/boqueria-soho-new-york-2?adjust_creative=9gNmiWYX8uTbFBeTTvJMdA&utm_campaign=yelp_api_v3&utm_medium=api_v3_business_search&utm_source=9gNmiWYX8uTbFBeTTvJMdA", "review_count": 1221, "categories": [{"alias": "spanish", "title": "Spanish"}, {"alias": "tapas", "title": "Tapas Bars"}, {"alias": "tapasmallplates", "title": "Tapas/Small Plates"}], "rating": 4.0, "coordinates": {"latitude": 40.7249227818105, "longitude": -74.00215536627918}, "transactions": ["delivery", "pickup"], "price": "$$", "location": {"address1": "171 Spring St", "address2": "", "address3": "", "city": "New York", "zip_code": "10012", "country": "US", "state": "NY", "display_address": ["171 Spring St", "New York, NY 10012"]}, "phone": "+12123434255", "display_phone": "(212) 343-4255", "distance": 4694.695196427623}, {"id": "CfOBb6NU2awo8xclJpKU3g", "alias": "chela-park-slope-brooklyn-2", "name": "Chela Park Slope", "image_url": "https://s3-media2.fl.yelpcdn.com/bphoto/oLv9OIXrShL3GBn3_66L-Q/o.jpg", "is_closed": false, "url": "https://www.yelp.com/biz/chela-park-slope-brooklyn-2?adjust_creative=9gNmiWYX8uTbFBeTTvJMdA&utm_campaign=yelp_api_v3&utm_medium=api_v3_business_search&utm_source=9gNmiWYX8uTbFBeTTvJMdA", "review_count": 635, "categories": [{"alias": "mexican", "title": "Mexican"}, {"alias": "cocktailbars", "title": "Cocktail Bars"}, {"alias": "breakfast_brunch", "title": "Breakfast & Brunch"}], "rating": 4.5, "coordinates": {"latitude": 40.67032, "longitude": -73.98569}, "transactions": ["delivery", "pickup"], "price": "$$", "location": {"address1": "408 5th Ave", "address2": "", "address3": null, "city": "Brooklyn", "zip_code": "11215", "country": "US", "state": "NY", "display_address": ["408 5th Ave", "Brooklyn, NY 11215"]}, "phone": "+17187011891", "display_phone": "(718) 701-1891", "distance": 9973.273979664813}, {"id": "iTj5T_jPYvznd1QTgs7NZw", "alias": "nai-new-york", "name": "Nai ", "image_url": "https://s3-media1.fl.yelpcdn.com/bphoto/gZyuvvfbY_OqX9bDjf-ByA/o.jpg", "is_closed": false, "url": "https://www.yelp.com/biz/nai-new-york?adjust_creative=9gNmiWYX8uTbFBeTTvJMdA&utm_campaign=yelp_api_v3&utm_medium=api_v3_business_search&utm_source=9gNmiWYX8uTbFBeTTvJMdA", "review_count": 1059, "categories": [{"alias": "tapasmallplates", "title": "Tapas/Small Plates"}, {"alias": "spanish", "title": "Spanish"}], "rating": 4.5, "coordinates": {"latitude": 40.7265319, "longitude": -73.9888568}, "transactions": ["delivery"], "price": "$$$", "location": {"address1": "84 2nd Ave", "address2": null, "address3": "", "city": "New York", "zip_code": "10003", "country": "US", "state": "NY", "display_address": ["84 2nd Ave", "New York, NY 10003"]}, "phone": "+12126771030", "display_phone": "(212) 677-1030", "distance": 3976.659673981733}], "total": 4800, "region": {"center": {"longitude": -73.96957397460938, "latitude": 40.75917470627005}}}