{"businesses": [{"id": "rbAxZRKdMoMxeonDTmooFg", "alias": "el-vez-new-york", "name": "El Vez", "image_url": "https://s3-media1.fl.yelpcdn.com/bphoto/LwKnc2nIeLUfSvk4xJyWzQ/o.jpg", "is_closed": false, "url": "https://www.yelp.com/biz/el-vez-new-york?adjust_creative=9gNmiWYX8uTbFBeTTvJMdA&utm_campaign=yelp_api_v3&utm_medium=api_v3_business_search&utm_source=9gNmiWYX8uTbFBeTTvJMdA", "review_count": 766, "categories": [{"alias": "mexican", "title": "Mexican"}, {"alias": "breakfast_brunch", "title": "Breakfast & Brunch"}], "rating": 3.5, "coordinates": {"latitude": 40.7147356376792, "longitude": -74.015635}, "transactions": ["delivery", "pickup"], "price": "$$", "location": {"address1": "259 Vesey St", "address2": "", "address3": "", "city": "New York", "zip_code": "10282", "country": "US", "state": "NY", "display_address": ["259 Vesey St", "New York, NY 10282"]}, "phone": "+12122332500", "display_phone": "(212) 233-2500", "distance": 6283.160629708872}, {"id": "bx-a5t04wBiJnX9E3aSNBw", "alias": "empell\u00f3n-taqueria-waterline-square-new-york", "name": "Empell\u00f3n Taqueria - Waterline Square", "image_url": "https://s3-media1.fl.yelpcdn.com/bphoto/Uue1bZKMN13Kqp-CrmCnxA/o.jpg", "is_closed": false, "url": "https://www.yelp.com/biz/empell%C3%B3n-taqueria-waterline-square-new-york?adjust_creative=9gNmiWYX8uTbFBeTTvJMdA&utm_campaign=yelp_api_v3&utm_medium=api_v3_business_search&utm_source=9gNmiWYX8uTbFBeTTvJMdA", "review_count": 40, "categories": [{"alias": "newmexican", "title": "New Mexican Cuisine"}, {"alias": "tacos", "title": "Tacos"}, {"alias": "cocktailbars", "title": "Cocktail Bars"}], "rating": 3.5, "coordinates": {"latitude": 40.77236, "longitude": -73.99186}, "transactions": ["delivery", "pickup"], "location": {"address1": "645 West 59th St", "address2": null, "address3": "", "city": "New York", "zip_code": "10069", "country": "US", "state": "NY", "display_address": ["645 West 59th St", "New York, NY 10069"]}, "phone": "+12123801232", "display_phone": "(212) 380-1232", "distance": 2374.0849756784214}, {"id": "AnAZaBsEuBjYvzaPMTN0oQ", "alias": "flats-fix-new-york-4", "name": "Flats Fix", "image_url": "https://s3-media2.fl.yelpcdn.com/bphoto/f2CUnwd4uaUelcBMCPgRCQ/o.jpg", "is_closed": false, "url": "https://www.yelp.com/biz/flats-fix-new-york-4?adjust_creative=9gNmiWYX8uTbFBeTTvJMdA&utm_campaign=yelp_api_v3&utm_medium=api_v3_business_search&utm_source=9gNmiWYX8uTbFBeTTvJMdA", "review_count": 244, "categories": [{"alias": "bars", "title": "Bars"}, {"alias": "tacos", "title": "Tacos"}], "rating": 3.5, "coordinates": {"latitude": 40.7365039, "longitude": -73.9910582}, "transactions": ["delivery", "pickup"], "price": "$$", "location": {"address1": "28 E 16th St", "address2": "", "address3": "", "city": "New York", "zip_code": "10003", "country": "US", "state": "NY", "display_address": ["28 E 16th St", "New York, NY 10003"]}, "phone": "+12126330071", "display_phone": "(212) 633-0071", "distance": 3111.143086198781}, {"id": "eW0p8TpZa-_BFG53B7tHgQ", "alias": "alcala-restaurant-new-york", "name": "Alcala Restaurant", "image_url": "https://s3-media2.fl.yelpcdn.com/bphoto/MCaDed-QJMEbXPkAi3_vMw/o.jpg", "is_closed": false, "url": "https://www.yelp.com/biz/alcala-restaurant-new-york?adjust_creative=9gNmiWYX8uTbFBeTTvJMdA&utm_campaign=yelp_api_v3&utm_medium=api_v3_business_search&utm_source=9gNmiWYX8uTbFBeTTvJMdA", "review_count": 180, "categories": [{"alias": "spanish", "title": "Spanish"}, {"alias": "basque", "title": "Basque"}], "rating": 4.0, "coordinates": {"latitude": 40.751148223877, "longitude": -73.971809387207}, "transactions": ["delivery", "pickup"], "price": "$$$", "location": {"address1": "246 E 44th St", "address2": "", "address3": "", "city": "New York", "zip_code": "10017", "country": "US", "state": "NY", "display_address": ["246 E 44th St", "New York, NY 10017"]}, "phone": "+12123701866", "display_phone": "(212) 370-1866", "distance": 915.2349005429429}, {"id": "xK1HSKDbYfuCvWw8u1OXlQ", "alias": "frescos-grand-cantina-new-york", "name": "Fresco's Grand Cantina", "image_url": "https://s3-media2.fl.yelpcdn.com/bphoto/-EsSrQOMybYzxVlZJS27rw/o.jpg", "is_closed": false, "url": "https://www.yelp.com/biz/frescos-grand-cantina-new-york?adjust_creative=9gNmiWYX8uTbFBeTTvJMdA&utm_campaign=yelp_api_v3&utm_medium=api_v3_business_search&utm_source=9gNmiWYX8uTbFBeTTvJMdA", "review_count": 31, "categories": [{"alias": "mexican", "title": "Mexican"}], "rating": 4.0, "coordinates": {"latitude": 40.76739, "longitude": -73.92136}, "transactions": ["delivery", "pickup"], "location": {"address1": "28-50 31st St", "address2": null, "address3": "", "city": "New York", "zip_code": "11102", "country": "US", "state": "NY", "display_address": ["28-50 31st St", "New York, NY 11102"]}, "phone": "", "display_phone": "", "distance": 4165.811908358892}, {"id": "uipFunIVqRWwopfEvrscyQ", "alias": "casa-mezcal-new-york", "name": "Casa Mezcal", "image_url": "https://s3-media2.fl.yelpcdn.com/bphoto/BxlflsYtvGRyJAGgo1XI_w/o.jpg", "is_closed": false, "url": "https://www.yelp.com/biz/casa-mezcal-new-york?adjust_creative=9gNmiWYX8uTbFBeTTvJMdA&utm_campaign=yelp_api_v3&utm_medium=api_v3_business_search&utm_source=9gNmiWYX8uTbFBeTTvJMdA", "review_count": 451, "categories": [{"alias": "mexican", "title": "Mexican"}], "rating": 3.5, "coordinates": {"latitude": 40.7179602, "longitude": -73.9902328}, "transactions": ["delivery", "pickup"], "price": "$$", "location": {"address1": "86 Orchard St", "address2": "", "address3": "", "city": "New York", "zip_code": "10002", "country": "US", "state": "NY", "display_address": ["86 Orchard St", "New York, NY 10002"]}, "phone": "+12127772600", "display_phone": "(212) 777-2600", "distance": 4902.234259291556}, {"id": "JzUg9hbxpAbyvs0JzbFruA", "alias": "noche-mexicana-new-york", "name": "Noche Mexicana", "image_url": "https://s3-media2.fl.yelpcdn.com/bphoto/_ob8ReG7SnSg4P8uC0YPaw/o.jpg", "is_closed": false, "url": "https://www.yelp.com/biz/noche-mexicana-new-york?adjust_creative=9gNmiWYX8uTbFBeTTvJMdA&utm_campaign=yelp_api_v3&utm_medium=api_v3_business_search&utm_source=9gNmiWYX8uTbFBeTTvJMdA", "review_count": 294, "categories": [{"alias": "mexican", "title": "Mexican"}], "rating": 3.5, "coordinates": {"latitude": 40.79746, "longitude": -73.96828}, "transactions": ["delivery", "pickup"], "price": "$$", "location": {"address1": "842 Amsterdam Ave", "address2": null, "address3": "", "city": "New York", "zip_code": "10025", "country": "US", "state": "NY", "display_address": ["842 Amsterdam Ave", "New York, NY 10025"]}, "phone": "+12126626900", "display_phone": "(212) 662-6900", "distance": 4258.833866249485}, {"id": "v4_89HfTm05NFTuukjsl_g", "alias": "el-burrito-box-new-york", "name": "EL Burrito Box", "image_url": "https://s3-media4.fl.yelpcdn.com/bphoto/rtaSt7G_ER5nzlutfwfNVA/o.jpg", "is_closed": false, "url": "https://www.yelp.com/biz/el-burrito-box-new-york?adjust_creative=9gNmiWYX8uTbFBeTTvJMdA&utm_campaign=yelp_api_v3&utm_medium=api_v3_business_search&utm_source=9gNmiWYX8uTbFBeTTvJMdA", "review_count": 954, "categories": [{"alias": "mexican", "title": "Mexican"}, {"alias": "tex-mex", "title": "Tex-Mex"}], "rating": 4.0, "coordinates": {"latitude": 40.76831, "longitude": -73.98565}, "transactions": ["delivery", "pickup"], "price": "$$", "location": {"address1": "885 9th Ave", "address2": "", "address3": "", "city": "New York", "zip_code": "10019", "country": "US", "state": "NY", "display_address": ["885 9th Ave", "New York, NY 10019"]}, "phone": "+12124896889", "display_phone": "(212) 489-6889", "distance": 1693.6849695260623}, {"id": "uvcEo61aL2F8e4PCzwZsYg", "alias": "chihuahua-sunnyside", "name": "Chihuahua", "image_url": "https://s3-media2.fl.yelpcdn.com/bphoto/6EkOvXy27-nuyYDdKvFPew/o.jpg", "is_closed": false, "url": "https://www.yelp.com/biz/chihuahua-sunnyside?adjust_creative=9gNmiWYX8uTbFBeTTvJMdA&utm_campaign=yelp_api_v3&utm_medium=api_v3_business_search&utm_source=9gNmiWYX8uTbFBeTTvJMdA", "review_count": 183, "categories": [{"alias": "mexican", "title": "Mexican"}], "rating": 4.5, "coordinates": {"latitude": 40.74232, "longitude": -73.91777}, "transactions": ["delivery", "pickup"], "price": "$$", "location": {"address1": "47-02 Greenpoint Ave", "address2": "", "address3": "", "city": "Sunnyside", "zip_code": "11104", "country": "US", "state": "NY", "display_address": ["47-02 Greenpoint Ave", "Sunnyside, NY 11104"]}, "phone": "+13475310954", "display_phone": "(347) 531-0954", "distance": 4748.210896840768}, {"id": "FavssEgZjXFi2unEXePkVQ", "alias": "tacombi-new-york-15", "name": "Tacombi", "image_url": "https://s3-media4.fl.yelpcdn.com/bphoto/ePJ1UDEdxxJJyewvOCGH5g/o.jpg", "is_closed": false, "url": "https://www.yelp.com/biz/tacombi-new-york-15?adjust_creative=9gNmiWYX8uTbFBeTTvJMdA&utm_campaign=yelp_api_v3&utm_medium=api_v3_business_search&utm_source=9gNmiWYX8uTbFBeTTvJMdA", "review_count": 469, "categories": [{"alias": "juicebars", "title": "Juice Bars & Smoothies"}, {"alias": "tacos", "title": "Tacos"}], "rating": 4.0, "coordinates": {"latitude": 40.73112, "longitude": -74.00272}, "transactions": [], "price": "$$", "location": {"address1": "255 Bleecker St", "address2": "", "address3": "", "city": "New York", "zip_code": "10014", "country": "US", "state": "NY", "display_address": ["255 Bleecker St", "New York, NY 10014"]}, "phone": "+16469645984", "display_phone": "(646) 964-5984", "distance": 4190.425234817282}, {"id": "gTlgBbwKW8XPxllVEQLRCA", "alias": "tinys-cantina-brooklyn-2", "name": "Tiny's Cantina", "image_url": "https://s3-media1.fl.yelpcdn.com/bphoto/MhAFLgMXAuVw61T3vmj-bQ/o.jpg", "is_closed": false, "url": "https://www.yelp.com/biz/tinys-cantina-brooklyn-2?adjust_creative=9gNmiWYX8uTbFBeTTvJMdA&utm_campaign=yelp_api_v3&utm_medium=api_v3_business_search&utm_source=9gNmiWYX8uTbFBeTTvJMdA", "review_count": 57, "categories": [{"alias": "mexican", "title": "Mexican"}, {"alias": "cocktailbars", "title": "Cocktail Bars"}], "rating": 4.5, "coordinates": {"latitude": 40.681255, "longitude": -73.97520649632989}, "transactions": ["delivery", "pickup"], "price": "$$", "location": {"address1": "229 Flatbush Ave", "address2": null, "address3": "", "city": "Brooklyn", "zip_code": "11217", "country": "US", "state": "NY", "display_address": ["229 Flatbush Ave", "Brooklyn, NY 11217"]}, "phone": "+17189707007", "display_phone": "(718) 970-7007", "distance": 8677.259605227906}, {"id": "eTR6nfHvQzvKX7Dcd6JrfA", "alias": "district-social-new-york", "name": "District Social", "image_url": "https://s3-media2.fl.yelpcdn.com/bphoto/Tx1suSKAhe_Vs926oZ_Ykg/o.jpg", "is_closed": false, "url": "https://www.yelp.com/biz/district-social-new-york?adjust_creative=9gNmiWYX8uTbFBeTTvJMdA&utm_campaign=yelp_api_v3&utm_medium=api_v3_business_search&utm_source=9gNmiWYX8uTbFBeTTvJMdA", "review_count": 725, "categories": [{"alias": "bars", "title": "Bars"}, {"alias": "newamerican", "title": "American (New)"}], "rating": 4.0, "coordinates": {"latitude": 40.7535743713379, "longitude": -73.9914321899414}, "transactions": [], "price": "$$", "location": {"address1": "252 W 37th St", "address2": null, "address3": "", "city": "New York", "zip_code": "10018", "country": "US", "state": "NY", "display_address": ["252 W 37th St", "New York, NY 10018"]}, "phone": "+12129949599", "display_phone": "(212) 994-9599", "distance": 1949.1235375703427}, {"id": "Pda9zJfg0pRABp9krlJh3Q", "alias": "el-rey-del-sabor-new-york-4", "name": "El Rey Del Sabor", "image_url": "https://s3-media2.fl.yelpcdn.com/bphoto/3DSP0SvHKQKYK8a66LmUYQ/o.jpg", "is_closed": false, "url": "https://www.yelp.com/biz/el-rey-del-sabor-new-york-4?adjust_creative=9gNmiWYX8uTbFBeTTvJMdA&utm_campaign=yelp_api_v3&utm_medium=api_v3_business_search&utm_source=9gNmiWYX8uTbFBeTTvJMdA", "review_count": 30, "categories": [{"alias": "mexican", "title": "Mexican"}, {"alias": "foodtrucks", "title": "Food Trucks"}], "rating": 4.0, "coordinates": {"latitude": 40.7555250546562, "longitude": -73.9836306448101}, "transactions": [], "price": "$", "location": {"address1": "43RD And 6th Ave", "address2": "", "address3": "", "city": "New York", "zip_code": "10036", "country": "US", "state": "NY", "display_address": ["43RD And 6th Ave", "New York, NY 10036"]}, "phone": "", "display_phone": "", "distance": 1249.8148686838992}, {"id": "MuOI7pknWVLNfed5MXUvJg", "alias": "dorado-tacos-and-quesadillas-new-york-4", "name": "DORADO Tacos & Quesadillas", "image_url": "https://s3-media3.fl.yelpcdn.com/bphoto/NeGvVcjJzF9_VewiVDeOAw/o.jpg", "is_closed": false, "url": "https://www.yelp.com/biz/dorado-tacos-and-quesadillas-new-york-4?adjust_creative=9gNmiWYX8uTbFBeTTvJMdA&utm_campaign=yelp_api_v3&utm_medium=api_v3_business_search&utm_source=9gNmiWYX8uTbFBeTTvJMdA", "review_count": 2, "categories": [{"alias": "mexican", "title": "Mexican"}, {"alias": "gluten_free", "title": "Gluten-Free"}], "rating": 4.5, "coordinates": {"latitude": 40.762577, "longitude": -73.981442}, "transactions": ["delivery"], "location": {"address1": "152 West 52nd St", "address2": "", "address3": "", "city": "New York", "zip_code": "10019", "country": "US", "state": "NY", "display_address": ["152 West 52nd St", "New York, NY 10019"]}, "phone": "", "display_phone": "", "distance": 1063.6430869354908}, {"id": "gZqraVPjHNZN03duxEX1mw", "alias": "tacoria-hoboken", "name": "Tacoria", "image_url": "https://s3-media1.fl.yelpcdn.com/bphoto/K_59Y_fImjoGdVoeZlOJ8w/o.jpg", "is_closed": false, "url": "https://www.yelp.com/biz/tacoria-hoboken?adjust_creative=9gNmiWYX8uTbFBeTTvJMdA&utm_campaign=yelp_api_v3&utm_medium=api_v3_business_search&utm_source=9gNmiWYX8uTbFBeTTvJMdA", "review_count": 40, "categories": [{"alias": "mexican", "title": "Mexican"}], "rating": 4.0, "coordinates": {"latitude": 40.73915015370283, "longitude": -74.0307057}, "transactions": ["delivery"], "price": "$$", "location": {"address1": "208 Washington Ave", "address2": null, "address3": "", "city": "Hoboken", "zip_code": "07030", "country": "US", "state": "NJ", "display_address": ["208 Washington Ave", "Hoboken, NJ 07030"]}, "phone": "+12012530492", "display_phone": "(201) 253-0492", "distance": 5610.401960354639}, {"id": "zT93JCAGIuHkLaD2YenUgQ", "alias": "los-cuernos-jersey-city", "name": "Los Cuernos", "image_url": "https://s3-media4.fl.yelpcdn.com/bphoto/JmonqzxPxlUjsXpzBj9Eqw/o.jpg", "is_closed": false, "url": "https://www.yelp.com/biz/los-cuernos-jersey-city?adjust_creative=9gNmiWYX8uTbFBeTTvJMdA&utm_campaign=yelp_api_v3&utm_medium=api_v3_business_search&utm_source=9gNmiWYX8uTbFBeTTvJMdA", "review_count": 211, "categories": [{"alias": "mexican", "title": "Mexican"}], "rating": 3.5, "coordinates": {"latitude": 40.72598, "longitude": -74.03594}, "transactions": ["delivery", "pickup"], "price": "$$", "location": {"address1": "499 Washington Blvd", "address2": "", "address3": null, "city": "Jersey City", "zip_code": "07310", "country": "US", "state": "NJ", "display_address": ["499 Washington Blvd", "Jersey City, NJ 07310"]}, "phone": "+12012225700", "display_phone": "(201) 222-5700", "distance": 6699.601494952254}, {"id": "iV4Qm5DnGChgrnbYG20ASw", "alias": "sombrero-restaurant-new-york", "name": "Sombrero Restaurant", "image_url": "https://s3-media3.fl.yelpcdn.com/bphoto/uQQhIld28gNbczwpRtGEZw/o.jpg", "is_closed": false, "url": "https://www.yelp.com/biz/sombrero-restaurant-new-york?adjust_creative=9gNmiWYX8uTbFBeTTvJMdA&utm_campaign=yelp_api_v3&utm_medium=api_v3_business_search&utm_source=9gNmiWYX8uTbFBeTTvJMdA", "review_count": 416, "categories": [{"alias": "mexican", "title": "Mexican"}], "rating": 3.0, "coordinates": {"latitude": 40.7611200213432, "longitude": -73.9870921522379}, "transactions": ["delivery", "pickup"], "price": "$$", "location": {"address1": "303 W 48th St", "address2": "", "address3": "", "city": "New York", "zip_code": "10036", "country": "US", "state": "NY", "display_address": ["303 W 48th St", "New York, NY 10036"]}, "phone": "+12125864853", "display_phone": "(212) 586-4853", "distance": 1517.077299168929}, {"id": "_2jMPuiK-7nLepFdPu2TTQ", "alias": "345-cantina-new-york", "name": "345 Cantina", "image_url": "https://s3-media2.fl.yelpcdn.com/bphoto/Hbf0oZ80IA3mUFpS5ixzRQ/o.jpg", "is_closed": false, "url": "https://www.yelp.com/biz/345-cantina-new-york?adjust_creative=9gNmiWYX8uTbFBeTTvJMdA&utm_campaign=yelp_api_v3&utm_medium=api_v3_business_search&utm_source=9gNmiWYX8uTbFBeTTvJMdA", "review_count": 11, "categories": [{"alias": "mexican", "title": "Mexican"}, {"alias": "beerbar", "title": "Beer Bar"}, {"alias": "cocktailbars", "title": "Cocktail Bars"}], "rating": 4.5, "coordinates": {"latitude": 40.72665, "longitude": -73.98651}, "transactions": ["restaurant_reservation"], "location": {"address1": "345 E 6th St", "address2": null, "address3": "", "city": "New York", "zip_code": "10003", "country": "US", "state": "NY", "display_address": ["345 E 6th St", "New York, NY 10003"]}, "phone": "+13478487734", "display_phone": "(347) 848-7734", "distance": 3884.234629187334}, {"id": "DiHm4iIAQhqMKfjsrBPvZw", "alias": "socarrat-paella-bar-chelsea-new-york-3", "name": "Socarrat Paella Bar - Chelsea", "image_url": "https://s3-media2.fl.yelpcdn.com/bphoto/1gYG5Kp7NGZlPl9kabe5kQ/o.jpg", "is_closed": false, "url": "https://www.yelp.com/biz/socarrat-paella-bar-chelsea-new-york-3?adjust_creative=9gNmiWYX8uTbFBeTTvJMdA&utm_campaign=yelp_api_v3&utm_medium=api_v3_business_search&utm_source=9gNmiWYX8uTbFBeTTvJMdA", "review_count": 1271, "categories": [{"alias": "spanish", "title": "Spanish"}, {"alias": "tapas", "title": "Tapas Bars"}, {"alias": "tapasmallplates", "title": "Tapas/Small Plates"}], "rating": 4.0, "coordinates": {"latitude": 40.7426956, "longitude": -73.9995488}, "transactions": ["delivery", "pickup"], "price": "$$$", "location": {"address1": "259 W 19th St", "address2": "", "address3": "", "city": "New York", "zip_code": "10011", "country": "US", "state": "NY", "display_address": ["259 W 19th St", "New York, NY 10011"]}, "phone": "+12124621000", "display_phone": "(212) 462-1000", "distance": 3119.7904237526773}, {"id": "h8J10FpJGaU_4OvP2MgoKQ", "alias": "oso-new-york", "name": "Oso", "image_url": "https://s3-media2.fl.yelpcdn.com/bphoto/ChfPriR_F-zjiho-dYVhzA/o.jpg", "is_closed": false, "url": "https://www.yelp.com/biz/oso-new-york?adjust_creative=9gNmiWYX8uTbFBeTTvJMdA&utm_campaign=yelp_api_v3&utm_medium=api_v3_business_search&utm_source=9gNmiWYX8uTbFBeTTvJMdA", "review_count": 352, "categories": [{"alias": "mexican", "title": "Mexican"}, {"alias": "cocktailbars", "title": "Cocktail Bars"}], "rating": 4.0, "coordinates": {"latitude": 40.82195, "longitude": -73.9502399}, "transactions": ["delivery", "pickup"], "price": "$$", "location": {"address1": "1618 Amsterdam Ave At 140th St", "address2": "", "address3": "", "city": "New York", "zip_code": "10031", "country": "US", "state": "NY", "display_address": ["1618 Amsterdam Ave At 140th St", "New York, NY 10031"]}, "phone": "+16468583139", "display_phone": "(646) 858-3139", "distance": 7167.512038487019}, {"id": "Sh8OVFc08NwUkGB4_XKQ9Q", "alias": "taco-tavern-new-york", "name": "Taco Tavern", "image_url": "https://s3-media3.fl.yelpcdn.com/bphoto/Ug5qw86UNBhmqdY6dvxxrw/o.jpg", "is_closed": false, "url": "https://www.yelp.com/biz/taco-tavern-new-york?adjust_creative=9gNmiWYX8uTbFBeTTvJMdA&utm_campaign=yelp_api_v3&utm_medium=api_v3_business_search&utm_source=9gNmiWYX8uTbFBeTTvJMdA", "review_count": 34, "categories": [{"alias": "mexican", "title": "Mexican"}, {"alias": "bars", "title": "Bars"}, {"alias": "breakfast_brunch", "title": "Breakfast & Brunch"}], "rating": 3.5, "coordinates": {"latitude": 40.7859, "longitude": -73.97653}, "transactions": [], "location": {"address1": "480 Amsterdam Ave", "address2": "", "address3": null, "city": "New York", "zip_code": "10024", "country": "US", "state": "NY", "display_address": ["480 Amsterdam Ave", "New York, NY 10024"]}, "phone": "+19176757042", "display_phone": "(917) 675-7042", "distance": 3027.8119789158604}, {"id": "Hh9glEE_xDYT_pPUsRPXlA", "alias": "blend-on-the-water-long-island-city", "name": "Blend on the Water", "image_url": "https://s3-media2.fl.yelpcdn.com/bphoto/n6GL7aQJ22iL-OtKUlzNwA/o.jpg", "is_closed": false, "url": "https://www.yelp.com/biz/blend-on-the-water-long-island-city?adjust_creative=9gNmiWYX8uTbFBeTTvJMdA&utm_campaign=yelp_api_v3&utm_medium=api_v3_business_search&utm_source=9gNmiWYX8uTbFBeTTvJMdA", "review_count": 3740, "categories": [{"alias": "latin", "title": "Latin American"}, {"alias": "breakfast_brunch", "title": "Breakfast & Brunch"}, {"alias": "lounges", "title": "Lounges"}], "rating": 4.0, "coordinates": {"latitude": 40.748216, "longitude": -73.956973}, "transactions": ["delivery", "pickup"], "price": "$$", "location": {"address1": "45-40 Center Blvd", "address2": "", "address3": "", "city": "Long Island City", "zip_code": "11109", "country": "US", "state": "NY", "display_address": ["45-40 Center Blvd", "Long Island City, NY 11109"]}, "phone": "+17186069851", "display_phone": "(718) 606-9851", "distance": 1616.0026124993049}, {"id": "zjnnccSIpMdx5fN-MxAr_w", "alias": "la-superior-brooklyn", "name": "La Superior", "image_url": "https://s3-media2.fl.yelpcdn.com/bphoto/aMAlvObjHRKqqCntdbfR3g/o.jpg", "is_closed": false, "url": "https://www.yelp.com/biz/la-superior-brooklyn?adjust_creative=9gNmiWYX8uTbFBeTTvJMdA&utm_campaign=yelp_api_v3&utm_medium=api_v3_business_search&utm_source=9gNmiWYX8uTbFBeTTvJMdA", "review_count": 631, "categories": [{"alias": "mexican", "title": "Mexican"}], "rating": 3.5, "coordinates": {"latitude": 40.71357, "longitude": -73.96363}, "transactions": ["delivery"], "price": "$$", "location": {"address1": "295 Berry St", "address2": "", "address3": "", "city": "Brooklyn", "zip_code": "11211", "country": "US", "state": "NY", "display_address": ["295 Berry St", "Brooklyn, NY 11211"]}, "phone": "+17183885988", "display_phone": "(718) 388-5988", "distance": 5096.77920357088}, {"id": "-Qn5nXGhxWHNePA0dYmPSg", "alias": "tacos-times-square-new-york-3", "name": "Tacos Times Square", "image_url": "https://s3-media1.fl.yelpcdn.com/bphoto/DuVrBiwHaGtqHaEL0JvR8g/o.jpg", "is_closed": false, "url": "https://www.yelp.com/biz/tacos-times-square-new-york-3?adjust_creative=9gNmiWYX8uTbFBeTTvJMdA&utm_campaign=yelp_api_v3&utm_medium=api_v3_business_search&utm_source=9gNmiWYX8uTbFBeTTvJMdA", "review_count": 119, "categories": [{"alias": "mexican", "title": "Mexican"}], "rating": 4.0, "coordinates": {"latitude": 40.76253, "longitude": -73.97671}, "transactions": ["delivery", "pickup"], "price": "$", "location": {"address1": "43 West 55st", "address2": "1fl", "address3": null, "city": "New York", "zip_code": "10019", "country": "US", "state": "NY", "display_address": ["43 West 55st", "1fl", "New York, NY 10019"]}, "phone": "+12129120044", "display_phone": "(212) 912-0044", "distance": 711.2727217988614}, {"id": "BxnrBKdLwdaEXyq97uxgKg", "alias": "cascalote-latin-bistro-new-york", "name": "Cascalote Latin Bistro", "image_url": "https://s3-media3.fl.yelpcdn.com/bphoto/LmvbcpIL-c_DGE-OrgKtGA/o.jpg", "is_closed": false, "url": "https://www.yelp.com/biz/cascalote-latin-bistro-new-york?adjust_creative=9gNmiWYX8uTbFBeTTvJMdA&utm_campaign=yelp_api_v3&utm_medium=api_v3_business_search&utm_source=9gNmiWYX8uTbFBeTTvJMdA", "review_count": 387, "categories": [{"alias": "latin", "title": "Latin American"}, {"alias": "mexican", "title": "Mexican"}], "rating": 4.5, "coordinates": {"latitude": 40.79271, "longitude": -73.94069}, "transactions": ["delivery", "pickup"], "price": "$$", "location": {"address1": "2126 2nd Ave", "address2": null, "address3": "", "city": "New York", "zip_code": "10029", "country": "US", "state": "NY", "display_address": ["2126 2nd Ave", "New York, NY 10029"]}, "phone": "+16463516574", "display_phone": "(646) 351-6574", "distance": 4453.464768069057}, {"id": "vN1CYP0WNSPfdmZAstfdOg", "alias": "sabor-a-mexico-2-new-york", "name": "Sabor A Mexico 2", "image_url": "https://s3-media1.fl.yelpcdn.com/bphoto/j-EmaB18DXsuc5nUA1UzAA/o.jpg", "is_closed": false, "url": "https://www.yelp.com/biz/sabor-a-mexico-2-new-york?adjust_creative=9gNmiWYX8uTbFBeTTvJMdA&utm_campaign=yelp_api_v3&utm_medium=api_v3_business_search&utm_source=9gNmiWYX8uTbFBeTTvJMdA", "review_count": 201, "categories": [{"alias": "mexican", "title": "Mexican"}, {"alias": "salad", "title": "Salad"}, {"alias": "soup", "title": "Soup"}], "rating": 3.5, "coordinates": {"latitude": 40.772556, "longitude": -73.957035}, "transactions": ["delivery", "pickup"], "price": "$$", "location": {"address1": "233 E 77th St", "address2": null, "address3": "", "city": "New York", "zip_code": "10021", "country": "US", "state": "NY", "display_address": ["233 E 77th St", "New York, NY 10021"]}, "phone": "+12124398301", "display_phone": "(212) 439-8301", "distance": 1824.573010661764}, {"id": "WV4wYPAGb3W69MfBqIZDHg", "alias": "dos-toros-taqueria-new-york-31", "name": "Dos Toros Taqueria", "image_url": "https://s3-media1.fl.yelpcdn.com/bphoto/YUGCb0Zl7ohByZe1yy6cfA/o.jpg", "is_closed": false, "url": "https://www.yelp.com/biz/dos-toros-taqueria-new-york-31?adjust_creative=9gNmiWYX8uTbFBeTTvJMdA&utm_campaign=yelp_api_v3&utm_medium=api_v3_business_search&utm_source=9gNmiWYX8uTbFBeTTvJMdA", "review_count": 72, "categories": [{"alias": "mexican", "title": "Mexican"}], "rating": 3.5, "coordinates": {"latitude": 40.75468, "longitude": -73.99214}, "transactions": ["delivery", "pickup"], "price": "$$", "location": {"address1": "555 8th Ave", "address2": "", "address3": null, "city": "New York", "zip_code": "10018", "country": "US", "state": "NY", "display_address": ["555 8th Ave", "New York, NY 10018"]}, "phone": "+16464928978", "display_phone": "(646) 492-8978", "distance": 1959.207818527265}, {"id": "UH_aksIxzGPPyhWZJbTP7A", "alias": "cantina-taqueria-and-tequila-bar-new-york", "name": "Cantina Taqueria & Tequila Bar", "image_url": "https://s3-media1.fl.yelpcdn.com/bphoto/fA4EacbkL8yx2YXTg_JnKg/o.jpg", "is_closed": false, "url": "https://www.yelp.com/biz/cantina-taqueria-and-tequila-bar-new-york?adjust_creative=9gNmiWYX8uTbFBeTTvJMdA&utm_campaign=yelp_api_v3&utm_medium=api_v3_business_search&utm_source=9gNmiWYX8uTbFBeTTvJMdA", "review_count": 566, "categories": [{"alias": "mexican", "title": "Mexican"}, {"alias": "latin", "title": "Latin American"}, {"alias": "cocktailbars", "title": "Cocktail Bars"}], "rating": 4.0, "coordinates": {"latitude": 40.800338992692026, "longitude": -73.95497594715312}, "transactions": ["delivery", "pickup"], "price": "$$", "location": {"address1": "1838 7th Ave", "address2": null, "address3": "", "city": "New York", "zip_code": "10026", "country": "US", "state": "NY", "display_address": ["1838 7th Ave", "New York, NY 10026"]}, "phone": "+19292632110", "display_phone": "(929) 263-2110", "distance": 4739.416102411914}, {"id": "XYyIWs-3J4bZRZDfcsMquQ", "alias": "rancho-tequileria-new-york-3", "name": "Rancho Tequileria", "image_url": "https://s3-media2.fl.yelpcdn.com/bphoto/Tn3hx4rjxvVzz4p-iONuEw/o.jpg", "is_closed": false, "url": "https://www.yelp.com/biz/rancho-tequileria-new-york-3?adjust_creative=9gNmiWYX8uTbFBeTTvJMdA&utm_campaign=yelp_api_v3&utm_medium=api_v3_business_search&utm_source=9gNmiWYX8uTbFBeTTvJMdA", "review_count": 359, "categories": [{"alias": "mexican", "title": "Mexican"}, {"alias": "bars", "title": "Bars"}], "rating": 3.5, "coordinates": {"latitude": 40.763717, "longitude": -73.989189}, "transactions": ["delivery", "pickup"], "price": "$$", "location": {"address1": "741 9th Ave", "address2": "", "address3": "", "city": "New York", "zip_code": "10019", "country": "US", "state": "NY", "display_address": ["741 9th Ave", "New York, NY 10019"]}, "phone": "+12129560731", "display_phone": "(212) 956-0731", "distance": 1720.623716995337}, {"id": "Pf3tk5fYN-GVxXWRokjIWg", "alias": "colonia-verde-brooklyn", "name": "Colonia Verde", "image_url": "https://s3-media3.fl.yelpcdn.com/bphoto/4Z-XMHBCr4p0SfiYdE10Ug/o.jpg", "is_closed": false, "url": "https://www.yelp.com/biz/colonia-verde-brooklyn?adjust_creative=9gNmiWYX8uTbFBeTTvJMdA&utm_campaign=yelp_api_v3&utm_medium=api_v3_business_search&utm_source=9gNmiWYX8uTbFBeTTvJMdA", "review_count": 228, "categories": [{"alias": "latin", "title": "Latin American"}], "rating": 4.0, "coordinates": {"latitude": 40.6897354125977, "longitude": -73.970703125}, "transactions": ["delivery", "pickup"], "price": "$$", "location": {"address1": "219 Dekalb Ave", "address2": null, "address3": "", "city": "Brooklyn", "zip_code": "11205", "country": "US", "state": "NY", "display_address": ["219 Dekalb Ave", "Brooklyn, NY 11205"]}, "phone": "+13476894287", "display_phone": "(347) 689-4287", "distance": 7726.811005789845}, {"id": "GXK3j99VZK-7JJ0YrtIR0w", "alias": "parada-47-new-york", "name": "Parada 47", "image_url": "https://s3-media1.fl.yelpcdn.com/bphoto/SLL8OWjoGsAbOpt3qMqtgA/o.jpg", "is_closed": false, "url": "https://www.yelp.com/biz/parada-47-new-york?adjust_creative=9gNmiWYX8uTbFBeTTvJMdA&utm_campaign=yelp_api_v3&utm_medium=api_v3_business_search&utm_source=9gNmiWYX8uTbFBeTTvJMdA", "review_count": 65, "categories": [{"alias": "mexican", "title": "Mexican"}], "rating": 4.0, "coordinates": {"latitude": 40.763092, "longitude": -73.99443}, "transactions": ["delivery", "pickup"], "price": "$", "location": {"address1": "526 W 47th St", "address2": "", "address3": "", "city": "New York", "zip_code": "10036", "country": "US", "state": "NY", "display_address": ["526 W 47th St", "New York, NY 10036"]}, "phone": "+12127573737", "display_phone": "(212) 757-3737", "distance": 2136.595274157092}, {"id": "UWvxQFEAUhsv7h6nNTwSrw", "alias": "caliza-new-york", "name": "Caliza", "image_url": "https://s3-media3.fl.yelpcdn.com/bphoto/m2BFC0QNM6sGnLUJJEK9hw/o.jpg", "is_closed": false, "url": "https://www.yelp.com/biz/caliza-new-york?adjust_creative=9gNmiWYX8uTbFBeTTvJMdA&utm_campaign=yelp_api_v3&utm_medium=api_v3_business_search&utm_source=9gNmiWYX8uTbFBeTTvJMdA", "review_count": 4, "categories": [{"alias": "mexican", "title": "Mexican"}, {"alias": "venues", "title": "Venues & Event Spaces"}, {"alias": "cocktailbars", "title": "Cocktail Bars"}], "rating": 3.0, "coordinates": {"latitude": 40.719943, "longitude": -74.010453}, "transactions": [], "location": {"address1": "378 Greenwich St", "address2": "", "address3": null, "city": "New York", "zip_code": "10013", "country": "US", "state": "NY", "display_address": ["378 Greenwich St", "New York, NY 10013"]}, "phone": "", "display_phone": "", "distance": 5556.047908200976}, {"id": "02QBPRcN0LYO3neX_oqx4Q", "alias": "gordos-cantina-brooklyn-2", "name": "Gordo's Cantina", "image_url": "https://s3-media2.fl.yelpcdn.com/bphoto/diPyiSJVwvAHi1e0HZQBFA/o.jpg", "is_closed": false, "url": "https://www.yelp.com/biz/gordos-cantina-brooklyn-2?adjust_creative=9gNmiWYX8uTbFBeTTvJMdA&utm_campaign=yelp_api_v3&utm_medium=api_v3_business_search&utm_source=9gNmiWYX8uTbFBeTTvJMdA", "review_count": 295, "categories": [{"alias": "mexican", "title": "Mexican"}], "rating": 4.0, "coordinates": {"latitude": 40.704883, "longitude": -73.917605}, "transactions": ["delivery", "pickup"], "price": "$$", "location": {"address1": "140 St Nicholas Ave", "address2": null, "address3": "", "city": "Brooklyn", "zip_code": "11237", "country": "US", "state": "NY", "display_address": ["140 St Nicholas Ave", "Brooklyn, NY 11237"]}, "phone": "+19179479208", "display_phone": "(917) 947-9208", "distance": 7450.3621414162735}, {"id": "2-yiGN-eDKPmxPvc55GPZg", "alias": "mezcali-new-york", "name": "Mezcali", "image_url": "https://s3-media4.fl.yelpcdn.com/bphoto/eUZkCiotI5WzKZINvfliyQ/o.jpg", "is_closed": false, "url": "https://www.yelp.com/biz/mezcali-new-york?adjust_creative=9gNmiWYX8uTbFBeTTvJMdA&utm_campaign=yelp_api_v3&utm_medium=api_v3_business_search&utm_source=9gNmiWYX8uTbFBeTTvJMdA", "review_count": 89, "categories": [{"alias": "tacos", "title": "Tacos"}, {"alias": "tapasmallplates", "title": "Tapas/Small Plates"}, {"alias": "cocktailbars", "title": "Cocktail Bars"}], "rating": 4.0, "coordinates": {"latitude": 40.70745, "longitude": -74.00748}, "transactions": [], "price": "$$", "location": {"address1": "83 Maiden Ln", "address2": "", "address3": null, "city": "New York", "zip_code": "10038", "country": "US", "state": "NY", "display_address": ["83 Maiden Ln", "New York, NY 10038"]}, "phone": "+19174095881", "display_phone": "(917) 409-5881", "distance": 6562.533163431896}, {"id": "ZIfh0Vv86ktGZDdM3YME-w", "alias": "mexico-lindo-restaurant-new-york", "name": "Mexico Lindo Restaurant", "image_url": "https://s3-media2.fl.yelpcdn.com/bphoto/fE2TLaypCkD4fYaxlVw8uQ/o.jpg", "is_closed": false, "url": "https://www.yelp.com/biz/mexico-lindo-restaurant-new-york?adjust_creative=9gNmiWYX8uTbFBeTTvJMdA&utm_campaign=yelp_api_v3&utm_medium=api_v3_business_search&utm_source=9gNmiWYX8uTbFBeTTvJMdA", "review_count": 270, "categories": [{"alias": "mexican", "title": "Mexican"}, {"alias": "comfortfood", "title": "Comfort Food"}, {"alias": "cocktailbars", "title": "Cocktail Bars"}], "rating": 3.5, "coordinates": {"latitude": 40.73981, "longitude": -73.97984}, "transactions": ["delivery"], "price": "$$", "location": {"address1": "459 2nd Ave", "address2": "", "address3": "", "city": "New York", "zip_code": "10010", "country": "US", "state": "NY", "display_address": ["459 2nd Ave", "New York, NY 10010"]}, "phone": "+12126793665", "display_phone": "(212) 679-3665", "distance": 2320.9859161267536}, {"id": "MfbVI5reXLIIs8Cc2HwgQw", "alias": "breakroom-new-york", "name": "Breakroom", "image_url": "https://s3-media2.fl.yelpcdn.com/bphoto/-V8o2Qb1VxGHRpH3GYZBQQ/o.jpg", "is_closed": false, "url": "https://www.yelp.com/biz/breakroom-new-york?adjust_creative=9gNmiWYX8uTbFBeTTvJMdA&utm_campaign=yelp_api_v3&utm_medium=api_v3_business_search&utm_source=9gNmiWYX8uTbFBeTTvJMdA", "review_count": 1681, "categories": [{"alias": "burgers", "title": "Burgers"}, {"alias": "tacos", "title": "Tacos"}, {"alias": "hotdog", "title": "Hot Dogs"}], "rating": 4.5, "coordinates": {"latitude": 40.7166907225542, "longitude": -73.9999440120647}, "transactions": ["delivery", "pickup"], "price": "$$", "location": {"address1": "83 Baxter St", "address2": "", "address3": "", "city": "New York", "zip_code": "10013", "country": "US", "state": "NY", "display_address": ["83 Baxter St", "New York, NY 10013"]}, "phone": "+12122272802", "display_phone": "(212) 227-2802", "distance": 5372.464922490413}, {"id": "60sLpAHHl-IvANGTRzfCow", "alias": "tacos-grand-central-new-york-7", "name": "Tacos Grand Central", "image_url": "https://s3-media4.fl.yelpcdn.com/bphoto/ObtZJvtCIw-G6XHdNXTFDg/o.jpg", "is_closed": false, "url": "https://www.yelp.com/biz/tacos-grand-central-new-york-7?adjust_creative=9gNmiWYX8uTbFBeTTvJMdA&utm_campaign=yelp_api_v3&utm_medium=api_v3_business_search&utm_source=9gNmiWYX8uTbFBeTTvJMdA", "review_count": 56, "categories": [{"alias": "mexican", "title": "Mexican"}], "rating": 4.5, "coordinates": {"latitude": 40.7476230390695, "longitude": -73.9740906903076}, "transactions": ["delivery", "pickup"], "price": "$", "location": {"address1": "711 2nd Ave", "address2": "", "address3": null, "city": "New York", "zip_code": "10016", "country": "US", "state": "NY", "display_address": ["711 2nd Ave", "New York, NY 10016"]}, "phone": "+16467819901", "display_phone": "(646) 781-9901", "distance": 1339.6453808730928}, {"id": "HKBJGt04_ZSdiIWA_6J8kQ", "alias": "tortaria-new-york", "name": "Tortaria", "image_url": "https://s3-media3.fl.yelpcdn.com/bphoto/kwZrZkEQS-5S1jpjalnjmQ/o.jpg", "is_closed": false, "url": "https://www.yelp.com/biz/tortaria-new-york?adjust_creative=9gNmiWYX8uTbFBeTTvJMdA&utm_campaign=yelp_api_v3&utm_medium=api_v3_business_search&utm_source=9gNmiWYX8uTbFBeTTvJMdA", "review_count": 804, "categories": [{"alias": "mexican", "title": "Mexican"}], "rating": 3.5, "coordinates": {"latitude": 40.73387, "longitude": -73.9930481239834}, "transactions": ["delivery"], "price": "$$", "location": {"address1": "94 University Pl", "address2": "", "address3": "", "city": "New York", "zip_code": "10003", "country": "US", "state": "NY", "display_address": ["94 University Pl", "New York, NY 10003"]}, "phone": "+12127761830", "display_phone": "(212) 776-1830", "distance": 3439.144346675394}, {"id": "BZcG-xN3DCxlfhckBZYeuw", "alias": "pio-pio-7-new-york-5", "name": "Pio Pio 7", "image_url": "https://s3-media4.fl.yelpcdn.com/bphoto/EK86YbVWJul-xaD7rcWx3g/o.jpg", "is_closed": false, "url": "https://www.yelp.com/biz/pio-pio-7-new-york-5?adjust_creative=9gNmiWYX8uTbFBeTTvJMdA&utm_campaign=yelp_api_v3&utm_medium=api_v3_business_search&utm_source=9gNmiWYX8uTbFBeTTvJMdA", "review_count": 869, "categories": [{"alias": "latin", "title": "Latin American"}, {"alias": "peruvian", "title": "Peruvian"}], "rating": 4.0, "coordinates": {"latitude": 40.74534, "longitude": -73.97761}, "transactions": ["delivery", "pickup"], "price": "$$", "location": {"address1": "210 E 34th St", "address2": "", "address3": "", "city": "New York", "zip_code": "10016", "country": "US", "state": "NY", "display_address": ["210 E 34th St", "New York, NY 10016"]}, "phone": "+12124810034", "display_phone": "(212) 481-0034", "distance": 1679.4670081633985}, {"id": "qjCl34rJ0zVUHaZ1irb8FA", "alias": "taqueria-ramirez-brooklyn", "name": "Taqueria Ramirez", "image_url": "https://s3-media3.fl.yelpcdn.com/bphoto/ll2zrLnaDljZR9DhTJwxTw/o.jpg", "is_closed": false, "url": "https://www.yelp.com/biz/taqueria-ramirez-brooklyn?adjust_creative=9gNmiWYX8uTbFBeTTvJMdA&utm_campaign=yelp_api_v3&utm_medium=api_v3_business_search&utm_source=9gNmiWYX8uTbFBeTTvJMdA", "review_count": 106, "categories": [{"alias": "mexican", "title": "Mexican"}], "rating": 4.5, "coordinates": {"latitude": 40.727876136419724, "longitude": -73.95699203025863}, "transactions": [], "price": "$$", "location": {"address1": "94 Franklin St", "address2": "", "address3": null, "city": "Brooklyn", "zip_code": "11222", "country": "US", "state": "NY", "display_address": ["94 Franklin St", "Brooklyn, NY 11222"]}, "phone": "", "display_phone": "", "distance": 3638.07634236388}, {"id": "MLJsyE42tx4R3wKp2eqnRQ", "alias": "blue-moon-mexican-caf\u00e9-englewood-4", "name": "Blue Moon Mexican Caf\u00e9", "image_url": "https://s3-media3.fl.yelpcdn.com/bphoto/qb4ReJPgAbJr4RAWXyknmA/o.jpg", "is_closed": false, "url": "https://www.yelp.com/biz/blue-moon-mexican-caf%C3%A9-englewood-4?adjust_creative=9gNmiWYX8uTbFBeTTvJMdA&utm_campaign=yelp_api_v3&utm_medium=api_v3_business_search&utm_source=9gNmiWYX8uTbFBeTTvJMdA", "review_count": 607, "categories": [{"alias": "mexican", "title": "Mexican"}, {"alias": "bars", "title": "Bars"}, {"alias": "musicvenues", "title": "Music Venues"}], "rating": 3.5, "coordinates": {"latitude": 40.893662, "longitude": -73.97408}, "transactions": ["delivery", "pickup"], "price": "$$", "location": {"address1": "23 E Palisade Ave", "address2": null, "address3": "", "city": "Englewood", "zip_code": "07631", "country": "US", "state": "NJ", "display_address": ["23 E Palisade Ave", "Englewood, NJ 07631"]}, "phone": "+12015410600", "display_phone": "(201) 541-0600", "distance": 14959.09358366417}, {"id": "0aQke5yyTjdfzj3onxPJkA", "alias": "citrico-cafe-queens-2", "name": "Citrico Cafe", "image_url": "https://s3-media3.fl.yelpcdn.com/bphoto/1e6RqArkKYpeFEIqD0B8-g/o.jpg", "is_closed": false, "url": "https://www.yelp.com/biz/citrico-cafe-queens-2?adjust_creative=9gNmiWYX8uTbFBeTTvJMdA&utm_campaign=yelp_api_v3&utm_medium=api_v3_business_search&utm_source=9gNmiWYX8uTbFBeTTvJMdA", "review_count": 93, "categories": [{"alias": "mexican", "title": "Mexican"}, {"alias": "cafes", "title": "Cafes"}, {"alias": "cocktailbars", "title": "Cocktail Bars"}], "rating": 4.0, "coordinates": {"latitude": 40.758009, "longitude": -73.923307}, "transactions": ["delivery", "pickup"], "location": {"address1": "3290 36th St", "address2": null, "address3": "", "city": "Queens", "zip_code": "11106", "country": "US", "state": "NY", "display_address": ["3290 36th St", "Queens, NY 11106"]}, "phone": "+17182551705", "display_phone": "(718) 255-1705", "distance": 3897.3426055492764}, {"id": "mJVO64T1WWzJYvNlbLSQNA", "alias": "lucio-angelita-tacos-new-york", "name": "Lucio Angelita Tacos", "image_url": "https://s3-media3.fl.yelpcdn.com/bphoto/HEPc0JziKER6OlvduXVe2A/o.jpg", "is_closed": false, "url": "https://www.yelp.com/biz/lucio-angelita-tacos-new-york?adjust_creative=9gNmiWYX8uTbFBeTTvJMdA&utm_campaign=yelp_api_v3&utm_medium=api_v3_business_search&utm_source=9gNmiWYX8uTbFBeTTvJMdA", "review_count": 26, "categories": [{"alias": "foodtrucks", "title": "Food Trucks"}, {"alias": "tacos", "title": "Tacos"}], "rating": 4.0, "coordinates": {"latitude": 40.7594591154635, "longitude": -73.9697938801726}, "transactions": [], "price": "$", "location": {"address1": "55 Lexington Ave", "address2": "", "address3": "", "city": "New York", "zip_code": "10022", "country": "US", "state": "NY", "display_address": ["55 Lexington Ave", "New York, NY 10022"]}, "phone": "+13476248637", "display_phone": "(347) 624-8637", "distance": 36.64943569694035}, {"id": "g7cNGvsbZtFK0z0TZmXHgw", "alias": "el-coco-new-york-3", "name": "El Coco", "image_url": "https://s3-media2.fl.yelpcdn.com/bphoto/3vfNm51acp5Vf5i5eM7mCg/o.jpg", "is_closed": false, "url": "https://www.yelp.com/biz/el-coco-new-york-3?adjust_creative=9gNmiWYX8uTbFBeTTvJMdA&utm_campaign=yelp_api_v3&utm_medium=api_v3_business_search&utm_source=9gNmiWYX8uTbFBeTTvJMdA", "review_count": 42, "categories": [{"alias": "tacos", "title": "Tacos"}], "rating": 3.5, "coordinates": {"latitude": 40.76622450999089, "longitude": -73.98678530000001}, "transactions": ["delivery", "pickup"], "location": {"address1": "828 9th Ave", "address2": "", "address3": null, "city": "New York", "zip_code": "10019", "country": "US", "state": "NY", "display_address": ["828 9th Ave", "New York, NY 10019"]}, "phone": "", "display_phone": "", "distance": 1647.9445832570814}, {"id": "-SYHh9DWvYuBZxkA4gfzHg", "alias": "calabrijes-margaritas-and-tacos-brooklyn", "name": "Calabrije's Margaritas & Tacos", "image_url": "https://s3-media3.fl.yelpcdn.com/bphoto/EZh5H-tXrm6dkViuOIrq4g/o.jpg", "is_closed": false, "url": "https://www.yelp.com/biz/calabrijes-margaritas-and-tacos-brooklyn?adjust_creative=9gNmiWYX8uTbFBeTTvJMdA&utm_campaign=yelp_api_v3&utm_medium=api_v3_business_search&utm_source=9gNmiWYX8uTbFBeTTvJMdA", "review_count": 158, "categories": [{"alias": "tacos", "title": "Tacos"}, {"alias": "cocktailbars", "title": "Cocktail Bars"}], "rating": 4.0, "coordinates": {"latitude": 40.7055429619569, "longitude": -73.9225539192783}, "transactions": ["delivery", "pickup"], "price": "$$", "location": {"address1": "234 Starr St", "address2": "", "address3": null, "city": "Brooklyn", "zip_code": "11237", "country": "US", "state": "NY", "display_address": ["234 Starr St", "Brooklyn, NY 11237"]}, "phone": "+17184842110", "display_phone": "(718) 484-2110", "distance": 7159.662797132266}, {"id": "yuYv1MV_eoNAWCHOokXlRA", "alias": "taqueria-on-tenth-new-york", "name": "Taqueria On Tenth", "image_url": "https://s3-media4.fl.yelpcdn.com/bphoto/MHielRvek8X_aBiM7hrkzg/o.jpg", "is_closed": false, "url": "https://www.yelp.com/biz/taqueria-on-tenth-new-york?adjust_creative=9gNmiWYX8uTbFBeTTvJMdA&utm_campaign=yelp_api_v3&utm_medium=api_v3_business_search&utm_source=9gNmiWYX8uTbFBeTTvJMdA", "review_count": 7, "categories": [{"alias": "newmexican", "title": "New Mexican Cuisine"}, {"alias": "cocktailbars", "title": "Cocktail Bars"}], "rating": 3.5, "coordinates": {"latitude": 40.751061, "longitude": -74.002121}, "transactions": [], "location": {"address1": "313 10th Ave", "address2": null, "address3": "", "city": "New York", "zip_code": "10001", "country": "US", "state": "NY", "display_address": ["313 10th Ave", "New York, NY 10001"]}, "phone": "+16463705772", "display_phone": "(646) 370-5772", "distance": 2881.821813436185}, {"id": "qCf1QN11Qdncpqb7PhuyVw", "alias": "the-rag-trader-and-bo-peep-cocktail-and-highball-store-new-york", "name": "The Rag Trader & Bo Peep Cocktail and Highball Store", "image_url": "https://s3-media4.fl.yelpcdn.com/bphoto/i8TwHAYZBxv950tCkhtjjw/o.jpg", "is_closed": false, "url": "https://www.yelp.com/biz/the-rag-trader-and-bo-peep-cocktail-and-highball-store-new-york?adjust_creative=9gNmiWYX8uTbFBeTTvJMdA&utm_campaign=yelp_api_v3&utm_medium=api_v3_business_search&utm_source=9gNmiWYX8uTbFBeTTvJMdA", "review_count": 742, "categories": [{"alias": "bars", "title": "Bars"}, {"alias": "pianobars", "title": "Piano Bars"}, {"alias": "newamerican", "title": "American (New)"}], "rating": 4.5, "coordinates": {"latitude": 40.75059, "longitude": -73.98628}, "transactions": ["delivery", "pickup"], "price": "$$", "location": {"address1": "70 W 36th St", "address2": "", "address3": null, "city": "New York", "zip_code": "10018", "country": "US", "state": "NY", "display_address": ["70 W 36th St", "New York, NY 10018"]}, "phone": "+19172615495", "display_phone": "(917) 261-5495", "distance": 1699.8436277859703}, {"id": "IUM8v3grz9CBCmTOXk7sdA", "alias": "la-tiendita-taqueria-astoria", "name": "La Tiendita Taqueria", "image_url": "https://s3-media2.fl.yelpcdn.com/bphoto/cadXreoWRYu3pqpdcP466A/o.jpg", "is_closed": false, "url": "https://www.yelp.com/biz/la-tiendita-taqueria-astoria?adjust_creative=9gNmiWYX8uTbFBeTTvJMdA&utm_campaign=yelp_api_v3&utm_medium=api_v3_business_search&utm_source=9gNmiWYX8uTbFBeTTvJMdA", "review_count": 162, "categories": [{"alias": "tacos", "title": "Tacos"}], "rating": 4.0, "coordinates": {"latitude": 40.76431789999999, "longitude": -73.916479}, "transactions": ["delivery", "pickup", "restaurant_reservation"], "price": "$$", "location": {"address1": "37-06 30th Ave", "address2": null, "address3": "", "city": "Astoria", "zip_code": "11103", "country": "US", "state": "NY", "display_address": ["37-06 30th Ave", "Astoria, NY 11103"]}, "phone": "+17187723777", "display_phone": "(718) 772-3777", "distance": 4508.2080701166}, {"id": "LvzN8TrUGJRj_UkJV0cAtQ", "alias": "empanada-mama-hells-kitchen-new-york", "name": "Empanada Mama - Hell's Kitchen", "image_url": "https://s3-media1.fl.yelpcdn.com/bphoto/KskFKH3-97U1hGd1IELAjw/o.jpg", "is_closed": false, "url": "https://www.yelp.com/biz/empanada-mama-hells-kitchen-new-york?adjust_creative=9gNmiWYX8uTbFBeTTvJMdA&utm_campaign=yelp_api_v3&utm_medium=api_v3_business_search&utm_source=9gNmiWYX8uTbFBeTTvJMdA", "review_count": 2914, "categories": [{"alias": "latin", "title": "Latin American"}, {"alias": "empanadas", "title": "Empanadas"}, {"alias": "fooddeliveryservices", "title": "Food Delivery Services"}], "rating": 4.0, "coordinates": {"latitude": 40.76441, "longitude": -73.9885}, "transactions": ["delivery", "pickup"], "price": "$$", "location": {"address1": "765 9th Ave", "address2": null, "address3": "", "city": "New York", "zip_code": "10019", "country": "US", "state": "NY", "display_address": ["765 9th Ave", "New York, NY 10019"]}, "phone": "+12126989008", "display_phone": "(212) 698-9008", "distance": 1701.4480256629404}, {"id": "8PhwiTru5teSaZ8C6hrIww", "alias": "casa-mono-new-york", "name": "Casa Mono", "image_url": "https://s3-media1.fl.yelpcdn.com/bphoto/HjfdTJSsLgNFKsgob1CCUw/o.jpg", "is_closed": false, "url": "https://www.yelp.com/biz/casa-mono-new-york?adjust_creative=9gNmiWYX8uTbFBeTTvJMdA&utm_campaign=yelp_api_v3&utm_medium=api_v3_business_search&utm_source=9gNmiWYX8uTbFBeTTvJMdA", "review_count": 1379, "categories": [{"alias": "spanish", "title": "Spanish"}, {"alias": "tapas", "title": "Tapas Bars"}], "rating": 4.0, "coordinates": {"latitude": 40.7359281440206, "longitude": -73.9871550967319}, "transactions": ["delivery", "pickup"], "price": "$$$", "location": {"address1": "52 Irving Pl", "address2": "", "address3": "", "city": "New York", "zip_code": "10003", "country": "US", "state": "NY", "display_address": ["52 Irving Pl", "New York, NY 10003"]}, "phone": "+12122532773", "display_phone": "(212) 253-2773", "distance": 2979.1228987888217}], "total": 4800, "region": {"center": {"longitude": -73.96957397460938, "latitude": 40.75917470627005}}}