{"businesses": [{"id": "v7hwkFxrz2pORrT9Fiiovw", "alias": "la-lupe-brooklyn", "name": "La Lupe", "image_url": "https://s3-media1.fl.yelpcdn.com/bphoto/R2ZVTwGoekNULFWW_L6xbA/o.jpg", "is_closed": false, "url": "https://www.yelp.com/biz/la-lupe-brooklyn?adjust_creative=9gNmiWYX8uTbFBeTTvJMdA&utm_campaign=yelp_api_v3&utm_medium=api_v3_business_search&utm_source=9gNmiWYX8uTbFBeTTvJMdA", "review_count": 198, "categories": [{"alias": "mexican", "title": "Mexican"}], "rating": 3.5, "coordinates": {"latitude": 40.69725, "longitude": -73.93517}, "transactions": ["pickup", "delivery"], "price": "$$", "location": {"address1": "9 Jefferson St", "address2": "", "address3": "", "city": "Brooklyn", "zip_code": "11206", "country": "US", "state": "NY", "display_address": ["9 Jefferson St", "Brooklyn, NY 11206"]}, "phone": "+13477152455", "display_phone": "(347) 715-2455", "distance": 7470.673764540346}, {"id": "2VdLKWG8e3bT7fTng4UNBg", "alias": "calabrijes-margaritas-and-tacos-new-york", "name": "Calabrije's Margaritas & Tacos", "image_url": "https://s3-media4.fl.yelpcdn.com/bphoto/2EjME4JQwwg1ZJbz8Hg6oQ/o.jpg", "is_closed": false, "url": "https://www.yelp.com/biz/calabrijes-margaritas-and-tacos-new-york?adjust_creative=9gNmiWYX8uTbFBeTTvJMdA&utm_campaign=yelp_api_v3&utm_medium=api_v3_business_search&utm_source=9gNmiWYX8uTbFBeTTvJMdA", "review_count": 22, "categories": [{"alias": "newmexican", "title": "New Mexican Cuisine"}, {"alias": "tacos", "title": "Tacos"}], "rating": 3.5, "coordinates": {"latitude": 40.77555277141703, "longitude": -73.9478079705522}, "transactions": ["pickup", "delivery"], "location": {"address1": "1619 York Ave", "address2": "", "address3": null, "city": "New York", "zip_code": "10028", "country": "US", "state": "NY", "display_address": ["1619 York Ave", "New York, NY 10028"]}, "phone": "", "display_phone": "", "distance": 2583.9133614142474}, {"id": "2L67SVTZblwESKq9gVYv5w", "alias": "mi-ranchito-cliffside-park-2", "name": "Mi Ranchito", "image_url": "https://s3-media1.fl.yelpcdn.com/bphoto/uRgWFyhVNLpNYBoyFURRBw/o.jpg", "is_closed": false, "url": "https://www.yelp.com/biz/mi-ranchito-cliffside-park-2?adjust_creative=9gNmiWYX8uTbFBeTTvJMdA&utm_campaign=yelp_api_v3&utm_medium=api_v3_business_search&utm_source=9gNmiWYX8uTbFBeTTvJMdA", "review_count": 9, "categories": [{"alias": "mexican", "title": "Mexican"}], "rating": 4.0, "coordinates": {"latitude": 40.82826, "longitude": -73.98618}, "transactions": ["pickup", "delivery"], "location": {"address1": "696 Anderson Ave", "address2": null, "address3": "", "city": "Cliffside Park", "zip_code": "07010", "country": "US", "state": "NJ", "display_address": ["696 Anderson Ave", "Cliffside Park, NJ 07010"]}, "phone": "+12019426377", "display_phone": "(201) 942-6377", "distance": 7809.715928154866}, {"id": "YgVUJg4-aUsSu9dLhfF-3Q", "alias": "pinks-new-york", "name": "Pinks", "image_url": "https://s3-media3.fl.yelpcdn.com/bphoto/C1pXvaAjWZrTDz4dWAsvoQ/o.jpg", "is_closed": false, "url": "https://www.yelp.com/biz/pinks-new-york?adjust_creative=9gNmiWYX8uTbFBeTTvJMdA&utm_campaign=yelp_api_v3&utm_medium=api_v3_business_search&utm_source=9gNmiWYX8uTbFBeTTvJMdA", "review_count": 241, "categories": [{"alias": "bars", "title": "Bars"}, {"alias": "newmexican", "title": "New Mexican Cuisine"}, {"alias": "breakfast_brunch", "title": "Breakfast & Brunch"}], "rating": 4.0, "coordinates": {"latitude": 40.7287913560867, "longitude": -73.9845903217793}, "transactions": ["pickup", "delivery"], "price": "$$", "location": {"address1": "242 E 10th St", "address2": "", "address3": "", "city": "New York", "zip_code": "10003", "country": "US", "state": "NY", "display_address": ["242 E 10th St", "New York, NY 10003"]}, "phone": "+16469186231", "display_phone": "(646) 918-6231", "distance": 3617.3990720783167}, {"id": "_PqNDaGlo1fxku0U7qsnqw", "alias": "viva-margarita-edgewater", "name": "Viva Margarita", "image_url": "https://s3-media4.fl.yelpcdn.com/bphoto/-Z-Tp-E5hd7y8D8P87BeJQ/o.jpg", "is_closed": false, "url": "https://www.yelp.com/biz/viva-margarita-edgewater?adjust_creative=9gNmiWYX8uTbFBeTTvJMdA&utm_campaign=yelp_api_v3&utm_medium=api_v3_business_search&utm_source=9gNmiWYX8uTbFBeTTvJMdA", "review_count": 298, "categories": [{"alias": "mexican", "title": "Mexican"}], "rating": 3.0, "coordinates": {"latitude": 40.80668, "longitude": -73.99235}, "transactions": ["pickup"], "price": "$$", "location": {"address1": "163 Old River Rd", "address2": "", "address3": null, "city": "Edgewater", "zip_code": "07020", "country": "US", "state": "NJ", "display_address": ["163 Old River Rd", "Edgewater, NJ 07020"]}, "phone": "+12019175432", "display_phone": "(201) 917-5432", "distance": 5617.430781732781}, {"id": "9YXvNE2jpEhA4k6M8WDH7A", "alias": "\u00f1a\u00f1o-ecuadorian-kitchen-new-york", "name": "\u00d1a\u00f1o Ecuadorian Kitchen", "image_url": "https://s3-media2.fl.yelpcdn.com/bphoto/G8OVpbSuvxNsORXVIBgNBw/o.jpg", "is_closed": false, "url": "https://www.yelp.com/biz/%C3%B1a%C3%B1o-ecuadorian-kitchen-new-york?adjust_creative=9gNmiWYX8uTbFBeTTvJMdA&utm_campaign=yelp_api_v3&utm_medium=api_v3_business_search&utm_source=9gNmiWYX8uTbFBeTTvJMdA", "review_count": 622, "categories": [{"alias": "latin", "title": "Latin American"}, {"alias": "bars", "title": "Bars"}], "rating": 4.5, "coordinates": {"latitude": 40.7631, "longitude": -73.99335}, "transactions": ["pickup", "delivery"], "price": "$$", "location": {"address1": "691 10th Ave", "address2": null, "address3": "", "city": "New York", "zip_code": "10036", "country": "US", "state": "NY", "display_address": ["691 10th Ave", "New York, NY 10036"]}, "phone": "+16466494678", "display_phone": "(646) 649-4678", "distance": 2050.202040488514}, {"id": "TULCjzJjDMlpruzjCcB9rw", "alias": "mermaid-mexicana-new-york-2", "name": "Mermaid Mexicana", "image_url": "https://s3-media3.fl.yelpcdn.com/bphoto/0nq6NcImTCnsztlv6ljY_g/o.jpg", "is_closed": false, "url": "https://www.yelp.com/biz/mermaid-mexicana-new-york-2?adjust_creative=9gNmiWYX8uTbFBeTTvJMdA&utm_campaign=yelp_api_v3&utm_medium=api_v3_business_search&utm_source=9gNmiWYX8uTbFBeTTvJMdA", "review_count": 15, "categories": [{"alias": "mexican", "title": "Mexican"}], "rating": 4.0, "coordinates": {"latitude": 40.72879, "longitude": -74.00165}, "transactions": [], "location": {"address1": "79 MacDougal St", "address2": null, "address3": "", "city": "New York", "zip_code": "10012", "country": "US", "state": "NY", "display_address": ["79 MacDougal St", "New York, NY 10012"]}, "phone": "+12124008800", "display_phone": "(212) 400-8800", "distance": 4329.127261375175}, {"id": "AStYD2Uo6NR1gzZ0xXrn9g", "alias": "el-sabroso-new-york", "name": "El Sabroso", "image_url": "https://s3-media4.fl.yelpcdn.com/bphoto/CRFRmmV1TWfqhIcXWim4jg/o.jpg", "is_closed": false, "url": "https://www.yelp.com/biz/el-sabroso-new-york?adjust_creative=9gNmiWYX8uTbFBeTTvJMdA&utm_campaign=yelp_api_v3&utm_medium=api_v3_business_search&utm_source=9gNmiWYX8uTbFBeTTvJMdA", "review_count": 148, "categories": [{"alias": "latin", "title": "Latin American"}, {"alias": "empanadas", "title": "Empanadas"}, {"alias": "tapasmallplates", "title": "Tapas/Small Plates"}], "rating": 4.0, "coordinates": {"latitude": 40.7540843452975, "longitude": -73.9914900079345}, "transactions": ["delivery"], "price": "$", "location": {"address1": "265 W 37th St", "address2": "", "address3": "", "city": "New York", "zip_code": "10018", "country": "US", "state": "NY", "display_address": ["265 W 37th St", "New York, NY 10018"]}, "phone": "+12122841118", "display_phone": "(212) 284-1118", "distance": 1930.7927260133422}, {"id": "N90gLDq4XgqYanlRqaeNKg", "alias": "acapulco-brooklyn-2", "name": "Acapulco", "image_url": "https://s3-media1.fl.yelpcdn.com/bphoto/afWzUDVp3_t_DbOJRthDsg/o.jpg", "is_closed": false, "url": "https://www.yelp.com/biz/acapulco-brooklyn-2?adjust_creative=9gNmiWYX8uTbFBeTTvJMdA&utm_campaign=yelp_api_v3&utm_medium=api_v3_business_search&utm_source=9gNmiWYX8uTbFBeTTvJMdA", "review_count": 296, "categories": [{"alias": "mexican", "title": "Mexican"}, {"alias": "sandwiches", "title": "Sandwiches"}, {"alias": "newamerican", "title": "American (New)"}], "rating": 4.0, "coordinates": {"latitude": 40.7367, "longitude": -73.95517}, "transactions": ["delivery"], "price": "$", "location": {"address1": "1116 Manhattan Ave", "address2": "Ste 2-L", "address3": "", "city": "Brooklyn", "zip_code": "11222", "country": "US", "state": "NY", "display_address": ["1116 Manhattan Ave", "Ste 2-L", "Brooklyn, NY 11222"]}, "phone": "+17183498429", "display_phone": "(718) 349-8429", "distance": 2778.259556742374}, {"id": "7I-4qCgJq3n0yan1ChE-ew", "alias": "zona-rosa-brooklyn-2", "name": "Zona Rosa", "image_url": "https://s3-media4.fl.yelpcdn.com/bphoto/HKwolkEsZa47QS8Hvr0wBA/o.jpg", "is_closed": false, "url": "https://www.yelp.com/biz/zona-rosa-brooklyn-2?adjust_creative=9gNmiWYX8uTbFBeTTvJMdA&utm_campaign=yelp_api_v3&utm_medium=api_v3_business_search&utm_source=9gNmiWYX8uTbFBeTTvJMdA", "review_count": 505, "categories": [{"alias": "mexican", "title": "Mexican"}], "rating": 3.5, "coordinates": {"latitude": 40.7139388888686, "longitude": -73.9494076703442}, "transactions": ["pickup", "delivery"], "price": "$$", "location": {"address1": "571 Lorimer St", "address2": "", "address3": "", "city": "Brooklyn", "zip_code": "11211", "country": "US", "state": "NY", "display_address": ["571 Lorimer St", "Brooklyn, NY 11211"]}, "phone": "+19173247423", "display_phone": "(917) 324-7423", "distance": 5309.210077407726}, {"id": "MxrjY6myVl8vK0YvCT4r4g", "alias": "las-delicias-mexicanas-new-york", "name": "Las Delicias Mexicanas", "image_url": "https://s3-media1.fl.yelpcdn.com/bphoto/arBn80IGTMUG5Jo6oISwfg/o.jpg", "is_closed": false, "url": "https://www.yelp.com/biz/las-delicias-mexicanas-new-york?adjust_creative=9gNmiWYX8uTbFBeTTvJMdA&utm_campaign=yelp_api_v3&utm_medium=api_v3_business_search&utm_source=9gNmiWYX8uTbFBeTTvJMdA", "review_count": 87, "categories": [{"alias": "mexican", "title": "Mexican"}], "rating": 4.0, "coordinates": {"latitude": 40.79735, "longitude": -73.94009}, "transactions": ["pickup", "delivery"], "price": "$$", "location": {"address1": "2109 3rd Ave", "address2": "", "address3": "", "city": "New York", "zip_code": "10029", "country": "US", "state": "NY", "display_address": ["2109 3rd Ave", "New York, NY 10029"]}, "phone": "+12128283659", "display_phone": "(212) 828-3659", "distance": 4918.303289826066}, {"id": "yKPRuBvD3ScCc18QrZ4Y6w", "alias": "el-porton-new-york-2", "name": "El Porton", "image_url": "https://s3-media2.fl.yelpcdn.com/bphoto/ZQIiJhuY0d8iBk3VqPGk0g/o.jpg", "is_closed": false, "url": "https://www.yelp.com/biz/el-porton-new-york-2?adjust_creative=9gNmiWYX8uTbFBeTTvJMdA&utm_campaign=yelp_api_v3&utm_medium=api_v3_business_search&utm_source=9gNmiWYX8uTbFBeTTvJMdA", "review_count": 213, "categories": [{"alias": "mexican", "title": "Mexican"}, {"alias": "bars", "title": "Bars"}], "rating": 3.5, "coordinates": {"latitude": 40.81452, "longitude": -73.95966}, "transactions": ["pickup", "delivery"], "price": "$$", "location": {"address1": "3151 Broadway", "address2": "", "address3": "", "city": "New York", "zip_code": "10027", "country": "US", "state": "NY", "display_address": ["3151 Broadway", "New York, NY 10027"]}, "phone": "+12126657338", "display_phone": "(212) 665-7338", "distance": 6210.063817853547}, {"id": "uVfOB37NyYEGRs5FITM-nQ", "alias": "leyenda-brooklyn", "name": "Leyenda", "image_url": "https://s3-media2.fl.yelpcdn.com/bphoto/xmzICvK5W37OzD61Bpv1uQ/o.jpg", "is_closed": false, "url": "https://www.yelp.com/biz/leyenda-brooklyn?adjust_creative=9gNmiWYX8uTbFBeTTvJMdA&utm_campaign=yelp_api_v3&utm_medium=api_v3_business_search&utm_source=9gNmiWYX8uTbFBeTTvJMdA", "review_count": 308, "categories": [{"alias": "latin", "title": "Latin American"}, {"alias": "mexican", "title": "Mexican"}, {"alias": "cocktailbars", "title": "Cocktail Bars"}], "rating": 4.0, "coordinates": {"latitude": 40.68431, "longitude": -73.99197}, "transactions": ["pickup", "delivery"], "price": "$$", "location": {"address1": "221 Smith St", "address2": "", "address3": "", "city": "Brooklyn", "zip_code": "11201", "country": "US", "state": "NY", "display_address": ["221 Smith St", "Brooklyn, NY 11201"]}, "phone": "+13479873260", "display_phone": "(347) 987-3260", "distance": 8537.904333795523}, {"id": "d7YbQzGlmawMGAzUHzZvuw", "alias": "tacombi-new-york-16", "name": "Tacombi", "image_url": "https://s3-media4.fl.yelpcdn.com/bphoto/rzykPC6abTNxa-W5fsRQ6Q/o.jpg", "is_closed": false, "url": "https://www.yelp.com/biz/tacombi-new-york-16?adjust_creative=9gNmiWYX8uTbFBeTTvJMdA&utm_campaign=yelp_api_v3&utm_medium=api_v3_business_search&utm_source=9gNmiWYX8uTbFBeTTvJMdA", "review_count": 1201, "categories": [{"alias": "mexican", "title": "Mexican"}], "rating": 4.0, "coordinates": {"latitude": 40.72402294103019, "longitude": -73.99386129999999}, "transactions": ["pickup", "delivery"], "price": "$$", "location": {"address1": "267 Elizabeth St", "address2": "", "address3": "", "city": "New York", "zip_code": "10012", "country": "US", "state": "NY", "display_address": ["267 Elizabeth St", "New York, NY 10012"]}, "phone": "+19177270179", "display_phone": "(917) 727-0179", "distance": 4411.875284791345}, {"id": "7OwoncdLdUlwh6JMwSz_GQ", "alias": "the-top-of-the-standard-new-york", "name": "The Top of the Standard", "image_url": "https://s3-media4.fl.yelpcdn.com/bphoto/RIez81AE43JAM03OBhXksQ/o.jpg", "is_closed": false, "url": "https://www.yelp.com/biz/the-top-of-the-standard-new-york?adjust_creative=9gNmiWYX8uTbFBeTTvJMdA&utm_campaign=yelp_api_v3&utm_medium=api_v3_business_search&utm_source=9gNmiWYX8uTbFBeTTvJMdA", "review_count": 519, "categories": [{"alias": "lounges", "title": "Lounges"}, {"alias": "danceclubs", "title": "Dance Clubs"}], "rating": 4.0, "coordinates": {"latitude": 40.740828, "longitude": -74.008074}, "transactions": ["delivery"], "price": "$$$$", "location": {"address1": "848 Washington St", "address2": "", "address3": "", "city": "New York", "zip_code": "10014", "country": "US", "state": "NY", "display_address": ["848 Washington St", "New York, NY 10014"]}, "phone": "+12126457600", "display_phone": "(212) 645-7600", "distance": 3827.6576900600967}, {"id": "FkA9aoMhWO4XKFMTuTnl4Q", "alias": "atla-new-york", "name": "Atla", "image_url": "https://s3-media1.fl.yelpcdn.com/bphoto/niE_uJ0Qekq8YHz1xkQzMQ/o.jpg", "is_closed": false, "url": "https://www.yelp.com/biz/atla-new-york?adjust_creative=9gNmiWYX8uTbFBeTTvJMdA&utm_campaign=yelp_api_v3&utm_medium=api_v3_business_search&utm_source=9gNmiWYX8uTbFBeTTvJMdA", "review_count": 369, "categories": [{"alias": "mexican", "title": "Mexican"}, {"alias": "breakfast_brunch", "title": "Breakfast & Brunch"}, {"alias": "cocktailbars", "title": "Cocktail Bars"}], "rating": 3.5, "coordinates": {"latitude": 40.7271874, "longitude": -73.9938924}, "transactions": ["pickup", "delivery"], "price": "$$$", "location": {"address1": "372 Lafayette St", "address2": null, "address3": "", "city": "New York", "zip_code": "10012", "country": "US", "state": "NY", "display_address": ["372 Lafayette St", "New York, NY 10012"]}, "phone": "+13476623522", "display_phone": "(347) 662-3522", "distance": 4117.592025099307}, {"id": "J9pgjC191T-odCmTAG-grQ", "alias": "el-diablito-taqueria-new-york", "name": "El Diablito Taqueria", "image_url": "https://s3-media4.fl.yelpcdn.com/bphoto/ii796rm67dSMW7IZAZPUfw/o.jpg", "is_closed": false, "url": "https://www.yelp.com/biz/el-diablito-taqueria-new-york?adjust_creative=9gNmiWYX8uTbFBeTTvJMdA&utm_campaign=yelp_api_v3&utm_medium=api_v3_business_search&utm_source=9gNmiWYX8uTbFBeTTvJMdA", "review_count": 425, "categories": [{"alias": "mexican", "title": "Mexican"}], "rating": 4.0, "coordinates": {"latitude": 40.72504, "longitude": -73.98917}, "transactions": ["pickup", "delivery"], "price": "$", "location": {"address1": "60 E 3rd St", "address2": null, "address3": "", "city": "New York", "zip_code": "10003", "country": "US", "state": "NY", "display_address": ["60 E 3rd St", "New York, NY 10003"]}, "phone": "+16466929268", "display_phone": "(646) 692-9268", "distance": 4136.913747830891}, {"id": "aTBxCoZDOnqAXPDdQmrxMg", "alias": "taqueria-mexico-2000-brooklyn", "name": "Taqueria Mexico 2000", "image_url": "https://s3-media2.fl.yelpcdn.com/bphoto/rdCYC2mrJdhSIQVSYu0Jnw/o.jpg", "is_closed": false, "url": "https://www.yelp.com/biz/taqueria-mexico-2000-brooklyn?adjust_creative=9gNmiWYX8uTbFBeTTvJMdA&utm_campaign=yelp_api_v3&utm_medium=api_v3_business_search&utm_source=9gNmiWYX8uTbFBeTTvJMdA", "review_count": 38, "categories": [{"alias": "mexican", "title": "Mexican"}], "rating": 4.0, "coordinates": {"latitude": 40.71509, "longitude": -73.96246}, "transactions": ["pickup", "delivery"], "location": {"address1": "131 Grand St", "address2": "", "address3": null, "city": "Brooklyn", "zip_code": "11249", "country": "US", "state": "NY", "display_address": ["131 Grand St", "Brooklyn, NY 11249"]}, "phone": "+17183959985", "display_phone": "(718) 395-9985", "distance": 4930.624797572193}, {"id": "6VRIJ7fHe35-baWzkgZCUg", "alias": "tarachi-brooklyn", "name": "Tarachi", "image_url": "https://s3-media1.fl.yelpcdn.com/bphoto/ZKfbMy8a2L21Peovns7WFw/o.jpg", "is_closed": false, "url": "https://www.yelp.com/biz/tarachi-brooklyn?adjust_creative=9gNmiWYX8uTbFBeTTvJMdA&utm_campaign=yelp_api_v3&utm_medium=api_v3_business_search&utm_source=9gNmiWYX8uTbFBeTTvJMdA", "review_count": 39, "categories": [{"alias": "mexican", "title": "Mexican"}, {"alias": "cocktailbars", "title": "Cocktail Bars"}], "rating": 4.5, "coordinates": {"latitude": 40.686982664018736, "longitude": -73.9621802}, "transactions": ["pickup", "delivery"], "location": {"address1": "222 Greene Ave", "address2": null, "address3": null, "city": "Brooklyn", "zip_code": "11238", "country": "US", "state": "NY", "display_address": ["222 Greene Ave", "Brooklyn, NY 11238"]}, "phone": "+17185763612", "display_phone": "(718) 576-3612", "distance": 8051.525428521663}, {"id": "AFMskIEWMA-9mawqSFEuqg", "alias": "buena-onda-new-york", "name": "Buena Onda", "image_url": "https://s3-media2.fl.yelpcdn.com/bphoto/ZoIwjEwXcSW-fdcpFeqluQ/o.jpg", "is_closed": false, "url": "https://www.yelp.com/biz/buena-onda-new-york?adjust_creative=9gNmiWYX8uTbFBeTTvJMdA&utm_campaign=yelp_api_v3&utm_medium=api_v3_business_search&utm_source=9gNmiWYX8uTbFBeTTvJMdA", "review_count": 8, "categories": [{"alias": "cocktailbars", "title": "Cocktail Bars"}, {"alias": "mexican", "title": "Mexican"}], "rating": 4.0, "coordinates": {"latitude": 40.76992107323629, "longitude": -73.95424961681297}, "transactions": ["pickup", "delivery"], "location": {"address1": "1446 1st Ave", "address2": "", "address3": null, "city": "New York", "zip_code": "10021", "country": "US", "state": "NY", "display_address": ["1446 1st Ave", "New York, NY 10021"]}, "phone": "", "display_phone": "", "distance": 1758.843390208104}, {"id": "XPbcjRWxumT4ZQr-7uqOAw", "alias": "los-tacos-no-1-new-york-10", "name": "Los Tacos No.1", "image_url": "https://s3-media1.fl.yelpcdn.com/bphoto/4abEK0VBrLTkP9hUWAY66g/o.jpg", "is_closed": false, "url": "https://www.yelp.com/biz/los-tacos-no-1-new-york-10?adjust_creative=9gNmiWYX8uTbFBeTTvJMdA&utm_campaign=yelp_api_v3&utm_medium=api_v3_business_search&utm_source=9gNmiWYX8uTbFBeTTvJMdA", "review_count": 94, "categories": [{"alias": "tacos", "title": "Tacos"}], "rating": 4.5, "coordinates": {"latitude": 40.726157, "longitude": -73.9946634}, "transactions": [], "price": "$", "location": {"address1": "340 Lafayette St", "address2": "", "address3": null, "city": "New York", "zip_code": "10012", "country": "US", "state": "NY", "display_address": ["340 Lafayette St", "New York, NY 10012"]}, "phone": "", "display_phone": "", "distance": 4230.956845017643}, {"id": "Ve6GVzzJpR5QIIPdcn6ViQ", "alias": "mercato-new-york", "name": "Mercato", "image_url": "https://s3-media3.fl.yelpcdn.com/bphoto/LTDeQgRvclFWi5cfXOr3qg/o.jpg", "is_closed": false, "url": "https://www.yelp.com/biz/mercato-new-york?adjust_creative=9gNmiWYX8uTbFBeTTvJMdA&utm_campaign=yelp_api_v3&utm_medium=api_v3_business_search&utm_source=9gNmiWYX8uTbFBeTTvJMdA", "review_count": 1027, "categories": [{"alias": "italian", "title": "Italian"}, {"alias": "cocktailbars", "title": "Cocktail Bars"}, {"alias": "desserts", "title": "Desserts"}], "rating": 4.0, "coordinates": {"latitude": 40.75619, "longitude": -73.9937}, "transactions": ["pickup", "delivery"], "price": "$$", "location": {"address1": "352 W 39th St", "address2": "", "address3": "", "city": "New York", "zip_code": "10018", "country": "US", "state": "NY", "display_address": ["352 W 39th St", "New York, NY 10018"]}, "phone": "+12126432000", "display_phone": "(212) 643-2000", "distance": 2056.8132711305157}, {"id": "ZKUsI4jtthwp5kFjGm_5KQ", "alias": "la-catrina-mexican-bistro-new-york", "name": "La Catrina Mexican Bistro", "image_url": "https://s3-media2.fl.yelpcdn.com/bphoto/dnqD2iKhA1j2QDQGnhFpJw/o.jpg", "is_closed": false, "url": "https://www.yelp.com/biz/la-catrina-mexican-bistro-new-york?adjust_creative=9gNmiWYX8uTbFBeTTvJMdA&utm_campaign=yelp_api_v3&utm_medium=api_v3_business_search&utm_source=9gNmiWYX8uTbFBeTTvJMdA", "review_count": 11, "categories": [{"alias": "mexican", "title": "Mexican"}], "rating": 4.5, "coordinates": {"latitude": 40.862440586635586, "longitude": -73.92034761801882}, "transactions": ["pickup", "delivery"], "location": {"address1": "3803 10th Ave", "address2": "", "address3": null, "city": "New York", "zip_code": "10034", "country": "US", "state": "NY", "display_address": ["3803 10th Ave", "New York, NY 10034"]}, "phone": "", "display_phone": "", "distance": 12207.14477758292}, {"id": "RemvTpxalDjSew5HwmNzUQ", "alias": "the-dead-rabbit-new-york", "name": "The Dead Rabbit", "image_url": "https://s3-media4.fl.yelpcdn.com/bphoto/6YtHG7HCo9TZFETz8tDggA/o.jpg", "is_closed": false, "url": "https://www.yelp.com/biz/the-dead-rabbit-new-york?adjust_creative=9gNmiWYX8uTbFBeTTvJMdA&utm_campaign=yelp_api_v3&utm_medium=api_v3_business_search&utm_source=9gNmiWYX8uTbFBeTTvJMdA", "review_count": 1830, "categories": [{"alias": "cocktailbars", "title": "Cocktail Bars"}], "rating": 4.0, "coordinates": {"latitude": 40.70329, "longitude": -74.01102}, "transactions": ["pickup", "delivery"], "price": "$$", "location": {"address1": "30 Water St", "address2": "", "address3": "", "city": "New York", "zip_code": "10004", "country": "US", "state": "NY", "display_address": ["30 Water St", "New York, NY 10004"]}, "phone": "", "display_phone": "", "distance": 7128.326030717557}, {"id": "0oRYwB_SLqjHptvUQwwe2w", "alias": "tajin-new-york", "name": "Tajin", "image_url": "https://s3-media3.fl.yelpcdn.com/bphoto/kRnDHPhTaBYsg6u3_Y3xbg/o.jpg", "is_closed": false, "url": "https://www.yelp.com/biz/tajin-new-york?adjust_creative=9gNmiWYX8uTbFBeTTvJMdA&utm_campaign=yelp_api_v3&utm_medium=api_v3_business_search&utm_source=9gNmiWYX8uTbFBeTTvJMdA", "review_count": 265, "categories": [{"alias": "mexican", "title": "Mexican"}, {"alias": "breakfast_brunch", "title": "Breakfast & Brunch"}, {"alias": "tex-mex", "title": "Tex-Mex"}], "rating": 3.5, "coordinates": {"latitude": 40.707905071154805, "longitude": -74.01362173954276}, "transactions": ["pickup", "delivery"], "price": "$$", "location": {"address1": "85 Greenwich St", "address2": "", "address3": "", "city": "New York", "zip_code": "10006", "country": "US", "state": "NY", "display_address": ["85 Greenwich St", "New York, NY 10006"]}, "phone": "+12125095017", "display_phone": "(212) 509-5017", "distance": 6802.559262553079}, {"id": "5IGFJRN06HiclnivxaFThQ", "alias": "el-pote-espa\u00f1ol-restaurant-new-york-2", "name": "El Pote Espa\u00f1ol Restaurant", "image_url": "https://s3-media4.fl.yelpcdn.com/bphoto/UijkLW__1wnHAJ2vgYpX3Q/o.jpg", "is_closed": false, "url": "https://www.yelp.com/biz/el-pote-espa%C3%B1ol-restaurant-new-york-2?adjust_creative=9gNmiWYX8uTbFBeTTvJMdA&utm_campaign=yelp_api_v3&utm_medium=api_v3_business_search&utm_source=9gNmiWYX8uTbFBeTTvJMdA", "review_count": 218, "categories": [{"alias": "spanish", "title": "Spanish"}, {"alias": "basque", "title": "Basque"}], "rating": 4.0, "coordinates": {"latitude": 40.74754, "longitude": -73.9735}, "transactions": ["pickup", "delivery"], "price": "$$", "location": {"address1": "718 2nd Ave", "address2": "", "address3": "", "city": "New York", "zip_code": "10016", "country": "US", "state": "NY", "display_address": ["718 2nd Ave", "New York, NY 10016"]}, "phone": "+12128896680", "display_phone": "(212) 889-6680", "distance": 1337.7699340219297}, {"id": "wO9FMvtYqsJoYrnHDASE0A", "alias": "don-pancho-villa-restaurant-brooklyn", "name": "Don Pancho Villa Restaurant", "image_url": "https://s3-media1.fl.yelpcdn.com/bphoto/uIUhz6thn_Tz7cNCCqWpYg/o.jpg", "is_closed": false, "url": "https://www.yelp.com/biz/don-pancho-villa-restaurant-brooklyn?adjust_creative=9gNmiWYX8uTbFBeTTvJMdA&utm_campaign=yelp_api_v3&utm_medium=api_v3_business_search&utm_source=9gNmiWYX8uTbFBeTTvJMdA", "review_count": 356, "categories": [{"alias": "tex-mex", "title": "Tex-Mex"}, {"alias": "mexican", "title": "Mexican"}], "rating": 3.5, "coordinates": {"latitude": 40.7109108, "longitude": -73.9528503}, "transactions": ["pickup", "delivery"], "price": "$$", "location": {"address1": "189 Borinquen Pl", "address2": null, "address3": "", "city": "Brooklyn", "zip_code": "11211", "country": "US", "state": "NY", "display_address": ["189 Borinquen Pl", "Brooklyn, NY 11211"]}, "phone": "+17183884552", "display_phone": "(718) 388-4552", "distance": 5531.288708516437}, {"id": "RLjlJPtciMdE2nEurLmmNQ", "alias": "la-casa-de-los-tacos-secaucus", "name": "La Casa de Los Tacos", "image_url": "https://s3-media2.fl.yelpcdn.com/bphoto/Vae1S0NcsTfPvpZVknG0dA/o.jpg", "is_closed": false, "url": "https://www.yelp.com/biz/la-casa-de-los-tacos-secaucus?adjust_creative=9gNmiWYX8uTbFBeTTvJMdA&utm_campaign=yelp_api_v3&utm_medium=api_v3_business_search&utm_source=9gNmiWYX8uTbFBeTTvJMdA", "review_count": 254, "categories": [{"alias": "tacos", "title": "Tacos"}], "rating": 4.0, "coordinates": {"latitude": 40.7740104861106, "longitude": -74.06321}, "transactions": ["pickup", "delivery"], "price": "$$", "location": {"address1": "290 County Ave", "address2": "", "address3": null, "city": "Secaucus", "zip_code": "07094", "country": "US", "state": "NJ", "display_address": ["290 County Ave", "Secaucus, NJ 07094"]}, "phone": "+12016010909", "display_phone": "(201) 601-0909", "distance": 8056.380648516991}, {"id": "0o0s6bUIuy0LTGNR3xYzzw", "alias": "dos-toros-taqueria-new-york-3", "name": "Dos Toros Taqueria", "image_url": "https://s3-media2.fl.yelpcdn.com/bphoto/6_AkxCUjWZCIySeNXiYGKQ/o.jpg", "is_closed": false, "url": "https://www.yelp.com/biz/dos-toros-taqueria-new-york-3?adjust_creative=9gNmiWYX8uTbFBeTTvJMdA&utm_campaign=yelp_api_v3&utm_medium=api_v3_business_search&utm_source=9gNmiWYX8uTbFBeTTvJMdA", "review_count": 404, "categories": [{"alias": "mexican", "title": "Mexican"}], "rating": 3.5, "coordinates": {"latitude": 40.7739509, "longitude": -73.9594762}, "transactions": ["pickup", "delivery"], "price": "$", "location": {"address1": "1111 Lexington Ave", "address2": "", "address3": "", "city": "New York", "zip_code": "10075", "country": "US", "state": "NY", "display_address": ["1111 Lexington Ave", "New York, NY 10075"]}, "phone": "+12125354658", "display_phone": "(212) 535-4658", "distance": 1850.0655739298998}, {"id": "fhqAmrQsX45YQ9zyvZ938g", "alias": "tortazo-new-york", "name": "Tortazo", "image_url": "https://s3-media4.fl.yelpcdn.com/bphoto/XZ6TMTN1dS-7bB6u41jM0g/o.jpg", "is_closed": false, "url": "https://www.yelp.com/biz/tortazo-new-york?adjust_creative=9gNmiWYX8uTbFBeTTvJMdA&utm_campaign=yelp_api_v3&utm_medium=api_v3_business_search&utm_source=9gNmiWYX8uTbFBeTTvJMdA", "review_count": 62, "categories": [{"alias": "mexican", "title": "Mexican"}], "rating": 4.0, "coordinates": {"latitude": 40.74332, "longitude": -73.98924}, "transactions": ["pickup", "delivery"], "price": "$$", "location": {"address1": "1123 Broadway", "address2": null, "address3": null, "city": "New York", "zip_code": "10010", "country": "US", "state": "NY", "display_address": ["1123 Broadway", "New York, NY 10010"]}, "phone": "+12129203722", "display_phone": "(212) 920-3722", "distance": 2418.1595299310893}, {"id": "13jzN6n45XtcbYA46nWThg", "alias": "the-bar-downstairs-and-kitchen-new-york-3", "name": "The Bar Downstairs and Kitchen", "image_url": "https://s3-media3.fl.yelpcdn.com/bphoto/3tXXRpx-nJPp5PW_E4uNbQ/o.jpg", "is_closed": false, "url": "https://www.yelp.com/biz/the-bar-downstairs-and-kitchen-new-york-3?adjust_creative=9gNmiWYX8uTbFBeTTvJMdA&utm_campaign=yelp_api_v3&utm_medium=api_v3_business_search&utm_source=9gNmiWYX8uTbFBeTTvJMdA", "review_count": 387, "categories": [{"alias": "lounges", "title": "Lounges"}, {"alias": "tapasmallplates", "title": "Tapas/Small Plates"}, {"alias": "cocktailbars", "title": "Cocktail Bars"}], "rating": 4.0, "coordinates": {"latitude": 40.7528813879886, "longitude": -73.9810645580292}, "transactions": [], "price": "$$$", "location": {"address1": "485 5th Ave", "address2": "", "address3": "", "city": "New York", "zip_code": "10017", "country": "US", "state": "NY", "display_address": ["485 5th Ave", "New York, NY 10017"]}, "phone": "+12126011234", "display_phone": "(212) 601-1234", "distance": 1194.3314047037384}, {"id": "MwyEUg5EXuqTf1mjKU08ng", "alias": "xolo-brooklyn", "name": "Xolo", "image_url": "https://s3-media4.fl.yelpcdn.com/bphoto/F3PPEJDTfdABbK_RoMGbUA/o.jpg", "is_closed": false, "url": "https://www.yelp.com/biz/xolo-brooklyn?adjust_creative=9gNmiWYX8uTbFBeTTvJMdA&utm_campaign=yelp_api_v3&utm_medium=api_v3_business_search&utm_source=9gNmiWYX8uTbFBeTTvJMdA", "review_count": 22, "categories": [{"alias": "mexican", "title": "Mexican"}], "rating": 4.5, "coordinates": {"latitude": 40.71153, "longitude": -73.96761}, "transactions": [], "location": {"address1": "29 Dunham Pl", "address2": "", "address3": null, "city": "Brooklyn", "zip_code": "11249", "country": "US", "state": "NY", "display_address": ["29 Dunham Pl", "Brooklyn, NY 11249"]}, "phone": "+19292980032", "display_phone": "(929) 298-0032", "distance": 5301.634486003118}, {"id": "J_9-q-WFMWg5swNVzzZ_XA", "alias": "lupes-east-l-a-kitchen-new-york-2", "name": "Lupe's East L.A. Kitchen", "image_url": "https://s3-media1.fl.yelpcdn.com/bphoto/ayqyjRGNGIiOntZjWMqTQw/o.jpg", "is_closed": false, "url": "https://www.yelp.com/biz/lupes-east-l-a-kitchen-new-york-2?adjust_creative=9gNmiWYX8uTbFBeTTvJMdA&utm_campaign=yelp_api_v3&utm_medium=api_v3_business_search&utm_source=9gNmiWYX8uTbFBeTTvJMdA", "review_count": 427, "categories": [{"alias": "mexican", "title": "Mexican"}], "rating": 3.5, "coordinates": {"latitude": 40.7236932215964, "longitude": -74.00455078574569}, "transactions": ["pickup", "delivery"], "price": "$$", "location": {"address1": "110 Ave Of The Americas", "address2": null, "address3": null, "city": "New York", "zip_code": "10013", "country": "US", "state": "NY", "display_address": ["110 Ave Of The Americas", "New York, NY 10013"]}, "phone": "+12129661326", "display_phone": "(212) 966-1326", "distance": 4924.33384617866}, {"id": "OICgilPNwolv00z7d1Y37w", "alias": "charritos-midtown-hoboken-2", "name": "Charritos Midtown", "image_url": "https://s3-media4.fl.yelpcdn.com/bphoto/5_4nzsChk7Cjnl8UDmE92A/o.jpg", "is_closed": false, "url": "https://www.yelp.com/biz/charritos-midtown-hoboken-2?adjust_creative=9gNmiWYX8uTbFBeTTvJMdA&utm_campaign=yelp_api_v3&utm_medium=api_v3_business_search&utm_source=9gNmiWYX8uTbFBeTTvJMdA", "review_count": 187, "categories": [{"alias": "mexican", "title": "Mexican"}], "rating": 3.0, "coordinates": {"latitude": 40.74287, "longitude": -74.02957}, "transactions": ["pickup", "delivery"], "price": "$$", "location": {"address1": "518 Washington St", "address2": "", "address3": null, "city": "Hoboken", "zip_code": "07030", "country": "US", "state": "NJ", "display_address": ["518 Washington St", "Hoboken, NJ 07030"]}, "phone": "+12012169201", "display_phone": "(201) 216-9201", "distance": 5369.181318717604}, {"id": "dy48bFMiPiZ56ZkQsbSpHw", "alias": "fridas-favorites-new-york-2", "name": "Frida's Favorites", "image_url": "https://s3-media3.fl.yelpcdn.com/bphoto/wFq8qZCRp5ULi-BAnwia_Q/o.jpg", "is_closed": false, "url": "https://www.yelp.com/biz/fridas-favorites-new-york-2?adjust_creative=9gNmiWYX8uTbFBeTTvJMdA&utm_campaign=yelp_api_v3&utm_medium=api_v3_business_search&utm_source=9gNmiWYX8uTbFBeTTvJMdA", "review_count": 4, "categories": [{"alias": "newmexican", "title": "New Mexican Cuisine"}, {"alias": "popuprestaurants", "title": "Pop-Up Restaurants"}], "rating": 4.5, "coordinates": {"latitude": 40.7488436855265, "longitude": -73.9880524849005}, "transactions": [], "location": {"address1": "North Broadway", "address2": "", "address3": "Garment District Urbanspace Food Festival", "city": "New York", "zip_code": "10001", "country": "US", "state": "NY", "display_address": ["North Broadway", "Garment District Urbanspace Food Festival", "New York, NY 10001"]}, "phone": "+16462729081", "display_phone": "(646) 272-9081", "distance": 1934.499376919538}, {"id": "DTKKEogIt2wQm4UULYVGug", "alias": "mad-dog-and-beans-mexican-cantina-new-york-2", "name": "Mad Dog & Beans Mexican Cantina", "image_url": "https://s3-media2.fl.yelpcdn.com/bphoto/P_AnRsbxTllXQ-S6hWh-Xw/o.jpg", "is_closed": false, "url": "https://www.yelp.com/biz/mad-dog-and-beans-mexican-cantina-new-york-2?adjust_creative=9gNmiWYX8uTbFBeTTvJMdA&utm_campaign=yelp_api_v3&utm_medium=api_v3_business_search&utm_source=9gNmiWYX8uTbFBeTTvJMdA", "review_count": 1048, "categories": [{"alias": "mexican", "title": "Mexican"}, {"alias": "bars", "title": "Bars"}], "rating": 3.5, "coordinates": {"latitude": 40.704168, "longitude": -74.010261}, "transactions": ["pickup", "delivery", "restaurant_reservation"], "price": "$$", "location": {"address1": "83 Pearl St", "address2": "", "address3": "", "city": "New York", "zip_code": "10004", "country": "US", "state": "NY", "display_address": ["83 Pearl St", "New York, NY 10004"]}, "phone": "+12122691177", "display_phone": "(212) 269-1177", "distance": 7011.731803974568}, {"id": "KNo4WyHcQ8Kwd4zXy_mhfA", "alias": "el-cantante-new-york", "name": "El Cantante", "image_url": "https://s3-media2.fl.yelpcdn.com/bphoto/qUk_6ffDhJccn6NMyPyG9w/o.jpg", "is_closed": false, "url": "https://www.yelp.com/biz/el-cantante-new-york?adjust_creative=9gNmiWYX8uTbFBeTTvJMdA&utm_campaign=yelp_api_v3&utm_medium=api_v3_business_search&utm_source=9gNmiWYX8uTbFBeTTvJMdA", "review_count": 2, "categories": [{"alias": "mexican", "title": "Mexican"}], "rating": 4.0, "coordinates": {"latitude": 40.73019, "longitude": -74.00762}, "transactions": [], "location": {"address1": "110 Leroy St", "address2": "", "address3": "", "city": "New York", "zip_code": "10014", "country": "US", "state": "NY", "display_address": ["110 Leroy St", "New York, NY 10014"]}, "phone": "+12124881554", "display_phone": "(212) 488-1554", "distance": 4557.31908017117}, {"id": "rdSvooYVyQ2q0IKvUKYMyg", "alias": "tacombi-long-island-city-long-island-city", "name": "Tacombi", "image_url": "https://s3-media3.fl.yelpcdn.com/bphoto/Ojy1AlRBfl9XILGfpapz7A/o.jpg", "is_closed": false, "url": "https://www.yelp.com/biz/tacombi-long-island-city-long-island-city?adjust_creative=9gNmiWYX8uTbFBeTTvJMdA&utm_campaign=yelp_api_v3&utm_medium=api_v3_business_search&utm_source=9gNmiWYX8uTbFBeTTvJMdA", "review_count": 93, "categories": [{"alias": "mexican", "title": "Mexican"}], "rating": 3.5, "coordinates": {"latitude": 40.74771504742684, "longitude": -73.941554}, "transactions": ["pickup", "delivery"], "price": "$$", "location": {"address1": "27-10 43rd Ave", "address2": null, "address3": "", "city": "Queens", "zip_code": "11101", "country": "US", "state": "NY", "display_address": ["27-10 43rd Ave", "Queens, NY 11101"]}, "phone": "+19292960316", "display_phone": "(929) 296-0316", "distance": 2682.2172521071825}, {"id": "x8UoT9ODOMcpLdYh__sXjg", "alias": "esquina-tequila-long-island-city", "name": "Esquina Tequila", "image_url": "https://s3-media3.fl.yelpcdn.com/bphoto/vyNiOvK81i6APZe3EXNS-g/o.jpg", "is_closed": false, "url": "https://www.yelp.com/biz/esquina-tequila-long-island-city?adjust_creative=9gNmiWYX8uTbFBeTTvJMdA&utm_campaign=yelp_api_v3&utm_medium=api_v3_business_search&utm_source=9gNmiWYX8uTbFBeTTvJMdA", "review_count": 55, "categories": [{"alias": "mexican", "title": "Mexican"}], "rating": 3.5, "coordinates": {"latitude": 40.75285, "longitude": -73.92371}, "transactions": ["pickup", "delivery"], "price": "$$", "location": {"address1": "40-01 Northern Blvd", "address2": null, "address3": "", "city": "Long Island City", "zip_code": "11101", "country": "US", "state": "NY", "display_address": ["40-01 Northern Blvd", "Long Island City, NY 11101"]}, "phone": "+17187293301", "display_phone": "(718) 729-3301", "distance": 3917.2931066090314}, {"id": "trOfIBnEr_CxZuLRyGj9FQ", "alias": "miti-miti-brooklyn-2", "name": "Miti Miti", "image_url": "https://s3-media1.fl.yelpcdn.com/bphoto/bD1NjFE32z2ShYIX2FDSHw/o.jpg", "is_closed": false, "url": "https://www.yelp.com/biz/miti-miti-brooklyn-2?adjust_creative=9gNmiWYX8uTbFBeTTvJMdA&utm_campaign=yelp_api_v3&utm_medium=api_v3_business_search&utm_source=9gNmiWYX8uTbFBeTTvJMdA", "review_count": 1501, "categories": [{"alias": "latin", "title": "Latin American"}, {"alias": "mexican", "title": "Mexican"}, {"alias": "breakfast_brunch", "title": "Breakfast & Brunch"}], "rating": 4.0, "coordinates": {"latitude": 40.6786672454389, "longitude": -73.9791200818081}, "transactions": ["pickup", "delivery"], "price": "$$", "location": {"address1": "138 5th Ave", "address2": "", "address3": "", "city": "Brooklyn", "zip_code": "11217", "country": "US", "state": "NY", "display_address": ["138 5th Ave", "Brooklyn, NY 11217"]}, "phone": "+17182303760", "display_phone": "(718) 230-3760", "distance": 8988.089237125516}, {"id": "vEMveTHn23hdT2_FhV7ctQ", "alias": "las-panteras-negras-new-york", "name": "Las Panteras Negras", "image_url": "https://s3-media4.fl.yelpcdn.com/bphoto/Ms3UiDMgCxbHe6BlWL5Q-g/o.jpg", "is_closed": false, "url": "https://www.yelp.com/biz/las-panteras-negras-new-york?adjust_creative=9gNmiWYX8uTbFBeTTvJMdA&utm_campaign=yelp_api_v3&utm_medium=api_v3_business_search&utm_source=9gNmiWYX8uTbFBeTTvJMdA", "review_count": 69, "categories": [{"alias": "mexican", "title": "Mexican"}, {"alias": "breakfast_brunch", "title": "Breakfast & Brunch"}], "rating": 4.5, "coordinates": {"latitude": 40.79279, "longitude": -73.9405}, "transactions": ["pickup", "delivery"], "price": "$$", "location": {"address1": "2130 2nd Ave", "address2": "", "address3": "", "city": "New York", "zip_code": "10029", "country": "US", "state": "NY", "display_address": ["2130 2nd Ave", "New York, NY 10029"]}, "phone": "+19172612568", "display_phone": "(917) 261-2568", "distance": 4468.7580020415835}, {"id": "7YYp_2WYWdRSt_NohV7Psw", "alias": "casa-birria-nyc-new-york", "name": "Casa Birria NYC", "image_url": "https://s3-media3.fl.yelpcdn.com/bphoto/koyMTX0E-LNBnuV8-_q7uw/o.jpg", "is_closed": false, "url": "https://www.yelp.com/biz/casa-birria-nyc-new-york?adjust_creative=9gNmiWYX8uTbFBeTTvJMdA&utm_campaign=yelp_api_v3&utm_medium=api_v3_business_search&utm_source=9gNmiWYX8uTbFBeTTvJMdA", "review_count": 90, "categories": [{"alias": "foodtrucks", "title": "Food Trucks"}, {"alias": "tacos", "title": "Tacos"}], "rating": 5.0, "coordinates": {"latitude": 40.778824, "longitude": -73.953986}, "transactions": ["delivery"], "price": "$", "location": {"address1": "86th & 3rd Ave", "address2": "", "address3": null, "city": "New York", "zip_code": "10028", "country": "US", "state": "NY", "display_address": ["86th & 3rd Ave", "New York, NY 10028"]}, "phone": "+16468682090", "display_phone": "(646) 868-2090", "distance": 2548.4285931913464}, {"id": "cCesIqo-LQt0cRlZAnrAZQ", "alias": "friedmans-new-york-71", "name": "Friedman's", "image_url": "https://s3-media3.fl.yelpcdn.com/bphoto/JbaqPlimXZu-Lis5oB3u9w/o.jpg", "is_closed": false, "url": "https://www.yelp.com/biz/friedmans-new-york-71?adjust_creative=9gNmiWYX8uTbFBeTTvJMdA&utm_campaign=yelp_api_v3&utm_medium=api_v3_business_search&utm_source=9gNmiWYX8uTbFBeTTvJMdA", "review_count": 2818, "categories": [{"alias": "newamerican", "title": "American (New)"}, {"alias": "breakfast_brunch", "title": "Breakfast & Brunch"}, {"alias": "wine_bars", "title": "Wine Bars"}], "rating": 4.0, "coordinates": {"latitude": 40.74839, "longitude": -73.99062}, "transactions": ["pickup", "delivery"], "price": "$$", "location": {"address1": "132 W 31st St", "address2": "", "address3": "", "city": "New York", "zip_code": "10001", "country": "US", "state": "NY", "display_address": ["132 W 31st St", "New York, NY 10001"]}, "phone": "+12129719400", "display_phone": "(212) 971-9400", "distance": 2160.3666222629167}, {"id": "wjz2lLfX413dmiAlkcGbpQ", "alias": "panela-hoboken", "name": "Panela", "image_url": "https://s3-media3.fl.yelpcdn.com/bphoto/0bHCd7APCwW4hECmk8qwSw/o.jpg", "is_closed": false, "url": "https://www.yelp.com/biz/panela-hoboken?adjust_creative=9gNmiWYX8uTbFBeTTvJMdA&utm_campaign=yelp_api_v3&utm_medium=api_v3_business_search&utm_source=9gNmiWYX8uTbFBeTTvJMdA", "review_count": 33, "categories": [{"alias": "latin", "title": "Latin American"}, {"alias": "spanish", "title": "Spanish"}, {"alias": "tapasmallplates", "title": "Tapas/Small Plates"}], "rating": 4.0, "coordinates": {"latitude": 40.736805, "longitude": -74.029445}, "transactions": ["pickup", "delivery"], "location": {"address1": "36-42 Newark St", "address2": null, "address3": null, "city": "Hoboken", "zip_code": "07030", "country": "US", "state": "NJ", "display_address": ["36-42 Newark St", "Hoboken, NJ 07030"]}, "phone": "+12012382594", "display_phone": "(201) 238-2594", "distance": 5626.558664442108}, {"id": "sbdRT4UyIYTFrXfCKraAhQ", "alias": "vera-cruz-brooklyn-8", "name": "Vera Cruz", "image_url": "https://s3-media4.fl.yelpcdn.com/bphoto/Bwxo8-gR7_0aHG52eiYbwA/o.jpg", "is_closed": false, "url": "https://www.yelp.com/biz/vera-cruz-brooklyn-8?adjust_creative=9gNmiWYX8uTbFBeTTvJMdA&utm_campaign=yelp_api_v3&utm_medium=api_v3_business_search&utm_source=9gNmiWYX8uTbFBeTTvJMdA", "review_count": 255, "categories": [{"alias": "mexican", "title": "Mexican"}, {"alias": "bars", "title": "Bars"}], "rating": 3.5, "coordinates": {"latitude": 40.717292, "longitude": -73.957939}, "transactions": ["pickup", "delivery"], "price": "$$", "location": {"address1": "195 Bedford Ave", "address2": "", "address3": "", "city": "Brooklyn", "zip_code": "11211", "country": "US", "state": "NY", "display_address": ["195 Bedford Ave", "Brooklyn, NY 11211"]}, "phone": "+17184863333", "display_phone": "(718) 486-3333", "distance": 4752.183069354011}, {"id": "qUkFTWe0D2fq63qfiXDpzg", "alias": "viva-mexico-union-city", "name": "Viva Mexico", "image_url": "https://s3-media4.fl.yelpcdn.com/bphoto/1NrON8vyVrr1JQcepdOQCg/o.jpg", "is_closed": false, "url": "https://www.yelp.com/biz/viva-mexico-union-city?adjust_creative=9gNmiWYX8uTbFBeTTvJMdA&utm_campaign=yelp_api_v3&utm_medium=api_v3_business_search&utm_source=9gNmiWYX8uTbFBeTTvJMdA", "review_count": 34, "categories": [{"alias": "mexican", "title": "Mexican"}], "rating": 4.5, "coordinates": {"latitude": 40.762581, "longitude": -74.0358765043285}, "transactions": ["pickup", "delivery"], "price": "$$", "location": {"address1": "1603 Bergenline Ave", "address2": "", "address3": "", "city": "Union City", "zip_code": "07087", "country": "US", "state": "NJ", "display_address": ["1603 Bergenline Ave", "Union City, NJ 07087"]}, "phone": "+12017514666", "display_phone": "(201) 751-4666", "distance": 5597.061909724476}, {"id": "VoEB81AQajTsatt56aiTLA", "alias": "dos-toros-taqueria-new-york-27", "name": "Dos Toros Taqueria", "image_url": "https://s3-media1.fl.yelpcdn.com/bphoto/Db1yWCdjwBEIYRwMVeuruw/o.jpg", "is_closed": false, "url": "https://www.yelp.com/biz/dos-toros-taqueria-new-york-27?adjust_creative=9gNmiWYX8uTbFBeTTvJMdA&utm_campaign=yelp_api_v3&utm_medium=api_v3_business_search&utm_source=9gNmiWYX8uTbFBeTTvJMdA", "review_count": 90, "categories": [{"alias": "mexican", "title": "Mexican"}], "rating": 3.5, "coordinates": {"latitude": 40.7540578242766, "longitude": -73.9859579131007}, "transactions": ["pickup", "delivery"], "price": "$$", "location": {"address1": "119 W 40th St", "address2": "", "address3": null, "city": "New York", "zip_code": "10018", "country": "US", "state": "NY", "display_address": ["119 W 40th St", "New York, NY 10018"]}, "phone": "+19179937201", "display_phone": "(917) 993-7201", "distance": 1492.6925481447845}, {"id": "YKAwpTnKO-n5vB9-pqaCLQ", "alias": "taqueria-y-fonda-new-york-4", "name": "Taqueria Y Fonda", "image_url": "https://s3-media2.fl.yelpcdn.com/bphoto/Z-hYckKrc1Jcdgxw-fyB9w/o.jpg", "is_closed": false, "url": "https://www.yelp.com/biz/taqueria-y-fonda-new-york-4?adjust_creative=9gNmiWYX8uTbFBeTTvJMdA&utm_campaign=yelp_api_v3&utm_medium=api_v3_business_search&utm_source=9gNmiWYX8uTbFBeTTvJMdA", "review_count": 516, "categories": [{"alias": "mexican", "title": "Mexican"}], "rating": 3.5, "coordinates": {"latitude": 40.8016168, "longitude": -73.965212}, "transactions": ["pickup", "delivery"], "price": "$", "location": {"address1": "968 Amsterdam Ave", "address2": "", "address3": null, "city": "New York", "zip_code": "10025", "country": "US", "state": "NY", "display_address": ["968 Amsterdam Ave", "New York, NY 10025"]}, "phone": "+12125310383", "display_phone": "(212) 531-0383", "distance": 4733.609817057225}, {"id": "GVc1Eh-Welogn5qgaK-PFA", "alias": "tamale-lady-new-york-2", "name": "Tamale Lady", "image_url": "https://s3-media1.fl.yelpcdn.com/bphoto/MoLFZEmUXH6-kKG_qmXgaw/o.jpg", "is_closed": false, "url": "https://www.yelp.com/biz/tamale-lady-new-york-2?adjust_creative=9gNmiWYX8uTbFBeTTvJMdA&utm_campaign=yelp_api_v3&utm_medium=api_v3_business_search&utm_source=9gNmiWYX8uTbFBeTTvJMdA", "review_count": 4, "categories": [{"alias": "mexican", "title": "Mexican"}, {"alias": "foodstands", "title": "Food Stands"}], "rating": 5.0, "coordinates": {"latitude": 40.750843, "longitude": -73.9801865}, "transactions": [], "price": "$", "location": {"address1": "37 E 39th St", "address2": "", "address3": "", "city": "New York", "zip_code": "10016", "country": "US", "state": "NY", "display_address": ["37 E 39th St", "New York, NY 10016"]}, "phone": "", "display_phone": "", "distance": 1301.8931473414364}, {"id": "jeWIYbgBho9vBDhc5S1xvg", "alias": "chanos-cantina-astoria", "name": "Chano's Cantina", "image_url": "https://s3-media1.fl.yelpcdn.com/bphoto/pO0Jf8wJtWtYGcakoZL8hw/o.jpg", "is_closed": false, "url": "https://www.yelp.com/biz/chanos-cantina-astoria?adjust_creative=9gNmiWYX8uTbFBeTTvJMdA&utm_campaign=yelp_api_v3&utm_medium=api_v3_business_search&utm_source=9gNmiWYX8uTbFBeTTvJMdA", "review_count": 215, "categories": [{"alias": "mexican", "title": "Mexican"}], "rating": 4.0, "coordinates": {"latitude": 40.756621, "longitude": -73.929336}, "transactions": ["pickup", "delivery"], "price": "$$", "location": {"address1": "35-55 31st St", "address2": "", "address3": "", "city": "Astoria", "zip_code": "11106", "country": "US", "state": "NY", "display_address": ["35-55 31st St", "Astoria, NY 11106"]}, "phone": "+19178327261", "display_phone": "(917) 832-7261", "distance": 3401.0102132020975}], "total": 4800, "region": {"center": {"longitude": -73.96957397460938, "latitude": 40.75917470627005}}}