{"businesses": [{"id": "Rc1lxc5lSKJYd162JHNMfQ", "alias": "bea-new-york", "name": "Bea", "image_url": "https://s3-media2.fl.yelpcdn.com/bphoto/m2d14AiiBqqly1gpMyU2RQ/o.jpg", "is_closed": false, "url": "https://www.yelp.com/biz/bea-new-york?adjust_creative=9gNmiWYX8uTbFBeTTvJMdA&utm_campaign=yelp_api_v3&utm_medium=api_v3_business_search&utm_source=9gNmiWYX8uTbFBeTTvJMdA", "review_count": 2813, "categories": [{"alias": "newamerican", "title": "American (New)"}, {"alias": "cocktailbars", "title": "Cocktail Bars"}], "rating": 4.0, "coordinates": {"latitude": 40.7591968, "longitude": -73.9923361}, "transactions": ["delivery", "restaurant_reservation"], "price": "$$", "location": {"address1": "403 W 43rd St", "address2": "", "address3": "", "city": "New York", "zip_code": "10036", "country": "US", "state": "NY", "display_address": ["403 W 43rd St", "New York, NY 10036"]}, "phone": "+12126021910", "display_phone": "(212) 602-1910", "distance": 1917.1564127029542}, {"id": "8uuMkezIN1c8zGEWkaMRqg", "alias": "los-tacos-no-1-new-york-5", "name": "Los Tacos No. 1", "image_url": "https://s3-media1.fl.yelpcdn.com/bphoto/QuV3olHa--a-kTpfxVzWAg/o.jpg", "is_closed": false, "url": "https://www.yelp.com/biz/los-tacos-no-1-new-york-5?adjust_creative=9gNmiWYX8uTbFBeTTvJMdA&utm_campaign=yelp_api_v3&utm_medium=api_v3_business_search&utm_source=9gNmiWYX8uTbFBeTTvJMdA", "review_count": 371, "categories": [{"alias": "tacos", "title": "Tacos"}], "rating": 4.5, "coordinates": {"latitude": 40.714282, "longitude": -74.008675}, "transactions": ["delivery"], "price": "$$", "location": {"address1": "136 Church St", "address2": "", "address3": null, "city": "New York", "zip_code": "10007", "country": "US", "state": "NY", "display_address": ["136 Church St", "New York, NY 10007"]}, "phone": "", "display_phone": "", "distance": 5980.939347793997}, {"id": "mNS4lJ66nND2cRoxF9aP3Q", "alias": "mariachi-grill-lyndhurst", "name": "Mariachi Grill", "image_url": "https://s3-media1.fl.yelpcdn.com/bphoto/IZ-UH1ALfSPpeFmQH81Dxg/o.jpg", "is_closed": false, "url": "https://www.yelp.com/biz/mariachi-grill-lyndhurst?adjust_creative=9gNmiWYX8uTbFBeTTvJMdA&utm_campaign=yelp_api_v3&utm_medium=api_v3_business_search&utm_source=9gNmiWYX8uTbFBeTTvJMdA", "review_count": 350, "categories": [{"alias": "mexican", "title": "Mexican"}], "rating": 4.5, "coordinates": {"latitude": 40.80951, "longitude": -74.11764}, "transactions": ["delivery"], "price": "$$", "location": {"address1": "262 Ridge Rd", "address2": "", "address3": "", "city": "Lyndhurst", "zip_code": "07071", "country": "US", "state": "NJ", "display_address": ["262 Ridge Rd", "Lyndhurst, NJ 07071"]}, "phone": "+12015287493", "display_phone": "(201) 528-7493", "distance": 13671.944865755297}, {"id": "2IrwjU67gguqLqQqZ1nFPg", "alias": "guadalupe-restaurant-new-york-3", "name": "Guadalupe Restaurant", "image_url": "https://s3-media3.fl.yelpcdn.com/bphoto/gJAWEJ_wiiCIJ3SsNW8jCA/o.jpg", "is_closed": false, "url": "https://www.yelp.com/biz/guadalupe-restaurant-new-york-3?adjust_creative=9gNmiWYX8uTbFBeTTvJMdA&utm_campaign=yelp_api_v3&utm_medium=api_v3_business_search&utm_source=9gNmiWYX8uTbFBeTTvJMdA", "review_count": 737, "categories": [{"alias": "mexican", "title": "Mexican"}, {"alias": "steak", "title": "Steakhouses"}, {"alias": "seafood", "title": "Seafood"}], "rating": 4.0, "coordinates": {"latitude": 40.86739, "longitude": -73.92083}, "transactions": ["delivery", "pickup"], "price": "$$", "location": {"address1": "597 W 207th St", "address2": "", "address3": "", "city": "New York", "zip_code": "10034", "country": "US", "state": "NY", "display_address": ["597 W 207th St", "New York, NY 10034"]}, "phone": "+12123041083", "display_phone": "(212) 304-1083", "distance": 12717.639878062044}, {"id": "98Bm2w9RzNJQZo4U3jSgQQ", "alias": "tacos-times-square-new-york-2", "name": "Tacos Times Square", "image_url": "https://s3-media3.fl.yelpcdn.com/bphoto/Gx0fzmbyZjQQ9D1v0l0maw/o.jpg", "is_closed": false, "url": "https://www.yelp.com/biz/tacos-times-square-new-york-2?adjust_creative=9gNmiWYX8uTbFBeTTvJMdA&utm_campaign=yelp_api_v3&utm_medium=api_v3_business_search&utm_source=9gNmiWYX8uTbFBeTTvJMdA", "review_count": 148, "categories": [{"alias": "mexican", "title": "Mexican"}], "rating": 4.0, "coordinates": {"latitude": 40.7417320336149, "longitude": -73.9823354903991}, "transactions": ["delivery", "pickup"], "price": "$", "location": {"address1": "134 E 27th St", "address2": null, "address3": "", "city": "New York", "zip_code": "10016", "country": "US", "state": "NY", "display_address": ["134 E 27th St", "New York, NY 10016"]}, "phone": "+12128899090", "display_phone": "(212) 889-9090", "distance": 2217.519746318746}, {"id": "-Jdk7iFGj2fT4jzPXyEZFA", "alias": "el-gallo-taqueria-new-york-2", "name": "El Gallo Taqueria", "image_url": "https://s3-media4.fl.yelpcdn.com/bphoto/hOFi-hlXkDBIJr3z1hdN7Q/o.jpg", "is_closed": false, "url": "https://www.yelp.com/biz/el-gallo-taqueria-new-york-2?adjust_creative=9gNmiWYX8uTbFBeTTvJMdA&utm_campaign=yelp_api_v3&utm_medium=api_v3_business_search&utm_source=9gNmiWYX8uTbFBeTTvJMdA", "review_count": 35, "categories": [{"alias": "tacos", "title": "Tacos"}], "rating": 3.0, "coordinates": {"latitude": 40.78666, "longitude": -73.97599}, "transactions": ["delivery", "pickup"], "location": {"address1": "502 Amsterdam Ave", "address2": "", "address3": null, "city": "New York", "zip_code": "10024", "country": "US", "state": "NY", "display_address": ["502 Amsterdam Ave", "New York, NY 10024"]}, "phone": "", "display_phone": "", "distance": 3109.4206794455754}, {"id": "Jh6bSOaw0ftGh9ONiwr7nA", "alias": "los-tres-chilitos-jersey-city", "name": "Los Tres Chilitos", "image_url": "https://s3-media2.fl.yelpcdn.com/bphoto/GNJzxf2KjJ-Z8WJ4tRtOjA/o.jpg", "is_closed": false, "url": "https://www.yelp.com/biz/los-tres-chilitos-jersey-city?adjust_creative=9gNmiWYX8uTbFBeTTvJMdA&utm_campaign=yelp_api_v3&utm_medium=api_v3_business_search&utm_source=9gNmiWYX8uTbFBeTTvJMdA", "review_count": 232, "categories": [{"alias": "mexican", "title": "Mexican"}], "rating": 4.0, "coordinates": {"latitude": 40.75021, "longitude": -74.04619}, "transactions": ["delivery", "pickup"], "price": "$", "location": {"address1": "456 Central Ave", "address2": null, "address3": null, "city": "Jersey City", "zip_code": "07307", "country": "US", "state": "NJ", "display_address": ["456 Central Ave", "Jersey City, NJ 07307"]}, "phone": "+12012169699", "display_phone": "(201) 216-9699", "distance": 6529.88452316248}, {"id": "TYVIfbcJ3YT4CP1roKMshg", "alias": "lucys-cantina-royale-new-york", "name": "Lucy's Cantina Royale", "image_url": "https://s3-media3.fl.yelpcdn.com/bphoto/WQKwRmleFnGJ_A6bjhFX5A/o.jpg", "is_closed": false, "url": "https://www.yelp.com/biz/lucys-cantina-royale-new-york?adjust_creative=9gNmiWYX8uTbFBeTTvJMdA&utm_campaign=yelp_api_v3&utm_medium=api_v3_business_search&utm_source=9gNmiWYX8uTbFBeTTvJMdA", "review_count": 804, "categories": [{"alias": "tex-mex", "title": "Tex-Mex"}, {"alias": "bars", "title": "Bars"}, {"alias": "mexican", "title": "Mexican"}], "rating": 2.5, "coordinates": {"latitude": 40.751757506263, "longitude": -73.9928958215327}, "transactions": ["delivery", "pickup"], "price": "$$", "location": {"address1": "1 Penn Plz", "address2": "", "address3": "", "city": "New York", "zip_code": "10119", "country": "US", "state": "NY", "display_address": ["1 Penn Plz", "New York, NY 10119"]}, "phone": "+12126431270", "display_phone": "(212) 643-1270", "distance": 2130.52030253474}, {"id": "FhPAf4w6t0KsujSQBHH_-w", "alias": "taqueria-casa-imelda-brooklyn", "name": "Taqueria Casa Imelda", "image_url": "https://s3-media3.fl.yelpcdn.com/bphoto/cVWthZmls93FP_UV6n25tA/o.jpg", "is_closed": false, "url": "https://www.yelp.com/biz/taqueria-casa-imelda-brooklyn?adjust_creative=9gNmiWYX8uTbFBeTTvJMdA&utm_campaign=yelp_api_v3&utm_medium=api_v3_business_search&utm_source=9gNmiWYX8uTbFBeTTvJMdA", "review_count": 33, "categories": [{"alias": "mexican", "title": "Mexican"}], "rating": 4.5, "coordinates": {"latitude": 40.712405, "longitude": -73.964871}, "transactions": ["delivery", "pickup"], "location": {"address1": "82 S 4th St", "address2": null, "address3": "", "city": "Brooklyn", "zip_code": "11249", "country": "US", "state": "NY", "display_address": ["82 S 4th St", "Brooklyn, NY 11249"]}, "phone": "+13474575992", "display_phone": "(347) 457-5992", "distance": 5210.163601341988}, {"id": "5SOM3bh1R5K3RZ9E20TxUg", "alias": "alma-restaurant-brooklyn", "name": "Alma Restaurant", "image_url": "https://s3-media3.fl.yelpcdn.com/bphoto/Uxx6aRm4rSOkafkdXuua8g/o.jpg", "is_closed": false, "url": "https://www.yelp.com/biz/alma-restaurant-brooklyn?adjust_creative=9gNmiWYX8uTbFBeTTvJMdA&utm_campaign=yelp_api_v3&utm_medium=api_v3_business_search&utm_source=9gNmiWYX8uTbFBeTTvJMdA", "review_count": 543, "categories": [{"alias": "mexican", "title": "Mexican"}], "rating": 3.5, "coordinates": {"latitude": 40.68557, "longitude": -74.00215}, "transactions": ["delivery", "pickup"], "price": "$$", "location": {"address1": "187 Columbia St", "address2": "", "address3": "", "city": "Brooklyn", "zip_code": "11231", "country": "US", "state": "NY", "display_address": ["187 Columbia St", "Brooklyn, NY 11231"]}, "phone": "+17186435400", "display_phone": "(718) 643-5400", "distance": 8632.195435846197}, {"id": "_csLDQow8YzjZJNEeZUMUw", "alias": "planet-taco-new-york", "name": "Planet Taco", "image_url": "https://s3-media2.fl.yelpcdn.com/bphoto/fNETaExTaTH_vd4vr9rbUg/o.jpg", "is_closed": false, "url": "https://www.yelp.com/biz/planet-taco-new-york?adjust_creative=9gNmiWYX8uTbFBeTTvJMdA&utm_campaign=yelp_api_v3&utm_medium=api_v3_business_search&utm_source=9gNmiWYX8uTbFBeTTvJMdA", "review_count": 73, "categories": [{"alias": "tacos", "title": "Tacos"}], "rating": 4.5, "coordinates": {"latitude": 40.72914, "longitude": -73.98749}, "transactions": ["delivery", "pickup"], "price": "$$", "location": {"address1": "141 2nd Ave", "address2": null, "address3": "", "city": "New York", "zip_code": "10003", "country": "US", "state": "NY", "display_address": ["141 2nd Ave", "New York, NY 10003"]}, "phone": "", "display_phone": "", "distance": 3671.293969348379}, {"id": "a3xDhQkSIH451c_sEmtidQ", "alias": "oro-verde-taqueria-new-york", "name": "Oro Verde Taqueria", "image_url": "https://s3-media1.fl.yelpcdn.com/bphoto/THaVp5PgjRSaxbd5anfziA/o.jpg", "is_closed": false, "url": "https://www.yelp.com/biz/oro-verde-taqueria-new-york?adjust_creative=9gNmiWYX8uTbFBeTTvJMdA&utm_campaign=yelp_api_v3&utm_medium=api_v3_business_search&utm_source=9gNmiWYX8uTbFBeTTvJMdA", "review_count": 7, "categories": [{"alias": "tacos", "title": "Tacos"}, {"alias": "latin", "title": "Latin American"}], "rating": 4.5, "coordinates": {"latitude": 40.74182, "longitude": -74.00078}, "transactions": ["delivery"], "location": {"address1": "150 8th Ave", "address2": null, "address3": "", "city": "New York", "zip_code": "10011", "country": "US", "state": "NY", "display_address": ["150 8th Ave", "New York, NY 10011"]}, "phone": "+12126752888", "display_phone": "(212) 675-2888", "distance": 3259.514229053408}, {"id": "XGdUYzkPkX94RoLlPDymeQ", "alias": "tacos-y-quesadillas-mexico-new-york", "name": "Tacos Y Quesadillas Mexico", "image_url": "https://s3-media3.fl.yelpcdn.com/bphoto/sGz-_30xsth6tJgOfD0bGQ/o.jpg", "is_closed": false, "url": "https://www.yelp.com/biz/tacos-y-quesadillas-mexico-new-york?adjust_creative=9gNmiWYX8uTbFBeTTvJMdA&utm_campaign=yelp_api_v3&utm_medium=api_v3_business_search&utm_source=9gNmiWYX8uTbFBeTTvJMdA", "review_count": 39, "categories": [{"alias": "streetvendors", "title": "Street Vendors"}, {"alias": "mexican", "title": "Mexican"}], "rating": 4.0, "coordinates": {"latitude": 40.777487, "longitude": -73.982069}, "transactions": [], "price": "$", "location": {"address1": "2030 Broadway Ave", "address2": "", "address3": "", "city": "New York", "zip_code": "10023", "country": "US", "state": "NY", "display_address": ["2030 Broadway Ave", "New York, NY 10023"]}, "phone": "", "display_phone": "", "distance": 2292.048169706634}, {"id": "36NGJ_vn81vgdSi15WyHKQ", "alias": "puerto-vallarta-restaurant-north-bergen", "name": "Puerto Vallarta Restaurant", "image_url": "https://s3-media3.fl.yelpcdn.com/bphoto/zEySfdokknDPmXYaofaCGA/o.jpg", "is_closed": false, "url": "https://www.yelp.com/biz/puerto-vallarta-restaurant-north-bergen?adjust_creative=9gNmiWYX8uTbFBeTTvJMdA&utm_campaign=yelp_api_v3&utm_medium=api_v3_business_search&utm_source=9gNmiWYX8uTbFBeTTvJMdA", "review_count": 84, "categories": [{"alias": "mexican", "title": "Mexican"}, {"alias": "bars", "title": "Bars"}, {"alias": "spanish", "title": "Spanish"}], "rating": 3.5, "coordinates": {"latitude": 40.8032128178057, "longitude": -74.0123075991869}, "transactions": ["delivery", "pickup"], "price": "$$", "location": {"address1": "7721 John F Kennedy Blvd W", "address2": "", "address3": "", "city": "North Bergen", "zip_code": "07047", "country": "US", "state": "NJ", "display_address": ["7721 John F Kennedy Blvd W", "North Bergen, NJ 07047"]}, "phone": "+12018611965", "display_phone": "(201) 861-1965", "distance": 6076.584946871085}, {"id": "1raNn0l3I4H9PcAJce69Sw", "alias": "sojourn-new-york", "name": "Sojourn", "image_url": "https://s3-media3.fl.yelpcdn.com/bphoto/zmbY6OeAXBKAXjDOt53viw/o.jpg", "is_closed": false, "url": "https://www.yelp.com/biz/sojourn-new-york?adjust_creative=9gNmiWYX8uTbFBeTTvJMdA&utm_campaign=yelp_api_v3&utm_medium=api_v3_business_search&utm_source=9gNmiWYX8uTbFBeTTvJMdA", "review_count": 704, "categories": [{"alias": "newamerican", "title": "American (New)"}, {"alias": "tapasmallplates", "title": "Tapas/Small Plates"}, {"alias": "breakfast_brunch", "title": "Breakfast & Brunch"}], "rating": 4.0, "coordinates": {"latitude": 40.77343, "longitude": -73.95568}, "transactions": ["delivery", "pickup"], "price": "$$", "location": {"address1": "244 E 79th St", "address2": "", "address3": "", "city": "New York", "zip_code": "10075", "country": "US", "state": "NY", "display_address": ["244 E 79th St", "New York, NY 10075"]}, "phone": "+12125377745", "display_phone": "(212) 537-7745", "distance": 1960.6831477018623}, {"id": "jf95dOTlZB7oPWz9JLgaQA", "alias": "borrachito-taqueria-and-spirits-new-york", "name": "Borrachito Taqueria & Spirits", "image_url": "https://s3-media2.fl.yelpcdn.com/bphoto/FD-QrZtEOfYf74LGqBfTxQ/o.jpg", "is_closed": false, "url": "https://www.yelp.com/biz/borrachito-taqueria-and-spirits-new-york?adjust_creative=9gNmiWYX8uTbFBeTTvJMdA&utm_campaign=yelp_api_v3&utm_medium=api_v3_business_search&utm_source=9gNmiWYX8uTbFBeTTvJMdA", "review_count": 73, "categories": [{"alias": "tacos", "title": "Tacos"}], "rating": 4.0, "coordinates": {"latitude": 40.7294609, "longitude": -73.980749}, "transactions": ["delivery", "pickup"], "location": {"address1": "206 Avenue A", "address2": "", "address3": "", "city": "New York", "zip_code": "10009", "country": "US", "state": "NY", "display_address": ["206 Avenue A", "New York, NY 10009"]}, "phone": "+16469924743", "display_phone": "(646) 992-4743", "distance": 3435.5279340756533}, {"id": "F76RYME8VeIIJDkVCOe0rg", "alias": "tequila-chitos-mexican-grill-new-york", "name": "Tequila Chito's Mexican Grill", "image_url": "https://s3-media1.fl.yelpcdn.com/bphoto/rmRpMsg5HJwXc9fsOCk6pQ/o.jpg", "is_closed": false, "url": "https://www.yelp.com/biz/tequila-chitos-mexican-grill-new-york?adjust_creative=9gNmiWYX8uTbFBeTTvJMdA&utm_campaign=yelp_api_v3&utm_medium=api_v3_business_search&utm_source=9gNmiWYX8uTbFBeTTvJMdA", "review_count": 237, "categories": [{"alias": "mexican", "title": "Mexican"}], "rating": 2.5, "coordinates": {"latitude": 40.7460136413574, "longitude": -74.0009002685547}, "transactions": ["delivery", "pickup"], "price": "$$", "location": {"address1": "358 W 23rd St", "address2": "", "address3": "", "city": "New York", "zip_code": "10011", "country": "US", "state": "NY", "display_address": ["358 W 23rd St", "New York, NY 10011"]}, "phone": "+12124630535", "display_phone": "(212) 463-0535", "distance": 3018.1443932961397}, {"id": "r5NT8-nV4py2c-mppTKucQ", "alias": "essex-taqueria-new-york", "name": "Essex Taqueria", "image_url": "https://s3-media3.fl.yelpcdn.com/bphoto/npICG7pJaFGryptc6Su53w/o.jpg", "is_closed": false, "url": "https://www.yelp.com/biz/essex-taqueria-new-york?adjust_creative=9gNmiWYX8uTbFBeTTvJMdA&utm_campaign=yelp_api_v3&utm_medium=api_v3_business_search&utm_source=9gNmiWYX8uTbFBeTTvJMdA", "review_count": 322, "categories": [{"alias": "mexican", "title": "Mexican"}], "rating": 4.0, "coordinates": {"latitude": 40.7197418, "longitude": -73.9877989}, "transactions": ["delivery", "pickup"], "price": "$", "location": {"address1": "123 Essex St", "address2": "", "address3": "", "city": "New York", "zip_code": "10002", "country": "US", "state": "NY", "display_address": ["123 Essex St", "New York, NY 10002"]}, "phone": "+12122608226", "display_phone": "(212) 260-8226", "distance": 4645.808513911334}, {"id": "wgAnpM65vrCN4sCVbfFVng", "alias": "bar-bruno-brooklyn-3", "name": "Bar Bruno", "image_url": "https://s3-media1.fl.yelpcdn.com/bphoto/JygWBkW69JkshoX1QouVIg/o.jpg", "is_closed": false, "url": "https://www.yelp.com/biz/bar-bruno-brooklyn-3?adjust_creative=9gNmiWYX8uTbFBeTTvJMdA&utm_campaign=yelp_api_v3&utm_medium=api_v3_business_search&utm_source=9gNmiWYX8uTbFBeTTvJMdA", "review_count": 13, "categories": [{"alias": "bars", "title": "Bars"}, {"alias": "mexican", "title": "Mexican"}], "rating": 4.5, "coordinates": {"latitude": 40.72236, "longitude": -73.94984}, "transactions": ["delivery", "pickup"], "price": "$$", "location": {"address1": "560 Manhattan Ave", "address2": "", "address3": null, "city": "Brooklyn", "zip_code": "11222", "country": "US", "state": "NY", "display_address": ["560 Manhattan Ave", "Brooklyn, NY 11222"]}, "phone": "+17183890011", "display_phone": "(718) 389-0011", "distance": 4415.513227929502}, {"id": "ePqKbqXFBCbwBaWiN2Jo9w", "alias": "ampersand-new-york-2", "name": "Ampersand", "image_url": "https://s3-media1.fl.yelpcdn.com/bphoto/9w0Q-m0ts2bXmmWGlAYwnw/o.jpg", "is_closed": false, "url": "https://www.yelp.com/biz/ampersand-new-york-2?adjust_creative=9gNmiWYX8uTbFBeTTvJMdA&utm_campaign=yelp_api_v3&utm_medium=api_v3_business_search&utm_source=9gNmiWYX8uTbFBeTTvJMdA", "review_count": 254, "categories": [{"alias": "cocktailbars", "title": "Cocktail Bars"}, {"alias": "newamerican", "title": "American (New)"}], "rating": 4.5, "coordinates": {"latitude": 40.7386178790617, "longitude": -73.9834206895483}, "transactions": ["delivery"], "price": "$$", "location": {"address1": "294 3rd Ave", "address2": "", "address3": "", "city": "New York", "zip_code": "10010", "country": "US", "state": "NY", "display_address": ["294 3rd Ave", "New York, NY 10010"]}, "phone": "+12124778100", "display_phone": "(212) 477-8100", "distance": 2566.22191547884}, {"id": "shKdDzoSFdaM7pNCV6nEYQ", "alias": "monarch-rooftop-new-york-4", "name": "Monarch Rooftop", "image_url": "https://s3-media2.fl.yelpcdn.com/bphoto/UtyrK-e7BK0PGVV_52NHKQ/o.jpg", "is_closed": false, "url": "https://www.yelp.com/biz/monarch-rooftop-new-york-4?adjust_creative=9gNmiWYX8uTbFBeTTvJMdA&utm_campaign=yelp_api_v3&utm_medium=api_v3_business_search&utm_source=9gNmiWYX8uTbFBeTTvJMdA", "review_count": 819, "categories": [{"alias": "lounges", "title": "Lounges"}, {"alias": "venues", "title": "Venues & Event Spaces"}, {"alias": "cocktailbars", "title": "Cocktail Bars"}], "rating": 3.5, "coordinates": {"latitude": 40.7504117924, "longitude": -73.986808}, "transactions": ["delivery", "pickup"], "price": "$$", "location": {"address1": "71 W 35th St", "address2": "", "address3": "", "city": "New York", "zip_code": "10001", "country": "US", "state": "NY", "display_address": ["71 W 35th St", "New York, NY 10001"]}, "phone": "+12126309993", "display_phone": "(212) 630-9993", "distance": 1748.3432148693876}, {"id": "YYB2lPax5wAdeNWUcm5WAg", "alias": "mexicocina-bronx-3", "name": "Mexicocina", "image_url": "https://s3-media4.fl.yelpcdn.com/bphoto/m0iZmcu2Owp9mZDYTPTGIw/o.jpg", "is_closed": false, "url": "https://www.yelp.com/biz/mexicocina-bronx-3?adjust_creative=9gNmiWYX8uTbFBeTTvJMdA&utm_campaign=yelp_api_v3&utm_medium=api_v3_business_search&utm_source=9gNmiWYX8uTbFBeTTvJMdA", "review_count": 199, "categories": [{"alias": "mexican", "title": "Mexican"}], "rating": 4.0, "coordinates": {"latitude": 40.811884525549, "longitude": -73.90966713749}, "transactions": ["delivery", "pickup"], "price": "$$", "location": {"address1": "503 Jackson Ave", "address2": "", "address3": "", "city": "Bronx", "zip_code": "10455", "country": "US", "state": "NY", "display_address": ["503 Jackson Ave", "Bronx, NY 10455"]}, "phone": "+13474981055", "display_phone": "(347) 498-1055", "distance": 7732.452726586122}, {"id": "0XuJtcq9nMdAWyhJ_fZC-w", "alias": "virgin-mary-tacos-new-york", "name": "Virgin Mary Tacos", "image_url": "https://s3-media3.fl.yelpcdn.com/bphoto/xp2Rp_KZrtmOu5NRQm8rAw/o.jpg", "is_closed": false, "url": "https://www.yelp.com/biz/virgin-mary-tacos-new-york?adjust_creative=9gNmiWYX8uTbFBeTTvJMdA&utm_campaign=yelp_api_v3&utm_medium=api_v3_business_search&utm_source=9gNmiWYX8uTbFBeTTvJMdA", "review_count": 8, "categories": [{"alias": "mexican", "title": "Mexican"}, {"alias": "foodstands", "title": "Food Stands"}], "rating": 5.0, "coordinates": {"latitude": 40.7400398, "longitude": -73.9766541}, "transactions": [], "location": {"address1": "370 E 28th St", "address2": "", "address3": "", "city": "New York", "zip_code": "10016", "country": "US", "state": "NY", "display_address": ["370 E 28th St", "New York, NY 10016"]}, "phone": "", "display_phone": "", "distance": 2217.9444906385866}, {"id": "XEugUtbw4rRmGr9S1XA-aQ", "alias": "alta-new-york", "name": "Alta", "image_url": "https://s3-media1.fl.yelpcdn.com/bphoto/aUWGUNBLw-mbQZOzJ9-Pdw/o.jpg", "is_closed": false, "url": "https://www.yelp.com/biz/alta-new-york?adjust_creative=9gNmiWYX8uTbFBeTTvJMdA&utm_campaign=yelp_api_v3&utm_medium=api_v3_business_search&utm_source=9gNmiWYX8uTbFBeTTvJMdA", "review_count": 2008, "categories": [{"alias": "tapas", "title": "Tapas Bars"}, {"alias": "mediterranean", "title": "Mediterranean"}, {"alias": "spanish", "title": "Spanish"}], "rating": 4.0, "coordinates": {"latitude": 40.7345163811398, "longitude": -73.9983369619683}, "transactions": ["delivery", "restaurant_reservation"], "price": "$$$", "location": {"address1": "64 W 10th St", "address2": "", "address3": "", "city": "New York", "zip_code": "10011", "country": "US", "state": "NY", "display_address": ["64 W 10th St", "New York, NY 10011"]}, "phone": "+12125057777", "display_phone": "(212) 505-7777", "distance": 3659.0944048891356}, {"id": "frWu5KfSULdCHd0GmA-ytw", "alias": "la-palapa-new-york", "name": "La Palapa", "image_url": "https://s3-media3.fl.yelpcdn.com/bphoto/lFtBvu4ovKp2uoW9A-5-4Q/o.jpg", "is_closed": false, "url": "https://www.yelp.com/biz/la-palapa-new-york?adjust_creative=9gNmiWYX8uTbFBeTTvJMdA&utm_campaign=yelp_api_v3&utm_medium=api_v3_business_search&utm_source=9gNmiWYX8uTbFBeTTvJMdA", "review_count": 753, "categories": [{"alias": "breakfast_brunch", "title": "Breakfast & Brunch"}, {"alias": "mexican", "title": "Mexican"}, {"alias": "salad", "title": "Salad"}], "rating": 3.5, "coordinates": {"latitude": 40.727969, "longitude": -73.985604}, "transactions": ["delivery", "pickup"], "price": "$$", "location": {"address1": "77 St Mark's Pl", "address2": "", "address3": "", "city": "New York", "zip_code": "10003", "country": "US", "state": "NY", "display_address": ["77 St Mark's Pl", "New York, NY 10003"]}, "phone": "+12127772537", "display_phone": "(212) 777-2537", "distance": 3715.287639917844}, {"id": "bbb6QZReetkrrubqGWJokQ", "alias": "pulqueria-new-york", "name": "Pulqueria", "image_url": "https://s3-media2.fl.yelpcdn.com/bphoto/x0-t9UN-4Nx70GCrO48uMA/o.jpg", "is_closed": false, "url": "https://www.yelp.com/biz/pulqueria-new-york?adjust_creative=9gNmiWYX8uTbFBeTTvJMdA&utm_campaign=yelp_api_v3&utm_medium=api_v3_business_search&utm_source=9gNmiWYX8uTbFBeTTvJMdA", "review_count": 506, "categories": [{"alias": "mexican", "title": "Mexican"}], "rating": 3.5, "coordinates": {"latitude": 40.71448, "longitude": -73.99819}, "transactions": ["delivery", "pickup"], "price": "$$", "location": {"address1": "11 Doyers St", "address2": null, "address3": "", "city": "New York", "zip_code": "10013", "country": "US", "state": "NY", "display_address": ["11 Doyers St", "New York, NY 10013"]}, "phone": "", "display_phone": "", "distance": 5528.538713348351}, {"id": "mykhv_-D5kREsbwCjeB1AA", "alias": "los-compadres-fort-lee", "name": "Los Compadres", "image_url": "https://s3-media1.fl.yelpcdn.com/bphoto/wmg18sd7FCHkFJDkoQr_gg/o.jpg", "is_closed": false, "url": "https://www.yelp.com/biz/los-compadres-fort-lee?adjust_creative=9gNmiWYX8uTbFBeTTvJMdA&utm_campaign=yelp_api_v3&utm_medium=api_v3_business_search&utm_source=9gNmiWYX8uTbFBeTTvJMdA", "review_count": 199, "categories": [{"alias": "mexican", "title": "Mexican"}], "rating": 4.5, "coordinates": {"latitude": 40.83981, "longitude": -73.98118}, "transactions": ["delivery", "pickup"], "price": "$$", "location": {"address1": "1224 Anderson Ave", "address2": "", "address3": null, "city": "Fort Lee", "zip_code": "07024", "country": "US", "state": "NJ", "display_address": ["1224 Anderson Ave", "Fort Lee, NJ 07024"]}, "phone": "+12018861367", "display_phone": "(201) 886-1367", "distance": 9039.103192541845}, {"id": "4ttqjZMCsfz6X0kQ_KR0xQ", "alias": "orale-mexican-kitchen-jersey-city", "name": "Orale Mexican Kitchen", "image_url": "https://s3-media3.fl.yelpcdn.com/bphoto/npTbZr_PeD4L3dXcZaePEg/o.jpg", "is_closed": false, "url": "https://www.yelp.com/biz/orale-mexican-kitchen-jersey-city?adjust_creative=9gNmiWYX8uTbFBeTTvJMdA&utm_campaign=yelp_api_v3&utm_medium=api_v3_business_search&utm_source=9gNmiWYX8uTbFBeTTvJMdA", "review_count": 1294, "categories": [{"alias": "mexican", "title": "Mexican"}, {"alias": "cocktailbars", "title": "Cocktail Bars"}], "rating": 4.0, "coordinates": {"latitude": 40.720536, "longitude": -74.042976}, "transactions": ["delivery"], "price": "$$", "location": {"address1": "341 Grove St", "address2": "", "address3": "", "city": "Jersey City", "zip_code": "07302", "country": "US", "state": "NJ", "display_address": ["341 Grove St", "Jersey City, NJ 07302"]}, "phone": "+12013330001", "display_phone": "(201) 333-0001", "distance": 7530.120944449045}, {"id": "MS32PBIYzOcYmO0b7aDRbw", "alias": "pia-new-york-3", "name": "Pia", "image_url": "https://s3-media1.fl.yelpcdn.com/bphoto/AF-Egfra76EBjoLPnSKaSw/o.jpg", "is_closed": false, "url": "https://www.yelp.com/biz/pia-new-york-3?adjust_creative=9gNmiWYX8uTbFBeTTvJMdA&utm_campaign=yelp_api_v3&utm_medium=api_v3_business_search&utm_source=9gNmiWYX8uTbFBeTTvJMdA", "review_count": 10, "categories": [{"alias": "mexican", "title": "Mexican"}, {"alias": "wine_bars", "title": "Wine Bars"}, {"alias": "cocktailbars", "title": "Cocktail Bars"}], "rating": 5.0, "coordinates": {"latitude": 40.74247, "longitude": -74.00658}, "transactions": [], "location": {"address1": "425 W 15th St", "address2": "", "address3": null, "city": "New York", "zip_code": "10011", "country": "US", "state": "NY", "display_address": ["425 W 15th St", "New York, NY 10011"]}, "phone": "", "display_phone": "", "distance": 3600.6916801534826}, {"id": "4c4Uwb5yUqXJ-inkcDinIg", "alias": "mcondo-tacos-brooklyn", "name": "Mcondo Tacos", "image_url": "https://s3-media3.fl.yelpcdn.com/bphoto/rKcMy3nwTRA54nvTGhggQQ/o.jpg", "is_closed": false, "url": "https://www.yelp.com/biz/mcondo-tacos-brooklyn?adjust_creative=9gNmiWYX8uTbFBeTTvJMdA&utm_campaign=yelp_api_v3&utm_medium=api_v3_business_search&utm_source=9gNmiWYX8uTbFBeTTvJMdA", "review_count": 376, "categories": [{"alias": "mexican", "title": "Mexican"}, {"alias": "bars", "title": "Bars"}, {"alias": "breakfast_brunch", "title": "Breakfast & Brunch"}], "rating": 4.0, "coordinates": {"latitude": 40.7108323440285, "longitude": -73.9509542539666}, "transactions": ["delivery", "pickup"], "price": "$$", "location": {"address1": "502 Grand St", "address2": "", "address3": "", "city": "Brooklyn", "zip_code": "11211", "country": "US", "state": "NY", "display_address": ["502 Grand St", "Brooklyn, NY 11211"]}, "phone": "+19176991090", "display_phone": "(917) 699-1090", "distance": 5599.674695821325}, {"id": "A8qXfx_LBI6fnOhxDmvIOA", "alias": "sabor-a-mexico-new-york-2", "name": "Sabor A Mexico", "image_url": "https://s3-media4.fl.yelpcdn.com/bphoto/MMzUpjCWAx7PfZH9RhZL8w/o.jpg", "is_closed": false, "url": "https://www.yelp.com/biz/sabor-a-mexico-new-york-2?adjust_creative=9gNmiWYX8uTbFBeTTvJMdA&utm_campaign=yelp_api_v3&utm_medium=api_v3_business_search&utm_source=9gNmiWYX8uTbFBeTTvJMdA", "review_count": 159, "categories": [{"alias": "mexican", "title": "Mexican"}], "rating": 3.5, "coordinates": {"latitude": 40.77953, "longitude": -73.94704}, "transactions": ["delivery", "pickup"], "price": "$$", "location": {"address1": "1744 1st Ave", "address2": "", "address3": "", "city": "New York", "zip_code": "10128", "country": "US", "state": "NY", "display_address": ["1744 1st Ave", "New York, NY 10128"]}, "phone": "+12122898675", "display_phone": "(212) 289-8675", "distance": 2952.835867133212}, {"id": "WI9HAeZ5BB1KvEz0mt1ivg", "alias": "taco-intenso-north-bergen", "name": "Taco Intenso", "image_url": "https://s3-media3.fl.yelpcdn.com/bphoto/kx-lOj0H--5Lee3O_Rw0UQ/o.jpg", "is_closed": false, "url": "https://www.yelp.com/biz/taco-intenso-north-bergen?adjust_creative=9gNmiWYX8uTbFBeTTvJMdA&utm_campaign=yelp_api_v3&utm_medium=api_v3_business_search&utm_source=9gNmiWYX8uTbFBeTTvJMdA", "review_count": 74, "categories": [{"alias": "tacos", "title": "Tacos"}], "rating": 4.5, "coordinates": {"latitude": 40.796123, "longitude": -74.003279}, "transactions": ["delivery", "pickup"], "location": {"address1": "7410 Broadway Ave", "address2": "", "address3": "", "city": "North Bergen", "zip_code": "07047", "country": "US", "state": "NJ", "display_address": ["7410 Broadway Ave", "North Bergen, NJ 07047"]}, "phone": "+12016620522", "display_phone": "(201) 662-0522", "distance": 4991.957957959586}, {"id": "MuQC1DiJl6yz1j_qfIBvCQ", "alias": "ixta-cocina-mexicana-mezcal-bar-new-york", "name": "IXTA Cocina Mexicana + Mezcal Bar", "image_url": "https://s3-media3.fl.yelpcdn.com/bphoto/qblLAxunzdgu-Bf-BREtIw/o.jpg", "is_closed": false, "url": "https://www.yelp.com/biz/ixta-cocina-mexicana-mezcal-bar-new-york?adjust_creative=9gNmiWYX8uTbFBeTTvJMdA&utm_campaign=yelp_api_v3&utm_medium=api_v3_business_search&utm_source=9gNmiWYX8uTbFBeTTvJMdA", "review_count": 30, "categories": [{"alias": "mexican", "title": "Mexican"}], "rating": 3.5, "coordinates": {"latitude": 40.724428, "longitude": -73.992123}, "transactions": ["delivery", "pickup"], "location": {"address1": "299 Bowery", "address2": null, "address3": "", "city": "New York", "zip_code": "10003", "country": "US", "state": "NY", "display_address": ["299 Bowery", "New York, NY 10003"]}, "phone": "+19177324982", "display_phone": "(917) 732-4982", "distance": 4301.745584081198}, {"id": "j4dGkqL-OK9YH8Sl2eOWEg", "alias": "5-burro-cafe-forest-hills", "name": "5 Burro Cafe", "image_url": "https://s3-media1.fl.yelpcdn.com/bphoto/Z8KI3oFlRKIVE3wTrdCiCA/o.jpg", "is_closed": false, "url": "https://www.yelp.com/biz/5-burro-cafe-forest-hills?adjust_creative=9gNmiWYX8uTbFBeTTvJMdA&utm_campaign=yelp_api_v3&utm_medium=api_v3_business_search&utm_source=9gNmiWYX8uTbFBeTTvJMdA", "review_count": 1543, "categories": [{"alias": "mexican", "title": "Mexican"}, {"alias": "cocktailbars", "title": "Cocktail Bars"}], "rating": 3.5, "coordinates": {"latitude": 40.7192464187592, "longitude": -73.8422552802263}, "transactions": ["delivery", "pickup"], "price": "$$", "location": {"address1": "72-05 Austin St", "address2": "", "address3": "", "city": "Forest Hills", "zip_code": "11375", "country": "US", "state": "NY", "display_address": ["72-05 Austin St", "Forest Hills, NY 11375"]}, "phone": "+17185442984", "display_phone": "(718) 544-2984", "distance": 11595.70231665502}, {"id": "1ux5rxwWjKxoXHUyGynwSg", "alias": "purepecha-brooklyn", "name": "Purepecha", "image_url": "https://s3-media2.fl.yelpcdn.com/bphoto/HRIMQ-Ik7mVOz3C0JBbzZA/o.jpg", "is_closed": false, "url": "https://www.yelp.com/biz/purepecha-brooklyn?adjust_creative=9gNmiWYX8uTbFBeTTvJMdA&utm_campaign=yelp_api_v3&utm_medium=api_v3_business_search&utm_source=9gNmiWYX8uTbFBeTTvJMdA", "review_count": 84, "categories": [{"alias": "mexican", "title": "Mexican"}], "rating": 4.5, "coordinates": {"latitude": 40.68454335716857, "longitude": -73.99182679347962}, "transactions": ["delivery", "pickup"], "price": "$$", "location": {"address1": "213 Smith St", "address2": "", "address3": null, "city": "Brooklyn", "zip_code": "11201", "country": "US", "state": "NY", "display_address": ["213 Smith St", "Brooklyn, NY 11201"]}, "phone": "+13479161227", "display_phone": "(347) 916-1227", "distance": 8507.869920268144}, {"id": "6rM-N1SBbKPC7DWZNg5awQ", "alias": "los-portales-astoria-2", "name": "Los Portales", "image_url": "https://s3-media4.fl.yelpcdn.com/bphoto/mBfmIGVjtAy_3tYa4JhLZA/o.jpg", "is_closed": false, "url": "https://www.yelp.com/biz/los-portales-astoria-2?adjust_creative=9gNmiWYX8uTbFBeTTvJMdA&utm_campaign=yelp_api_v3&utm_medium=api_v3_business_search&utm_source=9gNmiWYX8uTbFBeTTvJMdA", "review_count": 316, "categories": [{"alias": "mexican", "title": "Mexican"}], "rating": 4.0, "coordinates": {"latitude": 40.7631768211379, "longitude": -73.9282260153443}, "transactions": ["delivery", "pickup"], "price": "$", "location": {"address1": "2508 Broadway", "address2": "", "address3": "", "city": "Astoria", "zip_code": "11105", "country": "US", "state": "NY", "display_address": ["2508 Broadway", "Astoria, NY 11105"]}, "phone": "+17182046736", "display_phone": "(718) 204-6736", "distance": 3510.773031391673}, {"id": "1Ylu26XW3F6gSJWdFw6-8g", "alias": "great-burrito-new-york", "name": "Great Burrito", "image_url": "https://s3-media1.fl.yelpcdn.com/bphoto/WxuJkzwvCc1W6n6XqMLBLg/o.jpg", "is_closed": false, "url": "https://www.yelp.com/biz/great-burrito-new-york?adjust_creative=9gNmiWYX8uTbFBeTTvJMdA&utm_campaign=yelp_api_v3&utm_medium=api_v3_business_search&utm_source=9gNmiWYX8uTbFBeTTvJMdA", "review_count": 265, "categories": [{"alias": "pizza", "title": "Pizza"}, {"alias": "mexican", "title": "Mexican"}], "rating": 4.0, "coordinates": {"latitude": 40.7428322, "longitude": -73.9930115}, "transactions": ["delivery", "pickup"], "price": "$", "location": {"address1": "100 W 23rd St", "address2": "", "address3": "", "city": "New York", "zip_code": "10011", "country": "US", "state": "NY", "display_address": ["100 W 23rd St", "New York, NY 10011"]}, "phone": "+12122430022", "display_phone": "(212) 243-0022", "distance": 2691.3604274800527}, {"id": "kvvrtHlCn-QFVu71_l6VAA", "alias": "bitol-mexican-kitchen-and-handcrafted-cantina-clifton", "name": "Bitol Mexican Kitchen & Handcrafted Cantina", "image_url": "https://s3-media4.fl.yelpcdn.com/bphoto/KIkuJ0rtGRUxi-YzErRBHQ/o.jpg", "is_closed": false, "url": "https://www.yelp.com/biz/bitol-mexican-kitchen-and-handcrafted-cantina-clifton?adjust_creative=9gNmiWYX8uTbFBeTTvJMdA&utm_campaign=yelp_api_v3&utm_medium=api_v3_business_search&utm_source=9gNmiWYX8uTbFBeTTvJMdA", "review_count": 149, "categories": [{"alias": "cocktailbars", "title": "Cocktail Bars"}, {"alias": "mexican", "title": "Mexican"}, {"alias": "breakfast_brunch", "title": "Breakfast & Brunch"}], "rating": 4.0, "coordinates": {"latitude": 40.84111134955965, "longitude": -74.15992002613847}, "transactions": [], "price": "$$", "location": {"address1": "1061 Bloomfield Ave", "address2": "Lot 1", "address3": null, "city": "Clifton", "zip_code": "07012", "country": "US", "state": "NJ", "display_address": ["1061 Bloomfield Ave", "Lot 1", "Clifton, NJ 07012"]}, "phone": "+19732463558", "display_phone": "(973) 246-3558", "distance": 18431.432193551544}, {"id": "5LO5C4doYF_UP2OB29zYMg", "alias": "empell\u00f3n-taqueria-new-york", "name": "Empell\u00f3n Taqueria", "image_url": "https://s3-media3.fl.yelpcdn.com/bphoto/nvUjaEqSHY32YF0WlAilZA/o.jpg", "is_closed": false, "url": "https://www.yelp.com/biz/empell%C3%B3n-taqueria-new-york?adjust_creative=9gNmiWYX8uTbFBeTTvJMdA&utm_campaign=yelp_api_v3&utm_medium=api_v3_business_search&utm_source=9gNmiWYX8uTbFBeTTvJMdA", "review_count": 752, "categories": [{"alias": "mexican", "title": "Mexican"}, {"alias": "venues", "title": "Venues & Event Spaces"}, {"alias": "bars", "title": "Bars"}], "rating": 3.5, "coordinates": {"latitude": 40.7341219, "longitude": -74.0030294}, "transactions": ["delivery", "pickup"], "price": "$$", "location": {"address1": "230 W 4th St", "address2": "", "address3": "", "city": "New York", "zip_code": "10014", "country": "US", "state": "NY", "display_address": ["230 W 4th St", "New York, NY 10014"]}, "phone": "+12123801089", "display_phone": "(212) 380-1089", "distance": 3962.7487045320963}, {"id": "bHattTQoloZeWwLvUTkRgQ", "alias": "vinyl-steakhouse-new-york", "name": "Vinyl Steakhouse", "image_url": "https://s3-media4.fl.yelpcdn.com/bphoto/x8ck8UQNQVHRSKSrE-41WQ/o.jpg", "is_closed": false, "url": "https://www.yelp.com/biz/vinyl-steakhouse-new-york?adjust_creative=9gNmiWYX8uTbFBeTTvJMdA&utm_campaign=yelp_api_v3&utm_medium=api_v3_business_search&utm_source=9gNmiWYX8uTbFBeTTvJMdA", "review_count": 61, "categories": [{"alias": "steak", "title": "Steakhouses"}, {"alias": "cocktailbars", "title": "Cocktail Bars"}], "rating": 5.0, "coordinates": {"latitude": 40.74004396634562, "longitude": -73.9930878}, "transactions": ["delivery", "pickup"], "location": {"address1": "35 W 19th St", "address2": null, "address3": "", "city": "New York", "zip_code": "10011", "country": "US", "state": "NY", "display_address": ["35 W 19th St", "New York, NY 10011"]}, "phone": "+16464617866", "display_phone": "(646) 461-7866", "distance": 2906.6347746636693}, {"id": "PnGSE8JGbMZKtdHi9go7Kg", "alias": "the-milling-room-new-york-2", "name": "The Milling Room", "image_url": "https://s3-media1.fl.yelpcdn.com/bphoto/hX0NmH3ydWX-XRksstnalw/o.jpg", "is_closed": false, "url": "https://www.yelp.com/biz/the-milling-room-new-york-2?adjust_creative=9gNmiWYX8uTbFBeTTvJMdA&utm_campaign=yelp_api_v3&utm_medium=api_v3_business_search&utm_source=9gNmiWYX8uTbFBeTTvJMdA", "review_count": 547, "categories": [{"alias": "newamerican", "title": "American (New)"}, {"alias": "wine_bars", "title": "Wine Bars"}, {"alias": "cocktailbars", "title": "Cocktail Bars"}], "rating": 4.0, "coordinates": {"latitude": 40.7835485472543, "longitude": -73.9744088718635}, "transactions": ["delivery", "pickup"], "price": "$$$", "location": {"address1": "446 Columbus Ave", "address2": "", "address3": "", "city": "New York", "zip_code": "10024", "country": "US", "state": "NY", "display_address": ["446 Columbus Ave", "New York, NY 10024"]}, "phone": "+12125950380", "display_phone": "(212) 595-0380", "distance": 2763.2606914600187}, {"id": "Yilk_Ucz4L6w9EmvAS2gHg", "alias": "taqueria-coatzingo-jackson-heights", "name": "Taqueria Coatzingo", "image_url": "https://s3-media3.fl.yelpcdn.com/bphoto/4rMaix0xMdhpZHvjMDeIZA/o.jpg", "is_closed": false, "url": "https://www.yelp.com/biz/taqueria-coatzingo-jackson-heights?adjust_creative=9gNmiWYX8uTbFBeTTvJMdA&utm_campaign=yelp_api_v3&utm_medium=api_v3_business_search&utm_source=9gNmiWYX8uTbFBeTTvJMdA", "review_count": 484, "categories": [{"alias": "mexican", "title": "Mexican"}], "rating": 4.0, "coordinates": {"latitude": 40.74721811502443, "longitude": -73.88932086686563}, "transactions": ["delivery", "pickup"], "price": "$$", "location": {"address1": "7605 Roosevelt Ave", "address2": null, "address3": "", "city": "Jackson Heights", "zip_code": "11372", "country": "US", "state": "NY", "display_address": ["7605 Roosevelt Ave", "Jackson Heights, NY 11372"]}, "phone": "+17184241977", "display_phone": "(718) 424-1977", "distance": 6889.478590480163}, {"id": "HjvCwjM0EkFoYo8TFHjfww", "alias": "arre-sinaloa-union-city", "name": "Arre Sinaloa", "image_url": "https://s3-media4.fl.yelpcdn.com/bphoto/k_M0GJOq_H0EFRcOpSc32A/o.jpg", "is_closed": false, "url": "https://www.yelp.com/biz/arre-sinaloa-union-city?adjust_creative=9gNmiWYX8uTbFBeTTvJMdA&utm_campaign=yelp_api_v3&utm_medium=api_v3_business_search&utm_source=9gNmiWYX8uTbFBeTTvJMdA", "review_count": 29, "categories": [{"alias": "mexican", "title": "Mexican"}], "rating": 5.0, "coordinates": {"latitude": 40.77804222204433, "longitude": -74.0175949037075}, "transactions": ["delivery", "pickup"], "location": {"address1": "4605 Park Ave", "address2": "", "address3": null, "city": "Union City", "zip_code": "07087", "country": "US", "state": "NJ", "display_address": ["4605 Park Ave", "Union City, NJ 07087"]}, "phone": "+12014309897", "display_phone": "(201) 430-9897", "distance": 4555.829138025504}, {"id": "o0N93sxw6jK4-SZP0Ksn3A", "alias": "el-buen-gusto-restaurant-astoria", "name": "El Buen Gusto Restaurant", "image_url": "https://s3-media2.fl.yelpcdn.com/bphoto/i97EUUZh5toMs5VrLyHluQ/o.jpg", "is_closed": false, "url": "https://www.yelp.com/biz/el-buen-gusto-restaurant-astoria?adjust_creative=9gNmiWYX8uTbFBeTTvJMdA&utm_campaign=yelp_api_v3&utm_medium=api_v3_business_search&utm_source=9gNmiWYX8uTbFBeTTvJMdA", "review_count": 12, "categories": [{"alias": "mexican", "title": "Mexican"}, {"alias": "italian", "title": "Italian"}], "rating": 4.5, "coordinates": {"latitude": 40.768729, "longitude": -73.93146}, "transactions": ["delivery", "pickup"], "location": {"address1": "30-85 14st", "address2": null, "address3": "", "city": "Astoria", "zip_code": "11102", "country": "US", "state": "NY", "display_address": ["30-85 14st", "Astoria, NY 11102"]}, "phone": "+13478480435", "display_phone": "(347) 848-0435", "distance": 3384.535426829383}, {"id": "ruT2owRpzDFRyA3Zc2qN8w", "alias": "guevaras-new-york", "name": "Guevara's", "image_url": "https://s3-media1.fl.yelpcdn.com/bphoto/vy9el39qVyCzLl8XZDrvDQ/o.jpg", "is_closed": false, "url": "https://www.yelp.com/biz/guevaras-new-york?adjust_creative=9gNmiWYX8uTbFBeTTvJMdA&utm_campaign=yelp_api_v3&utm_medium=api_v3_business_search&utm_source=9gNmiWYX8uTbFBeTTvJMdA", "review_count": 14, "categories": [{"alias": "vegan", "title": "Vegan"}, {"alias": "coffee", "title": "Coffee & Tea"}, {"alias": "mexican", "title": "Mexican"}], "rating": 4.5, "coordinates": {"latitude": 40.713750285013965, "longitude": -73.96705410027033}, "transactions": ["delivery", "pickup"], "location": {"address1": "319 Kent Ave", "address2": null, "address3": "", "city": "New York", "zip_code": "11249", "country": "US", "state": "NY", "display_address": ["319 Kent Ave", "New York, NY 11249"]}, "phone": "", "display_phone": "", "distance": 5055.419718871857}, {"id": "Xu8H24NxJJxEE-9wGp_AMA", "alias": "the-brazen-tavern-new-york", "name": "The Brazen Tavern", "image_url": "https://s3-media2.fl.yelpcdn.com/bphoto/QQ2B_GG0iTALOq0JrxTpMA/o.jpg", "is_closed": false, "url": "https://www.yelp.com/biz/the-brazen-tavern-new-york?adjust_creative=9gNmiWYX8uTbFBeTTvJMdA&utm_campaign=yelp_api_v3&utm_medium=api_v3_business_search&utm_source=9gNmiWYX8uTbFBeTTvJMdA", "review_count": 425, "categories": [{"alias": "newamerican", "title": "American (New)"}, {"alias": "sportsbars", "title": "Sports Bars"}], "rating": 4.5, "coordinates": {"latitude": 40.7593269348145, "longitude": -73.9913101196289}, "transactions": ["delivery"], "price": "$$", "location": {"address1": "356 W 44th St", "address2": "", "address3": "", "city": "New York", "zip_code": "10036", "country": "US", "state": "NY", "display_address": ["356 W 44th St", "New York, NY 10036"]}, "phone": "+16466785989", "display_phone": "(646) 678-5989", "distance": 1829.1471802142187}, {"id": "jKaR8TTkLBAFmMIsKU786g", "alias": "pio-pio-3-new-york-5", "name": "Pio Pio 3", "image_url": "https://s3-media2.fl.yelpcdn.com/bphoto/9fbcCOHV_HxPOXEINarl-g/o.jpg", "is_closed": false, "url": "https://www.yelp.com/biz/pio-pio-3-new-york-5?adjust_creative=9gNmiWYX8uTbFBeTTvJMdA&utm_campaign=yelp_api_v3&utm_medium=api_v3_business_search&utm_source=9gNmiWYX8uTbFBeTTvJMdA", "review_count": 809, "categories": [{"alias": "latin", "title": "Latin American"}, {"alias": "peruvian", "title": "Peruvian"}], "rating": 4.0, "coordinates": {"latitude": 40.77959, "longitude": -73.947}, "transactions": ["delivery"], "price": "$$", "location": {"address1": "1746 First Ave", "address2": "", "address3": "", "city": "New York", "zip_code": "10128", "country": "US", "state": "NY", "display_address": ["1746 First Ave", "New York, NY 10128"]}, "phone": "+12124265800", "display_phone": "(212) 426-5800", "distance": 2959.408321473876}, {"id": "2iqsjuh8Mpm_3p6s-G9zkQ", "alias": "taqueria-tlaxcalli-bronx-3", "name": "Taqueria Tlaxcalli", "image_url": "https://s3-media4.fl.yelpcdn.com/bphoto/oGsoEKn0JZpg1uuGmIodEQ/o.jpg", "is_closed": false, "url": "https://www.yelp.com/biz/taqueria-tlaxcalli-bronx-3?adjust_creative=9gNmiWYX8uTbFBeTTvJMdA&utm_campaign=yelp_api_v3&utm_medium=api_v3_business_search&utm_source=9gNmiWYX8uTbFBeTTvJMdA", "review_count": 743, "categories": [{"alias": "mexican", "title": "Mexican"}], "rating": 4.5, "coordinates": {"latitude": 40.83624, "longitude": -73.854962}, "transactions": ["delivery", "pickup"], "price": "$$", "location": {"address1": "2103 Starling Ave", "address2": "", "address3": null, "city": "Bronx", "zip_code": "10462", "country": "US", "state": "NY", "display_address": ["2103 Starling Ave", "Bronx, NY 10462"]}, "phone": "+13478513085", "display_phone": "(347) 851-3085", "distance": 12913.316928193088}, {"id": "U7879T9bLS6DmfsgvzRHxQ", "alias": "hungry-burrito-3-brooklyn", "name": "Hungry Burrito 3", "image_url": "https://s3-media2.fl.yelpcdn.com/bphoto/z-bJLYwaS3MH8EfnFQWgVA/o.jpg", "is_closed": false, "url": "https://www.yelp.com/biz/hungry-burrito-3-brooklyn?adjust_creative=9gNmiWYX8uTbFBeTTvJMdA&utm_campaign=yelp_api_v3&utm_medium=api_v3_business_search&utm_source=9gNmiWYX8uTbFBeTTvJMdA", "review_count": 12, "categories": [{"alias": "mexican", "title": "Mexican"}], "rating": 3.5, "coordinates": {"latitude": 40.73553, "longitude": -73.9553}, "transactions": ["delivery", "pickup"], "location": {"address1": "1079 Manhattan Ave", "address2": null, "address3": "", "city": "Brooklyn", "zip_code": "11222", "country": "US", "state": "NY", "display_address": ["1079 Manhattan Ave", "Brooklyn, NY 11222"]}, "phone": "+13473350726", "display_phone": "(347) 335-0726", "distance": 2886.4130994149596}, {"id": "iXtZQ7twXQiv7j2ZdxZqUg", "alias": "burritos-y-mas-ny-tex-mex-new-york", "name": "Burritos y Mas NY Tex-Mex", "image_url": "https://s3-media1.fl.yelpcdn.com/bphoto/Bjp7YWUSDBGNPXPGg48bvA/o.jpg", "is_closed": false, "url": "https://www.yelp.com/biz/burritos-y-mas-ny-tex-mex-new-york?adjust_creative=9gNmiWYX8uTbFBeTTvJMdA&utm_campaign=yelp_api_v3&utm_medium=api_v3_business_search&utm_source=9gNmiWYX8uTbFBeTTvJMdA", "review_count": 207, "categories": [{"alias": "tex-mex", "title": "Tex-Mex"}, {"alias": "mexican", "title": "Mexican"}], "rating": 4.0, "coordinates": {"latitude": 40.7887686998247, "longitude": -73.9486259859039}, "transactions": ["delivery", "pickup"], "price": "$", "location": {"address1": "1571 Lexington Ave", "address2": null, "address3": "", "city": "New York", "zip_code": "10029", "country": "US", "state": "NY", "display_address": ["1571 Lexington Ave", "New York, NY 10029"]}, "phone": "+16469187478", "display_phone": "(646) 918-7478", "distance": 3733.6669987636847}], "total": 4800, "region": {"center": {"longitude": -73.96957397460938, "latitude": 40.75917470627005}}}