{"businesses": [{"id": "9BzRiWO6PSdR-l3dzCm3VA", "alias": "buceo-95-new-york", "name": "Buceo 95", "image_url": "https://s3-media3.fl.yelpcdn.com/bphoto/wfc_-JhFmB_SwXNs2g9ZIg/o.jpg", "is_closed": false, "url": "https://www.yelp.com/biz/buceo-95-new-york?adjust_creative=9gNmiWYX8uTbFBeTTvJMdA&utm_campaign=yelp_api_v3&utm_medium=api_v3_business_search&utm_source=9gNmiWYX8uTbFBeTTvJMdA", "review_count": 475, "categories": [{"alias": "tapas", "title": "Tapas Bars"}, {"alias": "spanish", "title": "Spanish"}, {"alias": "wine_bars", "title": "Wine Bars"}], "rating": 4.0, "coordinates": {"latitude": 40.793613, "longitude": -73.971112}, "transactions": ["delivery", "pickup"], "price": "$$$", "location": {"address1": "201 W 95th St", "address2": "", "address3": "", "city": "New York", "zip_code": "10025", "country": "US", "state": "NY", "display_address": ["201 W 95th St", "New York, NY 10025"]}, "phone": "+12126627010", "display_phone": "(212) 662-7010", "distance": 3831.5486245665115}, {"id": "mhKehfFER2faDSsWzynklQ", "alias": "skinny-s-cantina-on-the-hudson-new-york", "name": "Skinny\u2019s Cantina On the Hudson", "image_url": "https://s3-media4.fl.yelpcdn.com/bphoto/pK2rfDCPTNGBg7lvo68_Bg/o.jpg", "is_closed": false, "url": "https://www.yelp.com/biz/skinny-s-cantina-on-the-hudson-new-york?adjust_creative=9gNmiWYX8uTbFBeTTvJMdA&utm_campaign=yelp_api_v3&utm_medium=api_v3_business_search&utm_source=9gNmiWYX8uTbFBeTTvJMdA", "review_count": 89, "categories": [{"alias": "mexican", "title": "Mexican"}, {"alias": "breakfast_brunch", "title": "Breakfast & Brunch"}, {"alias": "cocktailbars", "title": "Cocktail Bars"}], "rating": 3.0, "coordinates": {"latitude": 40.8203, "longitude": -73.95896}, "transactions": ["delivery", "restaurant_reservation", "pickup"], "location": {"address1": "701 W 133rd St", "address2": "", "address3": null, "city": "New York", "zip_code": "10027", "country": "US", "state": "NY", "display_address": ["701 W 133rd St", "New York, NY 10027"]}, "phone": "+19176724111", "display_phone": "(917) 672-4111", "distance": 6855.158174759785}, {"id": "pcQ9ld7xuX9EXTCAoakkbQ", "alias": "tacombi-financial-district-new-york-4", "name": "Tacombi", "image_url": "https://s3-media3.fl.yelpcdn.com/bphoto/64cuWeHIgsr5C8Fwf1Vntw/o.jpg", "is_closed": false, "url": "https://www.yelp.com/biz/tacombi-financial-district-new-york-4?adjust_creative=9gNmiWYX8uTbFBeTTvJMdA&utm_campaign=yelp_api_v3&utm_medium=api_v3_business_search&utm_source=9gNmiWYX8uTbFBeTTvJMdA", "review_count": 118, "categories": [{"alias": "mexican", "title": "Mexican"}, {"alias": "cocktailbars", "title": "Cocktail Bars"}, {"alias": "breakfast_brunch", "title": "Breakfast & Brunch"}], "rating": 4.0, "coordinates": {"latitude": 40.70468776591344, "longitude": -74.0116733}, "transactions": ["delivery", "pickup"], "price": "$$", "location": {"address1": "74 Broad St", "address2": null, "address3": "", "city": "New York", "zip_code": "10004", "country": "US", "state": "NY", "display_address": ["74 Broad St", "New York, NY 10004"]}, "phone": "+19172617136", "display_phone": "(917) 261-7136", "distance": 7020.735453700599}, {"id": "ox36ejKIJqE0lALCiZu0IA", "alias": "el-patron-flushing", "name": "El Patron", "image_url": "https://s3-media3.fl.yelpcdn.com/bphoto/haiQwy47zrnUofpSOpXl7Q/o.jpg", "is_closed": false, "url": "https://www.yelp.com/biz/el-patron-flushing?adjust_creative=9gNmiWYX8uTbFBeTTvJMdA&utm_campaign=yelp_api_v3&utm_medium=api_v3_business_search&utm_source=9gNmiWYX8uTbFBeTTvJMdA", "review_count": 758, "categories": [{"alias": "mexican", "title": "Mexican"}], "rating": 3.5, "coordinates": {"latitude": 40.7581599, "longitude": -73.78747}, "transactions": ["delivery", "pickup"], "price": "$$", "location": {"address1": "194-01 Northern Blvd", "address2": "", "address3": "", "city": "Flushing", "zip_code": "11358", "country": "US", "state": "NY", "display_address": ["194-01 Northern Blvd", "Flushing, NY 11358"]}, "phone": "+17188192121", "display_phone": "(718) 819-2121", "distance": 15334.340048792928}, {"id": "NqwwyMMXIS-JnwdDQBQT9A", "alias": "baz\u00e1r-tapas-bar-and-restaurant-new-york-9", "name": "Baz\u00e1r Tapas Bar & Restaurant", "image_url": "https://s3-media2.fl.yelpcdn.com/bphoto/hpyjPilFZ8iisZoqsKlqKg/o.jpg", "is_closed": false, "url": "https://www.yelp.com/biz/baz%C3%A1r-tapas-bar-and-restaurant-new-york-9?adjust_creative=9gNmiWYX8uTbFBeTTvJMdA&utm_campaign=yelp_api_v3&utm_medium=api_v3_business_search&utm_source=9gNmiWYX8uTbFBeTTvJMdA", "review_count": 729, "categories": [{"alias": "tapasmallplates", "title": "Tapas/Small Plates"}, {"alias": "cocktailbars", "title": "Cocktail Bars"}, {"alias": "wine_bars", "title": "Wine Bars"}], "rating": 4.0, "coordinates": {"latitude": 40.744449, "longitude": -73.990068}, "transactions": ["delivery", "restaurant_reservation", "pickup"], "price": "$$$", "location": {"address1": "31 W 26th St", "address2": "", "address3": null, "city": "New York", "zip_code": "10010", "country": "US", "state": "NY", "display_address": ["31 W 26th St", "New York, NY 10010"]}, "phone": "+12125108155", "display_phone": "(212) 510-8155", "distance": 2379.3509996521684}, {"id": "aIigHZBgXDHXalBZMRHsvg", "alias": "gringos-jersey-city", "name": "Gringo's", "image_url": "https://s3-media4.fl.yelpcdn.com/bphoto/8aoC7KuvQpXY8xhnCTv7aA/o.jpg", "is_closed": false, "url": "https://www.yelp.com/biz/gringos-jersey-city?adjust_creative=9gNmiWYX8uTbFBeTTvJMdA&utm_campaign=yelp_api_v3&utm_medium=api_v3_business_search&utm_source=9gNmiWYX8uTbFBeTTvJMdA", "review_count": 607, "categories": [{"alias": "mexican", "title": "Mexican"}, {"alias": "breakfast_brunch", "title": "Breakfast & Brunch"}, {"alias": "bars", "title": "Bars"}], "rating": 3.5, "coordinates": {"latitude": 40.7216329213934, "longitude": -74.0476842694786}, "transactions": ["delivery", "pickup"], "price": "$$", "location": {"address1": "12 Coles St", "address2": "", "address3": null, "city": "Jersey City", "zip_code": "07302", "country": "US", "state": "NJ", "display_address": ["12 Coles St", "Jersey City, NJ 07302"]}, "phone": "+12013894110", "display_phone": "(201) 389-4110", "distance": 7793.092692232281}, {"id": "bm1r5T7vc9dHws3tD6Y0sQ", "alias": "street-taco-new-york-2", "name": "Street Taco", "image_url": "https://s3-media1.fl.yelpcdn.com/bphoto/z-72e5J_0rjHZqnZ_jxifA/o.jpg", "is_closed": false, "url": "https://www.yelp.com/biz/street-taco-new-york-2?adjust_creative=9gNmiWYX8uTbFBeTTvJMdA&utm_campaign=yelp_api_v3&utm_medium=api_v3_business_search&utm_source=9gNmiWYX8uTbFBeTTvJMdA", "review_count": 44, "categories": [{"alias": "bars", "title": "Bars"}, {"alias": "tacos", "title": "Tacos"}], "rating": 4.0, "coordinates": {"latitude": 40.79821, "longitude": -73.96887}, "transactions": ["delivery", "pickup"], "price": "$$", "location": {"address1": "2672 Broadway", "address2": "", "address3": null, "city": "New York", "zip_code": "10025", "country": "US", "state": "NY", "display_address": ["2672 Broadway", "New York, NY 10025"]}, "phone": "+19172617333", "display_phone": "(917) 261-7333", "distance": 4345.071569135872}, {"id": "QqrEF8_ZQCGi63cL10J5oA", "alias": "chola-new-york-3", "name": "Chola", "image_url": "https://s3-media2.fl.yelpcdn.com/bphoto/sES9shU8nbErVX_saLRRgA/o.jpg", "is_closed": false, "url": "https://www.yelp.com/biz/chola-new-york-3?adjust_creative=9gNmiWYX8uTbFBeTTvJMdA&utm_campaign=yelp_api_v3&utm_medium=api_v3_business_search&utm_source=9gNmiWYX8uTbFBeTTvJMdA", "review_count": 666, "categories": [{"alias": "indpak", "title": "Indian"}, {"alias": "soup", "title": "Soup"}, {"alias": "seafood", "title": "Seafood"}], "rating": 4.0, "coordinates": {"latitude": 40.76016, "longitude": -73.96582}, "transactions": ["delivery", "pickup"], "price": "$$", "location": {"address1": "232 E 58th St", "address2": "", "address3": "", "city": "New York", "zip_code": "10022", "country": "US", "state": "NY", "display_address": ["232 E 58th St", "New York, NY 10022"]}, "phone": "+12126884619", "display_phone": "(212) 688-4619", "distance": 333.7956234086525}, {"id": "kJCjKpwcOFA1fal0fuNVRg", "alias": "tacoria-jersey-city-3", "name": "Tacoria", "image_url": "https://s3-media2.fl.yelpcdn.com/bphoto/j3cGqF4rBmcNuPHdfvwL7g/o.jpg", "is_closed": false, "url": "https://www.yelp.com/biz/tacoria-jersey-city-3?adjust_creative=9gNmiWYX8uTbFBeTTvJMdA&utm_campaign=yelp_api_v3&utm_medium=api_v3_business_search&utm_source=9gNmiWYX8uTbFBeTTvJMdA", "review_count": 269, "categories": [{"alias": "tacos", "title": "Tacos"}], "rating": 4.5, "coordinates": {"latitude": 40.721858, "longitude": -74.044181}, "transactions": ["delivery"], "price": "$$", "location": {"address1": "24-26 Erie st", "address2": "", "address3": null, "city": "Jersey City", "zip_code": "07302", "country": "US", "state": "NJ", "display_address": ["24-26 Erie st", "Jersey City, NJ 07302"]}, "phone": "+12017929041", "display_phone": "(201) 792-9041", "distance": 7531.689767546145}, {"id": "DICO4Og4KD7gWgZzR1ldng", "alias": "taqueria-nixtamal-new-york-2", "name": "Taqueria Nixtamal", "image_url": "https://s3-media1.fl.yelpcdn.com/bphoto/OUAmwzrd1xzTws-Bw3ugdA/o.jpg", "is_closed": false, "url": "https://www.yelp.com/biz/taqueria-nixtamal-new-york-2?adjust_creative=9gNmiWYX8uTbFBeTTvJMdA&utm_campaign=yelp_api_v3&utm_medium=api_v3_business_search&utm_source=9gNmiWYX8uTbFBeTTvJMdA", "review_count": 24, "categories": [{"alias": "tacos", "title": "Tacos"}], "rating": 4.5, "coordinates": {"latitude": 40.71827, "longitude": -73.98806}, "transactions": ["delivery", "pickup"], "location": {"address1": "115 Delancey St", "address2": "", "address3": "The Market Line", "city": "New York", "zip_code": "10002", "country": "US", "state": "NY", "display_address": ["115 Delancey St", "The Market Line", "New York, NY 10002"]}, "phone": "+19176004732", "display_phone": "(917) 600-4732", "distance": 4810.217156877189}, {"id": "SP4bvMvxel_UPdof_er3HA", "alias": "taco-mahal-new-york", "name": "Taco Mahal", "image_url": "https://s3-media2.fl.yelpcdn.com/bphoto/wo7f5lvsgtQ5fOeWw6z83A/o.jpg", "is_closed": false, "url": "https://www.yelp.com/biz/taco-mahal-new-york?adjust_creative=9gNmiWYX8uTbFBeTTvJMdA&utm_campaign=yelp_api_v3&utm_medium=api_v3_business_search&utm_source=9gNmiWYX8uTbFBeTTvJMdA", "review_count": 790, "categories": [{"alias": "indpak", "title": "Indian"}, {"alias": "tacos", "title": "Tacos"}, {"alias": "latin", "title": "Latin American"}], "rating": 4.5, "coordinates": {"latitude": 40.73235768476899, "longitude": -74.00332645767203}, "transactions": ["delivery", "pickup"], "price": "$$", "location": {"address1": "73 7th Ave S", "address2": "", "address3": null, "city": "New York", "zip_code": "10014", "country": "US", "state": "NY", "display_address": ["73 7th Ave S", "New York, NY 10014"]}, "phone": "+16467191553", "display_phone": "(646) 719-1553", "distance": 4120.2819500480855}, {"id": "FXgSgiLg6xgOO8zrG51mzg", "alias": "claro-brooklyn", "name": "Claro", "image_url": "https://s3-media4.fl.yelpcdn.com/bphoto/omEamUWhidk1e9cYaQQVcg/o.jpg", "is_closed": false, "url": "https://www.yelp.com/biz/claro-brooklyn?adjust_creative=9gNmiWYX8uTbFBeTTvJMdA&utm_campaign=yelp_api_v3&utm_medium=api_v3_business_search&utm_source=9gNmiWYX8uTbFBeTTvJMdA", "review_count": 312, "categories": [{"alias": "mexican", "title": "Mexican"}, {"alias": "newmexican", "title": "New Mexican Cuisine"}, {"alias": "cocktailbars", "title": "Cocktail Bars"}], "rating": 4.0, "coordinates": {"latitude": 40.6773587963142, "longitude": -73.9861984489446}, "transactions": ["delivery", "pickup"], "price": "$$", "location": {"address1": "284 3rd Ave", "address2": "", "address3": null, "city": "Brooklyn", "zip_code": "11215", "country": "US", "state": "NY", "display_address": ["284 3rd Ave", "Brooklyn, NY 11215"]}, "phone": "+13477213126", "display_phone": "(347) 721-3126", "distance": 9204.758111048}, {"id": "r0Krxbk7O1KRjgvOYMHMug", "alias": "el-gallo-taqueria-new-york", "name": "EL Gallo Taqueria", "image_url": "https://s3-media4.fl.yelpcdn.com/bphoto/VVOIR3ziKFCOeamDEUeZqA/o.jpg", "is_closed": false, "url": "https://www.yelp.com/biz/el-gallo-taqueria-new-york?adjust_creative=9gNmiWYX8uTbFBeTTvJMdA&utm_campaign=yelp_api_v3&utm_medium=api_v3_business_search&utm_source=9gNmiWYX8uTbFBeTTvJMdA", "review_count": 70, "categories": [{"alias": "mexican", "title": "Mexican"}], "rating": 4.0, "coordinates": {"latitude": 40.719886, "longitude": -73.995982}, "transactions": ["delivery", "pickup"], "location": {"address1": "369 Broome St", "address2": null, "address3": "", "city": "New York", "zip_code": "10013", "country": "US", "state": "NY", "display_address": ["369 Broome St", "New York, NY 10013"]}, "phone": "+19176680033", "display_phone": "(917) 668-0033", "distance": 4900.404943250576}, {"id": "iaMuLypgQa8yaDWOOmlGVg", "alias": "zona-tribeca-new-york", "name": "Zona Tribeca", "image_url": "https://s3-media1.fl.yelpcdn.com/bphoto/eJgZfx11t38LZo9c5zvE3Q/o.jpg", "is_closed": false, "url": "https://www.yelp.com/biz/zona-tribeca-new-york?adjust_creative=9gNmiWYX8uTbFBeTTvJMdA&utm_campaign=yelp_api_v3&utm_medium=api_v3_business_search&utm_source=9gNmiWYX8uTbFBeTTvJMdA", "review_count": 63, "categories": [{"alias": "tacos", "title": "Tacos"}, {"alias": "cocktailbars", "title": "Cocktail Bars"}], "rating": 3.5, "coordinates": {"latitude": 40.71865, "longitude": -74.01008}, "transactions": ["delivery", "restaurant_reservation", "pickup"], "price": "$$", "location": {"address1": "353 Greenwich St", "address2": "", "address3": null, "city": "New York", "zip_code": "10013", "country": "US", "state": "NY", "display_address": ["353 Greenwich St", "New York, NY 10013"]}, "phone": "+12127660911", "display_phone": "(212) 766-0911", "distance": 5656.234822699646}, {"id": "h5VLolcEpu3ZUnDdjfhjSg", "alias": "papasito-mexican-grill-and-agave-bar-new-york", "name": "Papasito Mexican Grill & Agave Bar", "image_url": "https://s3-media4.fl.yelpcdn.com/bphoto/nsE-80Oe4Q8qEo49AZD8jA/o.jpg", "is_closed": false, "url": "https://www.yelp.com/biz/papasito-mexican-grill-and-agave-bar-new-york?adjust_creative=9gNmiWYX8uTbFBeTTvJMdA&utm_campaign=yelp_api_v3&utm_medium=api_v3_business_search&utm_source=9gNmiWYX8uTbFBeTTvJMdA", "review_count": 476, "categories": [{"alias": "mexican", "title": "Mexican"}], "rating": 3.0, "coordinates": {"latitude": 40.8658205, "longitude": -73.9273649}, "transactions": ["pickup"], "price": "$$", "location": {"address1": "223 Dyckman St", "address2": "", "address3": "", "city": "New York", "zip_code": "10034", "country": "US", "state": "NY", "display_address": ["223 Dyckman St", "New York, NY 10034"]}, "phone": "+12125440001", "display_phone": "(212) 544-0001", "distance": 12387.075561930811}, {"id": "LHxZgTddXIp_S1sL3nNG9w", "alias": "park-avenue-tavern-new-york", "name": "Park Avenue Tavern", "image_url": "https://s3-media3.fl.yelpcdn.com/bphoto/eEmopKOJ18oF85HpbNXezw/o.jpg", "is_closed": false, "url": "https://www.yelp.com/biz/park-avenue-tavern-new-york?adjust_creative=9gNmiWYX8uTbFBeTTvJMdA&utm_campaign=yelp_api_v3&utm_medium=api_v3_business_search&utm_source=9gNmiWYX8uTbFBeTTvJMdA", "review_count": 944, "categories": [{"alias": "tradamerican", "title": "American (Traditional)"}, {"alias": "cocktailbars", "title": "Cocktail Bars"}, {"alias": "burgers", "title": "Burgers"}], "rating": 4.0, "coordinates": {"latitude": 40.75031, "longitude": -73.9783999}, "transactions": ["delivery", "pickup"], "price": "$$", "location": {"address1": "99 Park Ave", "address2": "", "address3": "", "city": "New York", "zip_code": "10016", "country": "US", "state": "NY", "display_address": ["99 Park Ave", "New York, NY 10016"]}, "phone": "+12128674484", "display_phone": "(212) 867-4484", "distance": 1243.2901396806092}, {"id": "wOvCuvf0ftfTxQ-8NJ6V4A", "alias": "xochimilco-mexican-restaurant-and-bakery-west-new-york", "name": "Xochimilco Mexican Restaurant & Bakery", "image_url": "https://s3-media1.fl.yelpcdn.com/bphoto/g5qIYorD0MppT6hd2z1GEg/o.jpg", "is_closed": false, "url": "https://www.yelp.com/biz/xochimilco-mexican-restaurant-and-bakery-west-new-york?adjust_creative=9gNmiWYX8uTbFBeTTvJMdA&utm_campaign=yelp_api_v3&utm_medium=api_v3_business_search&utm_source=9gNmiWYX8uTbFBeTTvJMdA", "review_count": 26, "categories": [{"alias": "mexican", "title": "Mexican"}, {"alias": "bakeries", "title": "Bakeries"}, {"alias": "breakfast_brunch", "title": "Breakfast & Brunch"}], "rating": 4.0, "coordinates": {"latitude": 40.78872, "longitude": -74.01255}, "transactions": ["delivery", "pickup"], "price": "$", "location": {"address1": "321-323 61st St", "address2": "", "address3": "", "city": "West New York", "zip_code": "07093", "country": "US", "state": "NJ", "display_address": ["321-323 61st St", "West New York, NJ 07093"]}, "phone": "+12018683155", "display_phone": "(201) 868-3155", "distance": 4892.296424904684}, {"id": "iVkmxelFstmARvMbrVhlIQ", "alias": "viva-toro-brooklyn-3", "name": "Viva Toro", "image_url": "https://s3-media3.fl.yelpcdn.com/bphoto/WT-Mqt_JHj8BWbtrZJA0yQ/o.jpg", "is_closed": false, "url": "https://www.yelp.com/biz/viva-toro-brooklyn-3?adjust_creative=9gNmiWYX8uTbFBeTTvJMdA&utm_campaign=yelp_api_v3&utm_medium=api_v3_business_search&utm_source=9gNmiWYX8uTbFBeTTvJMdA", "review_count": 83, "categories": [{"alias": "mexican", "title": "Mexican"}, {"alias": "latin", "title": "Latin American"}, {"alias": "cocktailbars", "title": "Cocktail Bars"}], "rating": 3.5, "coordinates": {"latitude": 40.713503, "longitude": -73.935366}, "transactions": [], "price": "$$$", "location": {"address1": "987 Grand St", "address2": null, "address3": "", "city": "Brooklyn", "zip_code": "11211", "country": "US", "state": "NY", "display_address": ["987 Grand St", "Brooklyn, NY 11211"]}, "phone": "+17183842138", "display_phone": "(718) 384-2138", "distance": 5841.202454744056}, {"id": "ftL-f4OoFFshVYSZwTOrYA", "alias": "the-owls-tail-new-york", "name": "The Owl's Tail", "image_url": "https://s3-media1.fl.yelpcdn.com/bphoto/hKYsecv-kKonCL98lofXqw/o.jpg", "is_closed": false, "url": "https://www.yelp.com/biz/the-owls-tail-new-york?adjust_creative=9gNmiWYX8uTbFBeTTvJMdA&utm_campaign=yelp_api_v3&utm_medium=api_v3_business_search&utm_source=9gNmiWYX8uTbFBeTTvJMdA", "review_count": 124, "categories": [{"alias": "cocktailbars", "title": "Cocktail Bars"}], "rating": 4.0, "coordinates": {"latitude": 40.781040643739, "longitude": -73.9807120224114}, "transactions": ["delivery"], "price": "$$", "location": {"address1": "215 W 75th St", "address2": "", "address3": null, "city": "New York", "zip_code": "10023", "country": "US", "state": "NY", "display_address": ["215 W 75th St", "New York, NY 10023"]}, "phone": "+16466093906", "display_phone": "(646) 609-3906", "distance": 2606.0241483334034}, {"id": "GeL6wGdzhdEhuIFQau3ocQ", "alias": "taqueria-meza-new-york", "name": "Taqueria Meza", "image_url": "https://s3-media3.fl.yelpcdn.com/bphoto/3ML_w47ULUu4XOMIGWioSQ/o.jpg", "is_closed": false, "url": "https://www.yelp.com/biz/taqueria-meza-new-york?adjust_creative=9gNmiWYX8uTbFBeTTvJMdA&utm_campaign=yelp_api_v3&utm_medium=api_v3_business_search&utm_source=9gNmiWYX8uTbFBeTTvJMdA", "review_count": 287, "categories": [{"alias": "cocktailbars", "title": "Cocktail Bars"}, {"alias": "mexican", "title": "Mexican"}, {"alias": "breakfast_brunch", "title": "Breakfast & Brunch"}], "rating": 3.5, "coordinates": {"latitude": 40.7330017, "longitude": -74.002915}, "transactions": ["delivery"], "price": "$$", "location": {"address1": "95 7th Ave S", "address2": "", "address3": null, "city": "New York", "zip_code": "10014", "country": "US", "state": "NY", "display_address": ["95 7th Ave S", "New York, NY 10014"]}, "phone": "+12122551980", "display_phone": "(212) 255-1980", "distance": 4044.599206702968}, {"id": "JywbRdA7yskb-06WbjUjKw", "alias": "paquitos-new-york-2", "name": "Paquito's", "image_url": "https://s3-media4.fl.yelpcdn.com/bphoto/ff6JuPSLh-JC-PJqCVDPbA/o.jpg", "is_closed": false, "url": "https://www.yelp.com/biz/paquitos-new-york-2?adjust_creative=9gNmiWYX8uTbFBeTTvJMdA&utm_campaign=yelp_api_v3&utm_medium=api_v3_business_search&utm_source=9gNmiWYX8uTbFBeTTvJMdA", "review_count": 283, "categories": [{"alias": "mexican", "title": "Mexican"}], "rating": 3.5, "coordinates": {"latitude": 40.728144, "longitude": -73.985217}, "transactions": ["delivery", "pickup"], "price": "$$", "location": {"address1": "143 1st Ave", "address2": "", "address3": "", "city": "New York", "zip_code": "10003", "country": "US", "state": "NY", "display_address": ["143 1st Ave", "New York, NY 10003"]}, "phone": "+12126742071", "display_phone": "(212) 674-2071", "distance": 3694.2605350083395}, {"id": "RGSjUKs-hNpCSafrFcU-VQ", "alias": "la-flor-woodside-3", "name": "La Flor", "image_url": "https://s3-media4.fl.yelpcdn.com/bphoto/stGRl1bpKo1iVbwd30yO8w/o.jpg", "is_closed": false, "url": "https://www.yelp.com/biz/la-flor-woodside-3?adjust_creative=9gNmiWYX8uTbFBeTTvJMdA&utm_campaign=yelp_api_v3&utm_medium=api_v3_business_search&utm_source=9gNmiWYX8uTbFBeTTvJMdA", "review_count": 266, "categories": [{"alias": "mexican", "title": "Mexican"}, {"alias": "breakfast_brunch", "title": "Breakfast & Brunch"}, {"alias": "tradamerican", "title": "American (Traditional)"}], "rating": 4.5, "coordinates": {"latitude": 40.74434, "longitude": -73.91141}, "transactions": ["delivery", "pickup"], "price": "$$", "location": {"address1": "53-02 Roosevelt Ave", "address2": null, "address3": "", "city": "Woodside", "zip_code": "11377", "country": "US", "state": "NY", "display_address": ["53-02 Roosevelt Ave", "Woodside, NY 11377"]}, "phone": "+17184268023", "display_phone": "(718) 426-8023", "distance": 5173.562356282905}, {"id": "onGzhRqmlmYixXljTT3QVQ", "alias": "sobre-masa-brooklyn-2", "name": "Sobre Masa", "image_url": "https://s3-media1.fl.yelpcdn.com/bphoto/od20R-t7laOYtdnI2HOMyw/o.jpg", "is_closed": false, "url": "https://www.yelp.com/biz/sobre-masa-brooklyn-2?adjust_creative=9gNmiWYX8uTbFBeTTvJMdA&utm_campaign=yelp_api_v3&utm_medium=api_v3_business_search&utm_source=9gNmiWYX8uTbFBeTTvJMdA", "review_count": 29, "categories": [{"alias": "mexican", "title": "Mexican"}, {"alias": "cocktailbars", "title": "Cocktail Bars"}], "rating": 4.5, "coordinates": {"latitude": 40.70634, "longitude": -73.93136}, "transactions": [], "location": {"address1": "52 Harrison Pl", "address2": null, "address3": "", "city": "Brooklyn", "zip_code": "11237", "country": "US", "state": "NY", "display_address": ["52 Harrison Pl", "Brooklyn, NY 11237"]}, "phone": "+13478442343", "display_phone": "(347) 844-2343", "distance": 6704.778072682597}, {"id": "Jqs9XcO2Mva9_qfFiMqX6Q", "alias": "el-cartel-tapas-bar-and-restaurant-new-york", "name": "El Cartel Tapas Bar & Restaurant", "image_url": "https://s3-media2.fl.yelpcdn.com/bphoto/JyuP5dAcHqnm4KH1ArIPgw/o.jpg", "is_closed": false, "url": "https://www.yelp.com/biz/el-cartel-tapas-bar-and-restaurant-new-york?adjust_creative=9gNmiWYX8uTbFBeTTvJMdA&utm_campaign=yelp_api_v3&utm_medium=api_v3_business_search&utm_source=9gNmiWYX8uTbFBeTTvJMdA", "review_count": 29, "categories": [{"alias": "tapas", "title": "Tapas Bars"}, {"alias": "colombian", "title": "Colombian"}], "rating": 4.5, "coordinates": {"latitude": 40.75946, "longitude": -73.9921}, "transactions": ["delivery", "pickup"], "location": {"address1": "613 9th Ave", "address2": null, "address3": "", "city": "New York", "zip_code": "10036", "country": "US", "state": "NY", "display_address": ["613 9th Ave", "New York, NY 10036"]}, "phone": "+12125406613", "display_phone": "(212) 540-6613", "distance": 1907.3810644683172}, {"id": "M6XZ8IIOGmBfh79vk79Eqw", "alias": "tacombi-williamsburg-new-york-2", "name": "Tacombi", "image_url": "https://s3-media2.fl.yelpcdn.com/bphoto/nnXv7a3tWcbf8FvmKmG72Q/o.jpg", "is_closed": false, "url": "https://www.yelp.com/biz/tacombi-williamsburg-new-york-2?adjust_creative=9gNmiWYX8uTbFBeTTvJMdA&utm_campaign=yelp_api_v3&utm_medium=api_v3_business_search&utm_source=9gNmiWYX8uTbFBeTTvJMdA", "review_count": 130, "categories": [{"alias": "mexican", "title": "Mexican"}], "rating": 4.0, "coordinates": {"latitude": 40.714826088301294, "longitude": -73.95944510183506}, "transactions": ["delivery", "pickup"], "price": "$$", "location": {"address1": "242 Metropolitan Ave", "address2": null, "address3": "", "city": "Brooklyn", "zip_code": "11211", "country": "US", "state": "NY", "display_address": ["242 Metropolitan Ave", "Brooklyn, NY 11211"]}, "phone": "+17185993496", "display_phone": "(718) 599-3496", "distance": 5004.633570004165}, {"id": "uQ0kF3fiJFDm0oDVRaMBkw", "alias": "carla-long-island-city", "name": "Carla", "image_url": "https://s3-media4.fl.yelpcdn.com/bphoto/IFR1kaMlvWmVA-KTlO1wYw/o.jpg", "is_closed": false, "url": "https://www.yelp.com/biz/carla-long-island-city?adjust_creative=9gNmiWYX8uTbFBeTTvJMdA&utm_campaign=yelp_api_v3&utm_medium=api_v3_business_search&utm_source=9gNmiWYX8uTbFBeTTvJMdA", "review_count": 134, "categories": [{"alias": "newamerican", "title": "American (New)"}, {"alias": "burgers", "title": "Burgers"}, {"alias": "cocktailbars", "title": "Cocktail Bars"}], "rating": 4.5, "coordinates": {"latitude": 40.753517, "longitude": -73.937647}, "transactions": ["delivery"], "price": "$$", "location": {"address1": "25-03 40th Avenue", "address2": "", "address3": null, "city": "Long Island City", "zip_code": "11101", "country": "US", "state": "NY", "display_address": ["25-03 40th Avenue", "Long Island City, NY 11101"]}, "phone": "+19292046264", "display_phone": "(929) 204-6264", "distance": 2761.7856472947065}, {"id": "mWS4umRg2AyykyAClMrIRw", "alias": "the-penrose-new-york", "name": "The Penrose", "image_url": "https://s3-media4.fl.yelpcdn.com/bphoto/qNLV1pybDp4Elzp3Ci_gzQ/o.jpg", "is_closed": false, "url": "https://www.yelp.com/biz/the-penrose-new-york?adjust_creative=9gNmiWYX8uTbFBeTTvJMdA&utm_campaign=yelp_api_v3&utm_medium=api_v3_business_search&utm_source=9gNmiWYX8uTbFBeTTvJMdA", "review_count": 1421, "categories": [{"alias": "newamerican", "title": "American (New)"}, {"alias": "bars", "title": "Bars"}, {"alias": "breakfast_brunch", "title": "Breakfast & Brunch"}], "rating": 4.0, "coordinates": {"latitude": 40.775427, "longitude": -73.953115}, "transactions": ["delivery", "pickup"], "price": "$$", "location": {"address1": "1590 2nd Ave", "address2": "", "address3": "", "city": "New York", "zip_code": "10028", "country": "US", "state": "NY", "display_address": ["1590 2nd Ave", "New York, NY 10028"]}, "phone": "+12122032751", "display_phone": "(212) 203-2751", "distance": 2276.8878018201262}, {"id": "9JGdwVMF7MW452eGmCpnDw", "alias": "on-the-rocks-new-york-2", "name": "On The Rocks", "image_url": "https://s3-media1.fl.yelpcdn.com/bphoto/C_b0OKfd9En24w7JDrDz1g/o.jpg", "is_closed": false, "url": "https://www.yelp.com/biz/on-the-rocks-new-york-2?adjust_creative=9gNmiWYX8uTbFBeTTvJMdA&utm_campaign=yelp_api_v3&utm_medium=api_v3_business_search&utm_source=9gNmiWYX8uTbFBeTTvJMdA", "review_count": 290, "categories": [{"alias": "lounges", "title": "Lounges"}, {"alias": "whiskeybars", "title": "Whiskey Bars"}], "rating": 4.0, "coordinates": {"latitude": 40.76373, "longitude": -73.99212}, "transactions": [], "price": "$$$", "location": {"address1": "696 10th Ave", "address2": "", "address3": "", "city": "New York", "zip_code": "10019", "country": "US", "state": "NY", "display_address": ["696 10th Ave", "New York, NY 10019"]}, "phone": "+12122472055", "display_phone": "(212) 247-2055", "distance": 1960.53376692198}, {"id": "m8z1eTTetr-JbSM1HU2t6Q", "alias": "tacos-y-quesadillas-mexico-new-york-city-2", "name": "Tacos Y Quesadillas Mexico", "image_url": "https://s3-media1.fl.yelpcdn.com/bphoto/KfBcJ-tkDu3DVWwSpDgpsQ/o.jpg", "is_closed": false, "url": "https://www.yelp.com/biz/tacos-y-quesadillas-mexico-new-york-city-2?adjust_creative=9gNmiWYX8uTbFBeTTvJMdA&utm_campaign=yelp_api_v3&utm_medium=api_v3_business_search&utm_source=9gNmiWYX8uTbFBeTTvJMdA", "review_count": 50, "categories": [{"alias": "foodtrucks", "title": "Food Trucks"}, {"alias": "mexican", "title": "Mexican"}], "rating": 4.0, "coordinates": {"latitude": 40.7686908, "longitude": -73.9849574}, "transactions": ["delivery"], "price": "$", "location": {"address1": "924 9th Ave", "address2": "", "address3": "", "city": "New York City", "zip_code": "10019", "country": "US", "state": "NY", "display_address": ["924 9th Ave", "New York City, NY 10019"]}, "phone": "+13473036533", "display_phone": "(347) 303-6533", "distance": 1667.5387530458352}, {"id": "TlrkRdpXjSG-4RdabVD_PQ", "alias": "azteca-taqueria-restaurant-union-city", "name": "Azteca Taqueria Restaurant", "image_url": "https://s3-media4.fl.yelpcdn.com/bphoto/X6QVrNYEsmNpa7mDBw3QbA/o.jpg", "is_closed": false, "url": "https://www.yelp.com/biz/azteca-taqueria-restaurant-union-city?adjust_creative=9gNmiWYX8uTbFBeTTvJMdA&utm_campaign=yelp_api_v3&utm_medium=api_v3_business_search&utm_source=9gNmiWYX8uTbFBeTTvJMdA", "review_count": 13, "categories": [{"alias": "mexican", "title": "Mexican"}], "rating": 4.0, "coordinates": {"latitude": 40.7624358046918, "longitude": -74.041139075534}, "transactions": ["delivery", "pickup"], "location": {"address1": "1313 Summit Ave", "address2": "", "address3": null, "city": "Union City", "zip_code": "07087", "country": "US", "state": "NJ", "display_address": ["1313 Summit Ave", "Union City, NJ 07087"]}, "phone": "+12017514836", "display_phone": "(201) 751-4836", "distance": 6038.368048792975}, {"id": "UlDO0B-Km4md4ydftjfvaQ", "alias": "m\u00e9xology-long-island-city-2", "name": "M\u00c9Xology", "image_url": "https://s3-media2.fl.yelpcdn.com/bphoto/fF3l5V4Ytq7Z4lLI9aJkAg/o.jpg", "is_closed": false, "url": "https://www.yelp.com/biz/m%C3%A9xology-long-island-city-2?adjust_creative=9gNmiWYX8uTbFBeTTvJMdA&utm_campaign=yelp_api_v3&utm_medium=api_v3_business_search&utm_source=9gNmiWYX8uTbFBeTTvJMdA", "review_count": 16, "categories": [{"alias": "mexican", "title": "Mexican"}, {"alias": "food_court", "title": "Food Court"}], "rating": 4.0, "coordinates": {"latitude": 40.748981678811695, "longitude": -73.93874363738132}, "transactions": ["delivery", "pickup"], "location": {"address1": "28-17 Jackson Ave", "address2": "", "address3": null, "city": "Long Island City", "zip_code": "11101", "country": "US", "state": "NY", "display_address": ["28-17 Jackson Ave", "Long Island City, NY 11101"]}, "phone": "", "display_phone": "", "distance": 2833.4671727184327}, {"id": "by2g5iFuvQife99pHOuXDg", "alias": "antojitos-caseros-new-york", "name": "Antojitos Caseros", "image_url": "https://s3-media1.fl.yelpcdn.com/bphoto/F4nTedhsF1INfDZ7ODxcPg/o.jpg", "is_closed": false, "url": "https://www.yelp.com/biz/antojitos-caseros-new-york?adjust_creative=9gNmiWYX8uTbFBeTTvJMdA&utm_campaign=yelp_api_v3&utm_medium=api_v3_business_search&utm_source=9gNmiWYX8uTbFBeTTvJMdA", "review_count": 8, "categories": [{"alias": "mexican", "title": "Mexican"}, {"alias": "food_court", "title": "Food Court"}], "rating": 4.5, "coordinates": {"latitude": 40.754907, "longitude": -73.989615}, "transactions": ["delivery", "pickup"], "location": {"address1": "231 W 39th St", "address2": "", "address3": "The Deco", "city": "New York", "zip_code": "10018", "country": "US", "state": "NY", "display_address": ["231 W 39th St", "The Deco", "New York, NY 10018"]}, "phone": "+16469931650", "display_phone": "(646) 993-1650", "distance": 1745.5839217751254}, {"id": "2ewrI499NSsA1sNX30K5Dg", "alias": "lunera-latin-fusion-restaurant-bar-astoria-2", "name": "Lunera Latin Fusion Restaurant Bar", "image_url": "https://s3-media2.fl.yelpcdn.com/bphoto/8ZrRc3NJv1kt8N1p72r70w/o.jpg", "is_closed": false, "url": "https://www.yelp.com/biz/lunera-latin-fusion-restaurant-bar-astoria-2?adjust_creative=9gNmiWYX8uTbFBeTTvJMdA&utm_campaign=yelp_api_v3&utm_medium=api_v3_business_search&utm_source=9gNmiWYX8uTbFBeTTvJMdA", "review_count": 142, "categories": [{"alias": "latin", "title": "Latin American"}, {"alias": "newmexican", "title": "New Mexican Cuisine"}], "rating": 4.0, "coordinates": {"latitude": 40.7582236, "longitude": -73.9194022}, "transactions": ["delivery", "pickup"], "price": "$$", "location": {"address1": "3225 Steinway St", "address2": "", "address3": null, "city": "Astoria", "zip_code": "11103", "country": "US", "state": "NY", "display_address": ["3225 Steinway St", "Astoria, NY 11103"]}, "phone": "+17187269857", "display_phone": "(718) 726-9857", "distance": 4243.319238922674}, {"id": "wTCR-EUTLX4UoPUPdxWVJg", "alias": "blend-long-island-city", "name": "Blend", "image_url": "https://s3-media3.fl.yelpcdn.com/bphoto/LoR9NgbAfK4GyUQFZ6LG7Q/o.jpg", "is_closed": false, "url": "https://www.yelp.com/biz/blend-long-island-city?adjust_creative=9gNmiWYX8uTbFBeTTvJMdA&utm_campaign=yelp_api_v3&utm_medium=api_v3_business_search&utm_source=9gNmiWYX8uTbFBeTTvJMdA", "review_count": 965, "categories": [{"alias": "latin", "title": "Latin American"}], "rating": 4.0, "coordinates": {"latitude": 40.745501252327045, "longitude": -73.9534122021161}, "transactions": ["delivery", "pickup"], "price": "$$", "location": {"address1": "47-04 Vernon Blvd", "address2": "", "address3": "", "city": "Long Island City", "zip_code": "11101", "country": "US", "state": "NY", "display_address": ["47-04 Vernon Blvd", "Long Island City, NY 11101"]}, "phone": "+17187292800", "display_phone": "(718) 729-2800", "distance": 2040.8362512411081}, {"id": "72XqORJ2G4o_WdcMdXGExw", "alias": "taqueria-el-patron-ridgewood", "name": "Taqueria El Patron", "image_url": "https://s3-media2.fl.yelpcdn.com/bphoto/mfml2847oUP3chu_y2pq0g/o.jpg", "is_closed": false, "url": "https://www.yelp.com/biz/taqueria-el-patron-ridgewood?adjust_creative=9gNmiWYX8uTbFBeTTvJMdA&utm_campaign=yelp_api_v3&utm_medium=api_v3_business_search&utm_source=9gNmiWYX8uTbFBeTTvJMdA", "review_count": 9, "categories": [{"alias": "mexican", "title": "Mexican"}], "rating": 4.5, "coordinates": {"latitude": 40.69894306943124, "longitude": -73.9091145}, "transactions": ["delivery", "pickup"], "location": {"address1": "1612 Madison St", "address2": "", "address3": null, "city": "Ridgewood", "zip_code": "11385", "country": "US", "state": "NY", "display_address": ["1612 Madison St", "Ridgewood, NY 11385"]}, "phone": "+17183812332", "display_phone": "(718) 381-2332", "distance": 8414.877192378672}, {"id": "UmFhqdkv1cgUifxSP5KN9Q", "alias": "el-mole-poblano-union-city", "name": "El Mole Poblano", "image_url": "https://s3-media2.fl.yelpcdn.com/bphoto/9DIDQQn3Q6_WXEoko_xNXQ/o.jpg", "is_closed": false, "url": "https://www.yelp.com/biz/el-mole-poblano-union-city?adjust_creative=9gNmiWYX8uTbFBeTTvJMdA&utm_campaign=yelp_api_v3&utm_medium=api_v3_business_search&utm_source=9gNmiWYX8uTbFBeTTvJMdA", "review_count": 13, "categories": [{"alias": "mexican", "title": "Mexican"}], "rating": 3.5, "coordinates": {"latitude": 40.77794, "longitude": -74.02301}, "transactions": ["delivery"], "price": "$", "location": {"address1": "4316 New York Ave", "address2": null, "address3": null, "city": "Union City", "zip_code": "07087", "country": "US", "state": "NJ", "display_address": ["4316 New York Ave", "Union City, NJ 07087"]}, "phone": "+12016010202", "display_phone": "(201) 601-0202", "distance": 4962.1651064868975}, {"id": "rrL05CECQO4sQXCc5BF90g", "alias": "mercado-little-spain-new-york", "name": "Mercado Little Spain", "image_url": "https://s3-media4.fl.yelpcdn.com/bphoto/Y04odfwTGpf_Wm284gBBbA/o.jpg", "is_closed": false, "url": "https://www.yelp.com/biz/mercado-little-spain-new-york?adjust_creative=9gNmiWYX8uTbFBeTTvJMdA&utm_campaign=yelp_api_v3&utm_medium=api_v3_business_search&utm_source=9gNmiWYX8uTbFBeTTvJMdA", "review_count": 515, "categories": [{"alias": "spanish", "title": "Spanish"}], "rating": 3.5, "coordinates": {"latitude": 40.752435, "longitude": -74.001475}, "transactions": [], "price": "$$", "location": {"address1": "10 Hudson Yards", "address2": null, "address3": null, "city": "New York", "zip_code": "10001", "country": "US", "state": "NY", "display_address": ["10 Hudson Yards", "New York, NY 10001"]}, "phone": "+16464951242", "display_phone": "(646) 495-1242", "distance": 2789.5724028272475}, {"id": "rwr5mV9UfDu1IqpAvgfP8Q", "alias": "dulce-cultura-astoria", "name": "Dulce Cultura", "image_url": "https://s3-media3.fl.yelpcdn.com/bphoto/4d7QESUCVjrQHdqCdiltdw/o.jpg", "is_closed": false, "url": "https://www.yelp.com/biz/dulce-cultura-astoria?adjust_creative=9gNmiWYX8uTbFBeTTvJMdA&utm_campaign=yelp_api_v3&utm_medium=api_v3_business_search&utm_source=9gNmiWYX8uTbFBeTTvJMdA", "review_count": 47, "categories": [{"alias": "mexican", "title": "Mexican"}, {"alias": "breakfast_brunch", "title": "Breakfast & Brunch"}, {"alias": "bars", "title": "Bars"}], "rating": 4.5, "coordinates": {"latitude": 40.7603126, "longitude": -73.9152853}, "transactions": ["delivery", "pickup"], "price": "$$", "location": {"address1": "4220 31st Ave", "address2": "", "address3": null, "city": "Astoria", "zip_code": "11103", "country": "US", "state": "NY", "display_address": ["4220 31st Ave", "Astoria, NY 11103"]}, "phone": "+19148298801", "display_phone": "(914) 829-8801", "distance": 4604.0228179601745}, {"id": "yvva7IYpD6J7OfKlCdQrkw", "alias": "mi-espiguita-taqueria-astoria", "name": "Mi Espiguita Taqueria", "image_url": "https://s3-media2.fl.yelpcdn.com/bphoto/8opIyE4AL8CUDZ1k3Lr3eQ/o.jpg", "is_closed": false, "url": "https://www.yelp.com/biz/mi-espiguita-taqueria-astoria?adjust_creative=9gNmiWYX8uTbFBeTTvJMdA&utm_campaign=yelp_api_v3&utm_medium=api_v3_business_search&utm_source=9gNmiWYX8uTbFBeTTvJMdA", "review_count": 143, "categories": [{"alias": "mexican", "title": "Mexican"}], "rating": 4.5, "coordinates": {"latitude": 40.7612033639422, "longitude": -73.9261436462402}, "transactions": ["delivery", "pickup"], "price": "$", "location": {"address1": "32-44 31st St", "address2": "", "address3": "", "city": "Astoria", "zip_code": "11106", "country": "US", "state": "NY", "display_address": ["32-44 31st St", "Astoria, NY 11106"]}, "phone": "+17187775648", "display_phone": "(718) 777-5648", "distance": 3664.84131594734}, {"id": "xeICCQ8llekCiKRfuSiVjA", "alias": "las-margaritas-new-york-2", "name": "Las Margaritas", "image_url": "https://s3-media3.fl.yelpcdn.com/bphoto/gGPI7--GzE5ETkpfl9WScg/o.jpg", "is_closed": false, "url": "https://www.yelp.com/biz/las-margaritas-new-york-2?adjust_creative=9gNmiWYX8uTbFBeTTvJMdA&utm_campaign=yelp_api_v3&utm_medium=api_v3_business_search&utm_source=9gNmiWYX8uTbFBeTTvJMdA", "review_count": 3, "categories": [{"alias": "bars", "title": "Bars"}, {"alias": "mexican", "title": "Mexican"}], "rating": 5.0, "coordinates": {"latitude": 40.76349, "longitude": -73.90893}, "transactions": ["delivery", "pickup"], "location": {"address1": "45-17 28th Ave", "address2": "Ste 1", "address3": "", "city": "New York", "zip_code": "11103", "country": "US", "state": "NY", "display_address": ["45-17 28th Ave", "Ste 1", "New York, NY 11103"]}, "phone": "+17182743030", "display_phone": "(718) 274-3030", "distance": 5123.88761737752}, {"id": "z5hRX3iJ5Ty_S38iG_WY3Q", "alias": "tanner-smiths-new-york-2", "name": "Tanner Smiths", "image_url": "https://s3-media1.fl.yelpcdn.com/bphoto/_8De6inpKyaSv9_poyH-UQ/o.jpg", "is_closed": false, "url": "https://www.yelp.com/biz/tanner-smiths-new-york-2?adjust_creative=9gNmiWYX8uTbFBeTTvJMdA&utm_campaign=yelp_api_v3&utm_medium=api_v3_business_search&utm_source=9gNmiWYX8uTbFBeTTvJMdA", "review_count": 1993, "categories": [{"alias": "cocktailbars", "title": "Cocktail Bars"}, {"alias": "newamerican", "title": "American (New)"}, {"alias": "beerbar", "title": "Beer Bar"}], "rating": 4.5, "coordinates": {"latitude": 40.76442, "longitude": -73.98169}, "transactions": ["delivery", "pickup"], "price": "$$", "location": {"address1": "204 W 55th St", "address2": "", "address3": "", "city": "New York", "zip_code": "10019", "country": "US", "state": "NY", "display_address": ["204 W 55th St", "New York, NY 10019"]}, "phone": "+16465902034", "display_phone": "(646) 590-2034", "distance": 1166.6731486717879}, {"id": "-a5EfIQzUrb1pnMQpsvslw", "alias": "lolitas-mexican-cantina-north-bergen-north-bergen", "name": "Lolita's Mexican Cantina - North Bergen", "image_url": "https://s3-media2.fl.yelpcdn.com/bphoto/nkGcfdtFZ9HtxKpOWZE0IA/o.jpg", "is_closed": false, "url": "https://www.yelp.com/biz/lolitas-mexican-cantina-north-bergen-north-bergen?adjust_creative=9gNmiWYX8uTbFBeTTvJMdA&utm_campaign=yelp_api_v3&utm_medium=api_v3_business_search&utm_source=9gNmiWYX8uTbFBeTTvJMdA", "review_count": 592, "categories": [{"alias": "latin", "title": "Latin American"}, {"alias": "lounges", "title": "Lounges"}, {"alias": "mexican", "title": "Mexican"}], "rating": 3.5, "coordinates": {"latitude": 40.80402, "longitude": -73.99376}, "transactions": ["delivery", "restaurant_reservation", "pickup"], "price": "$$", "location": {"address1": "8809 River Rd", "address2": "", "address3": "", "city": "North Bergen", "zip_code": "07047", "country": "US", "state": "NJ", "display_address": ["8809 River Rd", "North Bergen, NJ 07047"]}, "phone": "+12019436366", "display_phone": "(201) 943-6366", "distance": 5380.384631801864}, {"id": "KzJYO3-2k9XJhOHVpXayZQ", "alias": "empell\u00f3n-al-pastor-east-village-new-york", "name": "Empell\u00f3n Al Pastor East Village", "image_url": "https://s3-media2.fl.yelpcdn.com/bphoto/5A6J1opK6WjDyjBaPHmGYA/o.jpg", "is_closed": false, "url": "https://www.yelp.com/biz/empell%C3%B3n-al-pastor-east-village-new-york?adjust_creative=9gNmiWYX8uTbFBeTTvJMdA&utm_campaign=yelp_api_v3&utm_medium=api_v3_business_search&utm_source=9gNmiWYX8uTbFBeTTvJMdA", "review_count": 286, "categories": [{"alias": "mexican", "title": "Mexican"}, {"alias": "venues", "title": "Venues & Event Spaces"}, {"alias": "cocktailbars", "title": "Cocktail Bars"}], "rating": 3.5, "coordinates": {"latitude": 40.72668, "longitude": -73.98336}, "transactions": ["delivery", "pickup"], "price": "$$", "location": {"address1": "132 St Marks Pl", "address2": "", "address3": "", "city": "New York", "zip_code": "10009", "country": "US", "state": "NY", "display_address": ["132 St Marks Pl", "New York, NY 10009"]}, "phone": "+16468337039", "display_phone": "(646) 833-7039", "distance": 3793.39806719205}, {"id": "m9zYRZFubncaWsQFIfNo5g", "alias": "loulou-petit-bistro-and-speakeasy-new-york", "name": "Loulou Petit Bistro & Speakeasy", "image_url": "https://s3-media1.fl.yelpcdn.com/bphoto/fJZ_Pwv4OfSc96kfrKZjUQ/o.jpg", "is_closed": false, "url": "https://www.yelp.com/biz/loulou-petit-bistro-and-speakeasy-new-york?adjust_creative=9gNmiWYX8uTbFBeTTvJMdA&utm_campaign=yelp_api_v3&utm_medium=api_v3_business_search&utm_source=9gNmiWYX8uTbFBeTTvJMdA", "review_count": 449, "categories": [{"alias": "french", "title": "French"}, {"alias": "cocktailbars", "title": "Cocktail Bars"}], "rating": 4.0, "coordinates": {"latitude": 40.742627091934104, "longitude": -74.00005776653397}, "transactions": ["delivery", "pickup"], "price": "$$", "location": {"address1": "176 8th Ave", "address2": "", "address3": null, "city": "New York", "zip_code": "10011", "country": "US", "state": "NY", "display_address": ["176 8th Ave", "New York, NY 10011"]}, "phone": "+12123379577", "display_phone": "(212) 337-9577", "distance": 3159.0219739917884}, {"id": "WSjhU85kBSvidxDJaBTV1g", "alias": "chinelos-tacos-nyc-queens", "name": "Chinelos Tacos NYC", "image_url": "https://s3-media2.fl.yelpcdn.com/bphoto/eLsYLBdIsUU9RPQ-UezJLA/o.jpg", "is_closed": false, "url": "https://www.yelp.com/biz/chinelos-tacos-nyc-queens?adjust_creative=9gNmiWYX8uTbFBeTTvJMdA&utm_campaign=yelp_api_v3&utm_medium=api_v3_business_search&utm_source=9gNmiWYX8uTbFBeTTvJMdA", "review_count": 70, "categories": [{"alias": "foodtrucks", "title": "Food Trucks"}, {"alias": "mexican", "title": "Mexican"}], "rating": 4.5, "coordinates": {"latitude": 40.7423518016186, "longitude": -73.9599615129021}, "transactions": [], "location": {"address1": "4-09 Center Blvd", "address2": "", "address3": null, "city": "Queens", "zip_code": "11101", "country": "US", "state": "NY", "display_address": ["4-09 Center Blvd", "Queens, NY 11101"]}, "phone": "+19178199066", "display_phone": "(917) 819-9066", "distance": 1892.7685972003972}, {"id": "Y8ZCMr7vNMspTjEi6VWgxA", "alias": "taco-mahal-new-york-4", "name": "Taco Mahal", "image_url": "https://s3-media1.fl.yelpcdn.com/bphoto/LZ89ybCVmhNw-P7ucoU-0Q/o.jpg", "is_closed": false, "url": "https://www.yelp.com/biz/taco-mahal-new-york-4?adjust_creative=9gNmiWYX8uTbFBeTTvJMdA&utm_campaign=yelp_api_v3&utm_medium=api_v3_business_search&utm_source=9gNmiWYX8uTbFBeTTvJMdA", "review_count": 92, "categories": [{"alias": "indpak", "title": "Indian"}, {"alias": "tacos", "title": "Tacos"}], "rating": 4.0, "coordinates": {"latitude": 40.76091684980952, "longitude": -73.9912468}, "transactions": ["delivery", "pickup"], "price": "$$", "location": {"address1": "653 9th Ave", "address2": "", "address3": null, "city": "New York", "zip_code": "10036", "country": "US", "state": "NY", "display_address": ["653 9th Ave", "New York, NY 10036"]}, "phone": "+16464905782", "display_phone": "(646) 490-5782", "distance": 1835.6344802598237}, {"id": "G92jSUckfs4MhD6bGPyHow", "alias": "taqueria-diana-brooklyn", "name": "Taqueria Diana", "image_url": "https://s3-media3.fl.yelpcdn.com/bphoto/KvlOQBl6AWbd6iRMVLpb2Q/o.jpg", "is_closed": false, "url": "https://www.yelp.com/biz/taqueria-diana-brooklyn?adjust_creative=9gNmiWYX8uTbFBeTTvJMdA&utm_campaign=yelp_api_v3&utm_medium=api_v3_business_search&utm_source=9gNmiWYX8uTbFBeTTvJMdA", "review_count": 92, "categories": [{"alias": "mexican", "title": "Mexican"}, {"alias": "bars", "title": "Bars"}], "rating": 4.0, "coordinates": {"latitude": 40.7142179690191, "longitude": -73.9556609}, "transactions": ["delivery", "pickup"], "price": "$$", "location": {"address1": "367 Metropolitan Ave", "address2": "", "address3": null, "city": "Brooklyn", "zip_code": "11211", "country": "US", "state": "NY", "display_address": ["367 Metropolitan Ave", "Brooklyn, NY 11211"]}, "phone": "+19292502460", "display_phone": "(929) 250-2460", "distance": 5134.558336583822}, {"id": "KyOtOluTH8c8SICpf85thg", "alias": "mesa-azteca-brooklyn", "name": "Mesa Azteca", "image_url": "https://s3-media4.fl.yelpcdn.com/bphoto/livGAjf1LmL1DAnRhsGGEg/o.jpg", "is_closed": false, "url": "https://www.yelp.com/biz/mesa-azteca-brooklyn?adjust_creative=9gNmiWYX8uTbFBeTTvJMdA&utm_campaign=yelp_api_v3&utm_medium=api_v3_business_search&utm_source=9gNmiWYX8uTbFBeTTvJMdA", "review_count": 298, "categories": [{"alias": "mexican", "title": "Mexican"}], "rating": 4.0, "coordinates": {"latitude": 40.70506, "longitude": -73.92022}, "transactions": ["delivery", "pickup"], "price": "$$", "location": {"address1": "91 Wyckoff Ave", "address2": "", "address3": "", "city": "Brooklyn", "zip_code": "11237", "country": "US", "state": "NY", "display_address": ["91 Wyckoff Ave", "Brooklyn, NY 11237"]}, "phone": "+13473782838", "display_phone": "(347) 378-2838", "distance": 7312.972225915035}, {"id": "tk5cnLJDAlUmX_ZYBGzw1w", "alias": "tacos-y-quesadillas-new-york-2", "name": "Tacos y quesadillas", "image_url": "https://s3-media2.fl.yelpcdn.com/bphoto/TmqydOdm4zEb8A5yIyQqaA/o.jpg", "is_closed": false, "url": "https://www.yelp.com/biz/tacos-y-quesadillas-new-york-2?adjust_creative=9gNmiWYX8uTbFBeTTvJMdA&utm_campaign=yelp_api_v3&utm_medium=api_v3_business_search&utm_source=9gNmiWYX8uTbFBeTTvJMdA", "review_count": 22, "categories": [{"alias": "foodtrucks", "title": "Food Trucks"}, {"alias": "tacos", "title": "Tacos"}], "rating": 4.5, "coordinates": {"latitude": 40.77993, "longitude": -73.95546}, "transactions": [], "price": "$", "location": {"address1": "1280 Lexington Ave", "address2": "", "address3": null, "city": "New York", "zip_code": "10028", "country": "US", "state": "NY", "display_address": ["1280 Lexington Ave", "New York, NY 10028"]}, "phone": "", "display_phone": "", "distance": 2595.962296688462}, {"id": "3DNtS1_3gobrYQBAwDx4DA", "alias": "calexico-greenpoint-brooklyn-2", "name": "Calexico - Greenpoint", "image_url": "https://s3-media4.fl.yelpcdn.com/bphoto/T7GgtUaYCRgSp_t6F6o_qA/o.jpg", "is_closed": false, "url": "https://www.yelp.com/biz/calexico-greenpoint-brooklyn-2?adjust_creative=9gNmiWYX8uTbFBeTTvJMdA&utm_campaign=yelp_api_v3&utm_medium=api_v3_business_search&utm_source=9gNmiWYX8uTbFBeTTvJMdA", "review_count": 753, "categories": [{"alias": "mexican", "title": "Mexican"}, {"alias": "salad", "title": "Salad"}, {"alias": "breakfast_brunch", "title": "Breakfast & Brunch"}], "rating": 3.5, "coordinates": {"latitude": 40.72416, "longitude": -73.95132}, "transactions": ["delivery", "pickup"], "price": "$$", "location": {"address1": "645 Manhattan Ave", "address2": "", "address3": "", "city": "Brooklyn", "zip_code": "11222", "country": "US", "state": "NY", "display_address": ["645 Manhattan Ave", "Brooklyn, NY 11222"]}, "phone": "+13477632129", "display_phone": "(347) 763-2129", "distance": 4185.199977559073}], "total": 4800, "region": {"center": {"longitude": -73.96957397460938, "latitude": 40.75917470627005}}}