{"businesses": [{"id": "x4W0rufd01dP8ieMhlTqmQ", "alias": "dos-toros-taqueria-new-york-29", "name": "Dos Toros Taqueria", "image_url": "https://s3-media4.fl.yelpcdn.com/bphoto/esSCkUuyn5w-6_9IUyzUXA/o.jpg", "is_closed": false, "url": "https://www.yelp.com/biz/dos-toros-taqueria-new-york-29?adjust_creative=9gNmiWYX8uTbFBeTTvJMdA&utm_campaign=yelp_api_v3&utm_medium=api_v3_business_search&utm_source=9gNmiWYX8uTbFBeTTvJMdA", "review_count": 69, "categories": [{"alias": "mexican", "title": "Mexican"}], "rating": 3.5, "coordinates": {"latitude": 40.7413, "longitude": -73.99359}, "transactions": ["pickup", "delivery"], "price": "$$", "location": {"address1": "668 6th Ave", "address2": "", "address3": null, "city": "New York", "zip_code": "10010", "country": "US", "state": "NY", "display_address": ["668 6th Ave", "New York, NY 10010"]}, "phone": "+19293420955", "display_phone": "(929) 342-0955", "distance": 2837.6754793013206}, {"id": "nRO136GRieGtxz18uD61DA", "alias": "eleven-madison-park-new-york", "name": "Eleven Madison Park", "image_url": "https://s3-media1.fl.yelpcdn.com/bphoto/s_H7gm_Hwmz--O6bo1iU-A/o.jpg", "is_closed": false, "url": "https://www.yelp.com/biz/eleven-madison-park-new-york?adjust_creative=9gNmiWYX8uTbFBeTTvJMdA&utm_campaign=yelp_api_v3&utm_medium=api_v3_business_search&utm_source=9gNmiWYX8uTbFBeTTvJMdA", "review_count": 2374, "categories": [{"alias": "newamerican", "title": "American (New)"}, {"alias": "french", "title": "French"}, {"alias": "cocktailbars", "title": "Cocktail Bars"}], "rating": 4.5, "coordinates": {"latitude": 40.7416907417333, "longitude": -73.9872074872255}, "transactions": [], "price": "$$$$", "location": {"address1": "11 Madison Ave", "address2": "", "address3": "", "city": "New York", "zip_code": "10010", "country": "US", "state": "NY", "display_address": ["11 Madison Ave", "New York, NY 10010"]}, "phone": "+12128890905", "display_phone": "(212) 889-0905", "distance": 2446.632014525005}, {"id": "9fG8-RRh1rzuCKN2TmF-QQ", "alias": "5ive-spice-new-york-2", "name": "5ive Spice", "image_url": "https://s3-media1.fl.yelpcdn.com/bphoto/Wb_tBXJVLhzwhvwLssnD5A/o.jpg", "is_closed": false, "url": "https://www.yelp.com/biz/5ive-spice-new-york-2?adjust_creative=9gNmiWYX8uTbFBeTTvJMdA&utm_campaign=yelp_api_v3&utm_medium=api_v3_business_search&utm_source=9gNmiWYX8uTbFBeTTvJMdA", "review_count": 651, "categories": [{"alias": "vietnamese", "title": "Vietnamese"}, {"alias": "tacos", "title": "Tacos"}, {"alias": "sandwiches", "title": "Sandwiches"}], "rating": 4.5, "coordinates": {"latitude": 40.722598, "longitude": -73.996272}, "transactions": ["pickup", "delivery"], "price": "$$", "location": {"address1": "227 Mulberry St", "address2": null, "address3": "", "city": "New York", "zip_code": "10012", "country": "US", "state": "NY", "display_address": ["227 Mulberry St", "New York, NY 10012"]}, "phone": "+19174092605", "display_phone": "(917) 409-2605", "distance": 4642.6240572133565}, {"id": "bNPYPLuCjnRvRuL56otJiw", "alias": "don-tequila-urban-cantina-glendale", "name": "Don Tequila Urban Cantina", "image_url": "https://s3-media2.fl.yelpcdn.com/bphoto/aS7aDpdB003AaiVFtFjojg/o.jpg", "is_closed": false, "url": "https://www.yelp.com/biz/don-tequila-urban-cantina-glendale?adjust_creative=9gNmiWYX8uTbFBeTTvJMdA&utm_campaign=yelp_api_v3&utm_medium=api_v3_business_search&utm_source=9gNmiWYX8uTbFBeTTvJMdA", "review_count": 394, "categories": [{"alias": "mexican", "title": "Mexican"}, {"alias": "cocktailbars", "title": "Cocktail Bars"}], "rating": 4.0, "coordinates": {"latitude": 40.7022312, "longitude": -73.8557038083673}, "transactions": ["pickup", "delivery"], "price": "$$", "location": {"address1": "83-38 Woodhaven Blvd", "address2": "", "address3": null, "city": "Glendale", "zip_code": "11385", "country": "US", "state": "NY", "display_address": ["83-38 Woodhaven Blvd", "Glendale, NY 11385"]}, "phone": "+19173006556", "display_phone": "(917) 300-6556", "distance": 11495.824712413605}, {"id": "8_NilECM6qg_L7WYb25uNw", "alias": "luchadores-new-york", "name": "Luchadores", "image_url": "https://s3-media2.fl.yelpcdn.com/bphoto/msMvfv7V-0dPzBWwsTqNdw/o.jpg", "is_closed": false, "url": "https://www.yelp.com/biz/luchadores-new-york?adjust_creative=9gNmiWYX8uTbFBeTTvJMdA&utm_campaign=yelp_api_v3&utm_medium=api_v3_business_search&utm_source=9gNmiWYX8uTbFBeTTvJMdA", "review_count": 130, "categories": [{"alias": "mexican", "title": "Mexican"}], "rating": 4.0, "coordinates": {"latitude": 40.70582, "longitude": -74.00411}, "transactions": ["pickup", "delivery"], "price": "$$", "location": {"address1": "87 South St", "address2": "", "address3": null, "city": "New York", "zip_code": "10038", "country": "US", "state": "NY", "display_address": ["87 South St", "New York, NY 10038"]}, "phone": "+19174093033", "display_phone": "(917) 409-3033", "distance": 6604.9129591216315}, {"id": "O-n0wC7S1klkEsapuxhO_Q", "alias": "ensenada-brooklyn", "name": "Ensenada", "image_url": "https://s3-media2.fl.yelpcdn.com/bphoto/Q7wmJXsHWiEek5JhoOoncQ/o.jpg", "is_closed": false, "url": "https://www.yelp.com/biz/ensenada-brooklyn?adjust_creative=9gNmiWYX8uTbFBeTTvJMdA&utm_campaign=yelp_api_v3&utm_medium=api_v3_business_search&utm_source=9gNmiWYX8uTbFBeTTvJMdA", "review_count": 14, "categories": [{"alias": "mexican", "title": "Mexican"}], "rating": 4.0, "coordinates": {"latitude": 40.7105293956958, "longitude": -73.95418263068801}, "transactions": [], "location": {"address1": "168 Borinquen Pl", "address2": "", "address3": null, "city": "Brooklyn", "zip_code": "11211", "country": "US", "state": "NY", "display_address": ["168 Borinquen Pl", "Brooklyn, NY 11211"]}, "phone": "+13473350838", "display_phone": "(347) 335-0838", "distance": 5562.388673294661}, {"id": "IpBG_nY_opO9Zy-xNBEQCg", "alias": "la-chilaquer\u00eda-new-york-new-york", "name": "La Chilaquer\u00eda - New York", "image_url": "https://s3-media2.fl.yelpcdn.com/bphoto/y5FthxW0fd6HF1Qd6aWpfw/o.jpg", "is_closed": false, "url": "https://www.yelp.com/biz/la-chilaquer%C3%ADa-new-york-new-york?adjust_creative=9gNmiWYX8uTbFBeTTvJMdA&utm_campaign=yelp_api_v3&utm_medium=api_v3_business_search&utm_source=9gNmiWYX8uTbFBeTTvJMdA", "review_count": 40, "categories": [{"alias": "mexican", "title": "Mexican"}, {"alias": "cafes", "title": "Cafes"}], "rating": 5.0, "coordinates": {"latitude": 40.746995, "longitude": -73.992207}, "transactions": [], "location": {"address1": "139 W 28th St", "address2": null, "address3": "", "city": "New York", "zip_code": "10001", "country": "US", "state": "NY", "display_address": ["139 W 28th St", "New York, NY 10001"]}, "phone": "+19173883823", "display_phone": "(917) 388-3823", "distance": 2337.6437625864946}, {"id": "zb45GcwBARV0DndrwAr-9A", "alias": "riviera-maya-mexican-cuisine-bogota", "name": "Riviera Maya Mexican Cuisine", "image_url": "https://s3-media2.fl.yelpcdn.com/bphoto/0zqTlbuvKpVzmSWdV4dwtQ/o.jpg", "is_closed": false, "url": "https://www.yelp.com/biz/riviera-maya-mexican-cuisine-bogota?adjust_creative=9gNmiWYX8uTbFBeTTvJMdA&utm_campaign=yelp_api_v3&utm_medium=api_v3_business_search&utm_source=9gNmiWYX8uTbFBeTTvJMdA", "review_count": 318, "categories": [{"alias": "mexican", "title": "Mexican"}], "rating": 4.0, "coordinates": {"latitude": 40.8725881057144, "longitude": -74.0205895900726}, "transactions": ["pickup", "delivery"], "price": "$$", "location": {"address1": "252 E Fort Lee Rd", "address2": "", "address3": "", "city": "Bogota", "zip_code": "07603", "country": "US", "state": "NJ", "display_address": ["252 E Fort Lee Rd", "Bogota, NJ 07603"]}, "phone": "+12019961380", "display_phone": "(201) 996-1380", "distance": 13321.711831241257}, {"id": "lafWfNQ-8GKhyeDFGmqMuA", "alias": "la-catrina-de-luis-queens", "name": "La Catrina de Luis", "image_url": "https://s3-media3.fl.yelpcdn.com/bphoto/mRLyECmGnVqJncTuipJxWg/o.jpg", "is_closed": false, "url": "https://www.yelp.com/biz/la-catrina-de-luis-queens?adjust_creative=9gNmiWYX8uTbFBeTTvJMdA&utm_campaign=yelp_api_v3&utm_medium=api_v3_business_search&utm_source=9gNmiWYX8uTbFBeTTvJMdA", "review_count": 5, "categories": [{"alias": "mexican", "title": "Mexican"}, {"alias": "salad", "title": "Salad"}, {"alias": "burgers", "title": "Burgers"}], "rating": 4.0, "coordinates": {"latitude": 40.7399129, "longitude": -73.923771}, "transactions": ["pickup", "delivery"], "location": {"address1": "4108 Greenpoint Ave", "address2": "", "address3": null, "city": "Queens", "zip_code": "11104", "country": "US", "state": "NY", "display_address": ["4108 Greenpoint Ave", "Queens, NY 11104"]}, "phone": "+17187864646", "display_phone": "(718) 786-4646", "distance": 4416.635317267004}, {"id": "GlDkm0Pd0Oe_uurhlKM1XQ", "alias": "chirp-new-york-3", "name": "Chirp", "image_url": "https://s3-media4.fl.yelpcdn.com/bphoto/WmyJ8spUKlLPuY43IxSq1A/o.jpg", "is_closed": false, "url": "https://www.yelp.com/biz/chirp-new-york-3?adjust_creative=9gNmiWYX8uTbFBeTTvJMdA&utm_campaign=yelp_api_v3&utm_medium=api_v3_business_search&utm_source=9gNmiWYX8uTbFBeTTvJMdA", "review_count": 195, "categories": [{"alias": "peruvian", "title": "Peruvian"}, {"alias": "latin", "title": "Latin American"}, {"alias": "hotdogs", "title": "Fast Food"}], "rating": 4.5, "coordinates": {"latitude": 40.75339, "longitude": -73.99591}, "transactions": ["pickup", "delivery"], "price": "$$", "location": {"address1": "369 W 34th St", "address2": "", "address3": null, "city": "New York", "zip_code": "10001", "country": "US", "state": "NY", "display_address": ["369 W 34th St", "New York, NY 10001"]}, "phone": "+16468581788", "display_phone": "(646) 858-1788", "distance": 2307.57986907483}, {"id": "AlZYxW1hQ3S2sGbtNjo64w", "alias": "cibar-new-york", "name": "Cibar", "image_url": "https://s3-media2.fl.yelpcdn.com/bphoto/iLqFm1fvg9bMRfCQCKh84w/o.jpg", "is_closed": false, "url": "https://www.yelp.com/biz/cibar-new-york?adjust_creative=9gNmiWYX8uTbFBeTTvJMdA&utm_campaign=yelp_api_v3&utm_medium=api_v3_business_search&utm_source=9gNmiWYX8uTbFBeTTvJMdA", "review_count": 333, "categories": [{"alias": "lounges", "title": "Lounges"}], "rating": 4.0, "coordinates": {"latitude": 40.73596, "longitude": -73.98696}, "transactions": ["pickup", "delivery", "restaurant_reservation"], "price": "$$$", "location": {"address1": "56 Irving Pl", "address2": "", "address3": "", "city": "New York", "zip_code": "10003", "country": "US", "state": "NY", "display_address": ["56 Irving Pl", "New York, NY 10003"]}, "phone": "+12124605656", "display_phone": "(212) 460-5656", "distance": 2973.913975925356}, {"id": "b_3yI7FXcIle71lD9Tulww", "alias": "guajillo-new-york", "name": "Guajillo", "image_url": "https://s3-media3.fl.yelpcdn.com/bphoto/DtXu5gHP-RLBAf9olkM6eQ/o.jpg", "is_closed": false, "url": "https://www.yelp.com/biz/guajillo-new-york?adjust_creative=9gNmiWYX8uTbFBeTTvJMdA&utm_campaign=yelp_api_v3&utm_medium=api_v3_business_search&utm_source=9gNmiWYX8uTbFBeTTvJMdA", "review_count": 57, "categories": [{"alias": "mexican", "title": "Mexican"}], "rating": 4.5, "coordinates": {"latitude": 40.7967861606349, "longitude": -73.934840150695}, "transactions": ["pickup", "delivery"], "price": "$$", "location": {"address1": "2277 1st Ave", "address2": "", "address3": "", "city": "New York", "zip_code": "10035", "country": "US", "state": "NY", "display_address": ["2277 1st Ave", "New York, NY 10035"]}, "phone": "+16469129971", "display_phone": "(646) 912-9971", "distance": 5103.368351375458}, {"id": "PWFK0nvJ23Xkk_B4C5Q4Aw", "alias": "factory-tamal-new-york-4", "name": "Factory Tamal", "image_url": "https://s3-media1.fl.yelpcdn.com/bphoto/4tRwx-gWFxvyDUb2i_03iA/o.jpg", "is_closed": false, "url": "https://www.yelp.com/biz/factory-tamal-new-york-4?adjust_creative=9gNmiWYX8uTbFBeTTvJMdA&utm_campaign=yelp_api_v3&utm_medium=api_v3_business_search&utm_source=9gNmiWYX8uTbFBeTTvJMdA", "review_count": 126, "categories": [{"alias": "mexican", "title": "Mexican"}, {"alias": "breakfast_brunch", "title": "Breakfast & Brunch"}], "rating": 4.5, "coordinates": {"latitude": 40.7159773, "longitude": -73.9903625}, "transactions": ["pickup", "delivery"], "price": "$", "location": {"address1": "34 Ludlow St", "address2": null, "address3": null, "city": "New York", "zip_code": "10002", "country": "US", "state": "NY", "display_address": ["34 Ludlow St", "New York, NY 10002"]}, "phone": "+19176915524", "display_phone": "(917) 691-5524", "distance": 5112.698852437688}, {"id": "_M5FVY4hkcuU-ASdVZPfRQ", "alias": "tacos-el-bronco-brooklyn-2", "name": "Tacos El Bronco", "image_url": "https://s3-media3.fl.yelpcdn.com/bphoto/Lh8G4EkEtpmd1Fru7DMMdA/o.jpg", "is_closed": false, "url": "https://www.yelp.com/biz/tacos-el-bronco-brooklyn-2?adjust_creative=9gNmiWYX8uTbFBeTTvJMdA&utm_campaign=yelp_api_v3&utm_medium=api_v3_business_search&utm_source=9gNmiWYX8uTbFBeTTvJMdA", "review_count": 679, "categories": [{"alias": "mexican", "title": "Mexican"}, {"alias": "seafood", "title": "Seafood"}, {"alias": "cocktailbars", "title": "Cocktail Bars"}], "rating": 4.0, "coordinates": {"latitude": 40.65006, "longitude": -74.00915}, "transactions": ["delivery"], "price": "$$", "location": {"address1": "4324 4th Ave", "address2": "", "address3": "", "city": "Brooklyn", "zip_code": "11220", "country": "US", "state": "NY", "display_address": ["4324 4th Ave", "Brooklyn, NY 11220"]}, "phone": "+17187882229", "display_phone": "(718) 788-2229", "distance": 12581.958284058643}, {"id": "0ozvPXsxdIdJ8RmuV0VQbQ", "alias": "el-coco-new-york-2", "name": "El Coco", "image_url": "https://s3-media2.fl.yelpcdn.com/bphoto/3ZFfF04LHEZkFwHvvwiMaw/o.jpg", "is_closed": false, "url": "https://www.yelp.com/biz/el-coco-new-york-2?adjust_creative=9gNmiWYX8uTbFBeTTvJMdA&utm_campaign=yelp_api_v3&utm_medium=api_v3_business_search&utm_source=9gNmiWYX8uTbFBeTTvJMdA", "review_count": 71, "categories": [{"alias": "mexican", "title": "Mexican"}, {"alias": "empanadas", "title": "Empanadas"}, {"alias": "cocktailbars", "title": "Cocktail Bars"}], "rating": 3.5, "coordinates": {"latitude": 40.74356, "longitude": -73.99953}, "transactions": ["pickup", "delivery"], "location": {"address1": "202 8th Ave", "address2": "", "address3": null, "city": "New York", "zip_code": "10011", "country": "US", "state": "NY", "display_address": ["202 8th Ave", "New York, NY 10011"]}, "phone": "+16466924123", "display_phone": "(646) 692-4123", "distance": 3060.9498641892033}, {"id": "DHFEpeJXemrdxIuGGcyurg", "alias": "de-mole-woodside", "name": "De Mole", "image_url": "https://s3-media3.fl.yelpcdn.com/bphoto/DkgaCktEe263z_Kq59JCNg/o.jpg", "is_closed": false, "url": "https://www.yelp.com/biz/de-mole-woodside?adjust_creative=9gNmiWYX8uTbFBeTTvJMdA&utm_campaign=yelp_api_v3&utm_medium=api_v3_business_search&utm_source=9gNmiWYX8uTbFBeTTvJMdA", "review_count": 658, "categories": [{"alias": "mexican", "title": "Mexican"}], "rating": 4.0, "coordinates": {"latitude": 40.7391932, "longitude": -73.9202624}, "transactions": ["pickup", "delivery"], "price": "$$", "location": {"address1": "4502 48th Ave", "address2": null, "address3": "", "city": "Woodside", "zip_code": "11377", "country": "US", "state": "NY", "display_address": ["4502 48th Ave", "Woodside, NY 11377"]}, "phone": "+17183922161", "display_phone": "(718) 392-2161", "distance": 4710.8022719897535}, {"id": "o_r0-1tGDoP_HyEONWKqCw", "alias": "mojo-restaurant-forest-hills", "name": "Mojo Restaurant", "image_url": "https://s3-media2.fl.yelpcdn.com/bphoto/woYvgWo6HQmurcxC_PDZwQ/o.jpg", "is_closed": false, "url": "https://www.yelp.com/biz/mojo-restaurant-forest-hills?adjust_creative=9gNmiWYX8uTbFBeTTvJMdA&utm_campaign=yelp_api_v3&utm_medium=api_v3_business_search&utm_source=9gNmiWYX8uTbFBeTTvJMdA", "review_count": 592, "categories": [{"alias": "latin", "title": "Latin American"}], "rating": 4.0, "coordinates": {"latitude": 40.720588, "longitude": -73.8464128}, "transactions": ["pickup", "delivery"], "price": "$$", "location": {"address1": "70-20 Austin St", "address2": "", "address3": null, "city": "Forest Hills", "zip_code": "11375", "country": "US", "state": "NY", "display_address": ["70-20 Austin St", "Forest Hills, NY 11375"]}, "phone": "+17182616162", "display_phone": "(718) 261-6162", "distance": 11228.44809004918}, {"id": "mpPZhqTzk2_Pz35gBQnbCw", "alias": "santa-fe-bk-brooklyn", "name": "Santa Fe BK", "image_url": "https://s3-media2.fl.yelpcdn.com/bphoto/CA-1CI_fga9CvIg_TdvBfQ/o.jpg", "is_closed": false, "url": "https://www.yelp.com/biz/santa-fe-bk-brooklyn?adjust_creative=9gNmiWYX8uTbFBeTTvJMdA&utm_campaign=yelp_api_v3&utm_medium=api_v3_business_search&utm_source=9gNmiWYX8uTbFBeTTvJMdA", "review_count": 71, "categories": [{"alias": "newmexican", "title": "New Mexican Cuisine"}], "rating": 4.5, "coordinates": {"latitude": 40.718101199815685, "longitude": -73.95677762208928}, "transactions": ["delivery"], "location": {"address1": "178 N 8th St", "address2": "", "address3": null, "city": "Brooklyn", "zip_code": "11211", "country": "US", "state": "NY", "display_address": ["178 N 8th St", "Brooklyn, NY 11211"]}, "phone": "+13477630279", "display_phone": "(347) 763-0279", "distance": 4692.684186688656}, {"id": "iq9_CMtUT1SwGcEL8fSDNQ", "alias": "r-lounge-at-two-times-square-new-york", "name": "R Lounge at Two Times Square", "image_url": "https://s3-media2.fl.yelpcdn.com/bphoto/e9xKPxbNOpupTO2spjff5Q/o.jpg", "is_closed": false, "url": "https://www.yelp.com/biz/r-lounge-at-two-times-square-new-york?adjust_creative=9gNmiWYX8uTbFBeTTvJMdA&utm_campaign=yelp_api_v3&utm_medium=api_v3_business_search&utm_source=9gNmiWYX8uTbFBeTTvJMdA", "review_count": 362, "categories": [{"alias": "lounges", "title": "Lounges"}, {"alias": "steak", "title": "Steakhouses"}, {"alias": "tradamerican", "title": "American (Traditional)"}], "rating": 4.0, "coordinates": {"latitude": 40.759683705851, "longitude": -73.9845943450927}, "transactions": [], "price": "$$$", "location": {"address1": "Two Times Square, 714 Seventh Avenue at W. 48th Street", "address2": "", "address3": "", "city": "New York", "zip_code": "10036", "country": "US", "state": "NY", "display_address": ["Two Times Square, 714 Seventh Avenue at W. 48th Street", "New York, NY 10036"]}, "phone": "+12122615114", "display_phone": "(212) 261-5114", "distance": 1266.3612729438846}, {"id": "I6optu9x0JAf8oT5lqJ8qw", "alias": "the-blue-dog-cookhouse-and-bar-new-york", "name": "The Blue Dog Cookhouse & Bar", "image_url": "https://s3-media2.fl.yelpcdn.com/bphoto/X-eOROpa5TMMbwG3qmn4uQ/o.jpg", "is_closed": false, "url": "https://www.yelp.com/biz/the-blue-dog-cookhouse-and-bar-new-york?adjust_creative=9gNmiWYX8uTbFBeTTvJMdA&utm_campaign=yelp_api_v3&utm_medium=api_v3_business_search&utm_source=9gNmiWYX8uTbFBeTTvJMdA", "review_count": 1485, "categories": [{"alias": "breakfast_brunch", "title": "Breakfast & Brunch"}, {"alias": "newamerican", "title": "American (New)"}, {"alias": "french", "title": "French"}], "rating": 4.0, "coordinates": {"latitude": 40.76244, "longitude": -73.98674}, "transactions": ["pickup", "delivery"], "price": "$$", "location": {"address1": "308 W 50th St", "address2": null, "address3": "", "city": "New York", "zip_code": "10019", "country": "US", "state": "NY", "display_address": ["308 W 50th St", "New York, NY 10019"]}, "phone": "+12124590700", "display_phone": "(212) 459-0700", "distance": 1509.406535618204}, {"id": "Ck4qyOc_m6uxz0uC3l-NTA", "alias": "el-paso-restaurante-mexicano-new-york-6", "name": "El Paso Restaurante Mexicano", "image_url": "https://s3-media3.fl.yelpcdn.com/bphoto/zoSwmJDS7dXCtJ78sUWJPw/o.jpg", "is_closed": false, "url": "https://www.yelp.com/biz/el-paso-restaurante-mexicano-new-york-6?adjust_creative=9gNmiWYX8uTbFBeTTvJMdA&utm_campaign=yelp_api_v3&utm_medium=api_v3_business_search&utm_source=9gNmiWYX8uTbFBeTTvJMdA", "review_count": 43, "categories": [{"alias": "mexican", "title": "Mexican"}, {"alias": "bars", "title": "Bars"}], "rating": 4.0, "coordinates": {"latitude": 40.7952932513683, "longitude": -73.9451895260037}, "transactions": ["pickup", "delivery"], "location": {"address1": "123 E 110th St", "address2": "", "address3": null, "city": "New York", "zip_code": "10029", "country": "US", "state": "NY", "display_address": ["123 E 110th St", "New York, NY 10029"]}, "phone": "+12128319831", "display_phone": "(212) 831-9831", "distance": 4510.610339453511}, {"id": "8zDdTqBIxXNcEFY63C8rWQ", "alias": "seamores-market-bar-new-york-3", "name": "Seamore's  Market Bar", "image_url": "https://s3-media4.fl.yelpcdn.com/bphoto/C8MPND9IsnHF-bLNYtYJ-A/o.jpg", "is_closed": false, "url": "https://www.yelp.com/biz/seamores-market-bar-new-york-3?adjust_creative=9gNmiWYX8uTbFBeTTvJMdA&utm_campaign=yelp_api_v3&utm_medium=api_v3_business_search&utm_source=9gNmiWYX8uTbFBeTTvJMdA", "review_count": 22, "categories": [{"alias": "seafood", "title": "Seafood"}, {"alias": "tacos", "title": "Tacos"}, {"alias": "cocktailbars", "title": "Cocktail Bars"}], "rating": 4.5, "coordinates": {"latitude": 40.762577, "longitude": -73.981442}, "transactions": ["pickup", "delivery"], "price": "$$", "location": {"address1": "152 W 52nd St", "address2": null, "address3": "", "city": "New York", "zip_code": "10019", "country": "US", "state": "NY", "display_address": ["152 W 52nd St", "New York, NY 10019"]}, "phone": "+16467470822", "display_phone": "(646) 747-0822", "distance": 1063.6430869354908}, {"id": "_WhV2UWBj6ULaLlo_I9FMg", "alias": "el-encanto-de-lola-2-new-york", "name": "El Encanto De Lola 2", "image_url": "https://s3-media1.fl.yelpcdn.com/bphoto/O9qat256j3AYUgrkwOc0qA/o.jpg", "is_closed": false, "url": "https://www.yelp.com/biz/el-encanto-de-lola-2-new-york?adjust_creative=9gNmiWYX8uTbFBeTTvJMdA&utm_campaign=yelp_api_v3&utm_medium=api_v3_business_search&utm_source=9gNmiWYX8uTbFBeTTvJMdA", "review_count": 103, "categories": [{"alias": "mexican", "title": "Mexican"}, {"alias": "bars", "title": "Bars"}], "rating": 3.5, "coordinates": {"latitude": 40.80389, "longitude": -73.94865}, "transactions": ["pickup", "delivery"], "price": "$$", "location": {"address1": "175 Lenox Ave", "address2": null, "address3": "", "city": "New York", "zip_code": "10026", "country": "US", "state": "NY", "display_address": ["175 Lenox Ave", "New York, NY 10026"]}, "phone": "+16468503623", "display_phone": "(646) 850-3623", "distance": 5275.325939909793}, {"id": "5RqQOSTz5WBxZYH1iIzv4A", "alias": "los-tacos-hermanos-new-york", "name": "Los Tacos Hermanos", "image_url": "https://s3-media1.fl.yelpcdn.com/bphoto/jomhEHZt-9gn-o3wqfkP2w/o.jpg", "is_closed": false, "url": "https://www.yelp.com/biz/los-tacos-hermanos-new-york?adjust_creative=9gNmiWYX8uTbFBeTTvJMdA&utm_campaign=yelp_api_v3&utm_medium=api_v3_business_search&utm_source=9gNmiWYX8uTbFBeTTvJMdA", "review_count": 9, "categories": [{"alias": "tacos", "title": "Tacos"}], "rating": 4.5, "coordinates": {"latitude": 40.75476, "longitude": -73.99137}, "transactions": ["pickup", "delivery"], "location": {"address1": "570 8th Ave", "address2": "", "address3": null, "city": "New York", "zip_code": "10018", "country": "US", "state": "NY", "display_address": ["570 8th Ave", "New York, NY 10018"]}, "phone": "+12123984646", "display_phone": "(212) 398-4646", "distance": 1898.8171042620465}, {"id": "8WnHtvMdPWE66eSkUdbLhQ", "alias": "flip-sigi-new-york-2", "name": "Flip Sigi", "image_url": "https://s3-media2.fl.yelpcdn.com/bphoto/TUUiWWsNom_nxuCK5P9TTw/o.jpg", "is_closed": false, "url": "https://www.yelp.com/biz/flip-sigi-new-york-2?adjust_creative=9gNmiWYX8uTbFBeTTvJMdA&utm_campaign=yelp_api_v3&utm_medium=api_v3_business_search&utm_source=9gNmiWYX8uTbFBeTTvJMdA", "review_count": 934, "categories": [{"alias": "filipino", "title": "Filipino"}, {"alias": "tacos", "title": "Tacos"}, {"alias": "burgers", "title": "Burgers"}], "rating": 4.0, "coordinates": {"latitude": 40.7344965, "longitude": -74.0020674}, "transactions": ["pickup", "delivery"], "price": "$$", "location": {"address1": "131 7th Ave S", "address2": null, "address3": "", "city": "New York", "zip_code": "10014", "country": "US", "state": "NY", "display_address": ["131 7th Ave S", "New York, NY 10014"]}, "phone": "+18333547744", "display_phone": "(833) 354-7744", "distance": 3875.921504970598}, {"id": "u9xVzV1OZC5pwtUgaHLM-A", "alias": "el-kallejon-new-york", "name": "El Kallejon", "image_url": "https://s3-media3.fl.yelpcdn.com/bphoto/QqR6GxqKfaC64ZSnE6v7UA/o.jpg", "is_closed": false, "url": "https://www.yelp.com/biz/el-kallejon-new-york?adjust_creative=9gNmiWYX8uTbFBeTTvJMdA&utm_campaign=yelp_api_v3&utm_medium=api_v3_business_search&utm_source=9gNmiWYX8uTbFBeTTvJMdA", "review_count": 339, "categories": [{"alias": "tapas", "title": "Tapas Bars"}, {"alias": "mexican", "title": "Mexican"}, {"alias": "cocktailbars", "title": "Cocktail Bars"}], "rating": 4.5, "coordinates": {"latitude": 40.798538, "longitude": -73.938805}, "transactions": ["delivery"], "price": "$$", "location": {"address1": "209 E 117th St", "address2": null, "address3": null, "city": "New York", "zip_code": "10035", "country": "US", "state": "NY", "display_address": ["209 E 117th St", "New York, NY 10035"]}, "phone": "+16466494795", "display_phone": "(646) 649-4795", "distance": 5086.271883196875}, {"id": "NqF5klmeAW2By3nTR1_tbw", "alias": "ay-g\u00fcey-cantina-y-cocina-woodside", "name": "\u00a1AY G\u00dcEY! Cantina Y Cocina", "image_url": "https://s3-media1.fl.yelpcdn.com/bphoto/jTiImSjTQ4X9KUvpgoCkAg/o.jpg", "is_closed": false, "url": "https://www.yelp.com/biz/ay-g%C3%BCey-cantina-y-cocina-woodside?adjust_creative=9gNmiWYX8uTbFBeTTvJMdA&utm_campaign=yelp_api_v3&utm_medium=api_v3_business_search&utm_source=9gNmiWYX8uTbFBeTTvJMdA", "review_count": 8, "categories": [{"alias": "mexican", "title": "Mexican"}, {"alias": "cocktailbars", "title": "Cocktail Bars"}], "rating": 5.0, "coordinates": {"latitude": 40.757493, "longitude": -73.90775639398036}, "transactions": ["pickup", "delivery"], "location": {"address1": "30-86 51st St", "address2": "", "address3": null, "city": "Woodside", "zip_code": "11377", "country": "US", "state": "NY", "display_address": ["30-86 51st St", "Woodside, NY 11377"]}, "phone": "+17182551633", "display_phone": "(718) 255-1633", "distance": 5210.04952137}, {"id": "UTTxDG-UMiYILV9QruuYjg", "alias": "mama-s-cantina-queens", "name": "Mama\u2019s Cantina", "image_url": "https://s3-media1.fl.yelpcdn.com/bphoto/K4c8X8ckq1xt_cbC93VlvQ/o.jpg", "is_closed": false, "url": "https://www.yelp.com/biz/mama-s-cantina-queens?adjust_creative=9gNmiWYX8uTbFBeTTvJMdA&utm_campaign=yelp_api_v3&utm_medium=api_v3_business_search&utm_source=9gNmiWYX8uTbFBeTTvJMdA", "review_count": 6, "categories": [{"alias": "mexican", "title": "Mexican"}], "rating": 4.0, "coordinates": {"latitude": 40.770953404988845, "longitude": -73.90287409999999}, "transactions": [], "location": {"address1": "45-01 Ditmars Blvd", "address2": "", "address3": null, "city": "Queens", "zip_code": "11105", "country": "US", "state": "NY", "display_address": ["45-01 Ditmars Blvd", "Queens, NY 11105"]}, "phone": "", "display_phone": "", "distance": 5768.010052770663}, {"id": "ox1Q1niAxCRRigUuDybtAw", "alias": "planet-taco-new-york-2", "name": "Planet Taco", "image_url": "https://s3-media3.fl.yelpcdn.com/bphoto/AO1-e78oUX_1m1LxkxrkUw/o.jpg", "is_closed": false, "url": "https://www.yelp.com/biz/planet-taco-new-york-2?adjust_creative=9gNmiWYX8uTbFBeTTvJMdA&utm_campaign=yelp_api_v3&utm_medium=api_v3_business_search&utm_source=9gNmiWYX8uTbFBeTTvJMdA", "review_count": 39, "categories": [{"alias": "tacos", "title": "Tacos"}], "rating": 4.0, "coordinates": {"latitude": 40.76253, "longitude": -73.98987}, "transactions": ["pickup", "delivery"], "location": {"address1": "705 9th Ave", "address2": null, "address3": "", "city": "New York", "zip_code": "10019", "country": "US", "state": "NY", "display_address": ["705 9th Ave", "New York, NY 10019"]}, "phone": "+19172615747", "display_phone": "(917) 261-5747", "distance": 1759.8021397685814}, {"id": "Y42HzF9vaLu4gT3myvzEZQ", "alias": "chilis-new-york", "name": "Chili's", "image_url": "", "is_closed": false, "url": "https://www.yelp.com/biz/chilis-new-york?adjust_creative=9gNmiWYX8uTbFBeTTvJMdA&utm_campaign=yelp_api_v3&utm_medium=api_v3_business_search&utm_source=9gNmiWYX8uTbFBeTTvJMdA", "review_count": 3, "categories": [{"alias": "tex-mex", "title": "Tex-Mex"}, {"alias": "bars", "title": "Bars"}], "rating": 5.0, "coordinates": {"latitude": 40.75505, "longitude": -73.99216}, "transactions": ["pickup", "delivery"], "location": {"address1": "307 W 38th St", "address2": "", "address3": null, "city": "New York", "zip_code": "10018", "country": "US", "state": "NY", "display_address": ["307 W 38th St", "New York, NY 10018"]}, "phone": "", "display_phone": "", "distance": 1968.0058884619314}, {"id": "t7xqAMBQNH4ppsPSOMzFyg", "alias": "treadwell-park-new-york", "name": "Treadwell Park", "image_url": "https://s3-media2.fl.yelpcdn.com/bphoto/eL1sFb50VvIpL5yR55dx7Q/o.jpg", "is_closed": false, "url": "https://www.yelp.com/biz/treadwell-park-new-york?adjust_creative=9gNmiWYX8uTbFBeTTvJMdA&utm_campaign=yelp_api_v3&utm_medium=api_v3_business_search&utm_source=9gNmiWYX8uTbFBeTTvJMdA", "review_count": 532, "categories": [{"alias": "bars", "title": "Bars"}, {"alias": "newamerican", "title": "American (New)"}], "rating": 4.0, "coordinates": {"latitude": 40.7614, "longitude": -73.9609}, "transactions": ["pickup", "delivery"], "price": "$$", "location": {"address1": "1125 1st Ave", "address2": "", "address3": "", "city": "New York", "zip_code": "10065", "country": "US", "state": "NY", "display_address": ["1125 1st Ave", "New York, NY 10065"]}, "phone": "+12128321551", "display_phone": "(212) 832-1551", "distance": 757.737863973859}, {"id": "L_LbQnSB1mPpwLlrCq3vPA", "alias": "frijolitos-astoria-long-island-city", "name": "Frijolito's Astoria", "image_url": "https://s3-media3.fl.yelpcdn.com/bphoto/qr9W-hAgStzjnBnH663LYg/o.jpg", "is_closed": false, "url": "https://www.yelp.com/biz/frijolitos-astoria-long-island-city?adjust_creative=9gNmiWYX8uTbFBeTTvJMdA&utm_campaign=yelp_api_v3&utm_medium=api_v3_business_search&utm_source=9gNmiWYX8uTbFBeTTvJMdA", "review_count": 12, "categories": [{"alias": "mexican", "title": "Mexican"}], "rating": 5.0, "coordinates": {"latitude": 40.771378, "longitude": -73.922429}, "transactions": ["delivery"], "location": {"address1": "2517 Astoria Blvd", "address2": null, "address3": "", "city": "Long Island City", "zip_code": "11102", "country": "US", "state": "NY", "display_address": ["2517 Astoria Blvd", "Long Island City, NY 11102"]}, "phone": "+13476423307", "display_phone": "(347) 642-3307", "distance": 4217.648832965951}, {"id": "-kVueEw_fyO1Q2Gkmj6Few", "alias": "taqueria-santa-fe-woodside-2", "name": "Taqueria Santa Fe", "image_url": "https://s3-media3.fl.yelpcdn.com/bphoto/HSeOqcDKWMekhMeLYxrqLQ/o.jpg", "is_closed": false, "url": "https://www.yelp.com/biz/taqueria-santa-fe-woodside-2?adjust_creative=9gNmiWYX8uTbFBeTTvJMdA&utm_campaign=yelp_api_v3&utm_medium=api_v3_business_search&utm_source=9gNmiWYX8uTbFBeTTvJMdA", "review_count": 412, "categories": [{"alias": "mexican", "title": "Mexican"}], "rating": 4.5, "coordinates": {"latitude": 40.740766, "longitude": -73.917876}, "transactions": ["pickup", "delivery"], "price": "$", "location": {"address1": "4708 47th Ave", "address2": null, "address3": "", "city": "Woodside", "zip_code": "11377", "country": "US", "state": "NY", "display_address": ["4708 47th Ave", "Woodside, NY 11377"]}, "phone": "+17182699946", "display_phone": "(718) 269-9946", "distance": 4806.9792620917815}, {"id": "0KeuqyRSUAYLwMI-3ZAZJw", "alias": "maya-blue-new-york-3", "name": "Maya Blue", "image_url": "https://s3-media1.fl.yelpcdn.com/bphoto/ZPaxb_yODQrFTlQbmX_LlQ/o.jpg", "is_closed": false, "url": "https://www.yelp.com/biz/maya-blue-new-york-3?adjust_creative=9gNmiWYX8uTbFBeTTvJMdA&utm_campaign=yelp_api_v3&utm_medium=api_v3_business_search&utm_source=9gNmiWYX8uTbFBeTTvJMdA", "review_count": 23, "categories": [{"alias": "mexican", "title": "Mexican"}, {"alias": "juicebars", "title": "Juice Bars & Smoothies"}], "rating": 3.0, "coordinates": {"latitude": 40.7524506103315, "longitude": -73.9743997152164}, "transactions": ["delivery"], "price": "$$", "location": {"address1": "146 E 44th St", "address2": "", "address3": null, "city": "New York", "zip_code": "10174", "country": "US", "state": "NY", "display_address": ["146 E 44th St", "New York, NY 10174"]}, "phone": "+16467264645", "display_phone": "(646) 726-4645", "distance": 851.0296409422201}, {"id": "jTcXu-2gChX2uaFV4M7_eA", "alias": "agave-cocina-mexicana-wallington", "name": "Agave Cocina Mexicana", "image_url": "https://s3-media3.fl.yelpcdn.com/bphoto/JHmr_oV2wUmxPH2Qecte5A/o.jpg", "is_closed": false, "url": "https://www.yelp.com/biz/agave-cocina-mexicana-wallington?adjust_creative=9gNmiWYX8uTbFBeTTvJMdA&utm_campaign=yelp_api_v3&utm_medium=api_v3_business_search&utm_source=9gNmiWYX8uTbFBeTTvJMdA", "review_count": 304, "categories": [{"alias": "newmexican", "title": "New Mexican Cuisine"}, {"alias": "mexican", "title": "Mexican"}, {"alias": "cocktailbars", "title": "Cocktail Bars"}], "rating": 4.0, "coordinates": {"latitude": 40.8507402, "longitude": -74.1131509866}, "transactions": ["pickup", "delivery"], "price": "$$", "location": {"address1": "32 Locust Ave", "address2": null, "address3": "", "city": "Wallington", "zip_code": "07057", "country": "US", "state": "NJ", "display_address": ["32 Locust Ave", "Wallington, NJ 07057"]}, "phone": "+19732468531", "display_phone": "(973) 246-8531", "distance": 15801.930815972586}, {"id": "95a04LtXLX6gePhPEwff9A", "alias": "amaranto-mexican-restaurant-brooklyn", "name": "Amaranto Mexican Restaurant", "image_url": "https://s3-media3.fl.yelpcdn.com/bphoto/A5ssu96ohGe0zvE9aUyhvg/o.jpg", "is_closed": false, "url": "https://www.yelp.com/biz/amaranto-mexican-restaurant-brooklyn?adjust_creative=9gNmiWYX8uTbFBeTTvJMdA&utm_campaign=yelp_api_v3&utm_medium=api_v3_business_search&utm_source=9gNmiWYX8uTbFBeTTvJMdA", "review_count": 391, "categories": [{"alias": "mexican", "title": "Mexican"}], "rating": 4.5, "coordinates": {"latitude": 40.703111, "longitude": -73.921892}, "transactions": ["pickup", "delivery"], "price": "$$", "location": {"address1": "887 Hart St", "address2": "", "address3": "", "city": "Brooklyn", "zip_code": "11237", "country": "US", "state": "NY", "display_address": ["887 Hart St", "Brooklyn, NY 11237"]}, "phone": "+17185766001", "display_phone": "(718) 576-6001", "distance": 7416.528119201223}, {"id": "RUekg91-5EwrKjmFGkIleA", "alias": "triple-a-1-restaurant-new-york", "name": "Triple A 1 Restaurant", "image_url": "https://s3-media2.fl.yelpcdn.com/bphoto/GoETPnK2Kye8xaND9lyf6g/o.jpg", "is_closed": false, "url": "https://www.yelp.com/biz/triple-a-1-restaurant-new-york?adjust_creative=9gNmiWYX8uTbFBeTTvJMdA&utm_campaign=yelp_api_v3&utm_medium=api_v3_business_search&utm_source=9gNmiWYX8uTbFBeTTvJMdA", "review_count": 62, "categories": [{"alias": "diners", "title": "Diners"}, {"alias": "mexican", "title": "Mexican"}, {"alias": "breakfast_brunch", "title": "Breakfast & Brunch"}], "rating": 3.5, "coordinates": {"latitude": 40.790588, "longitude": -73.94281}, "transactions": ["pickup", "delivery"], "price": "$", "location": {"address1": "2061 2nd Ave", "address2": "", "address3": "", "city": "New York", "zip_code": "10029", "country": "US", "state": "NY", "display_address": ["2061 2nd Ave", "New York, NY 10029"]}, "phone": "+12124106950", "display_phone": "(212) 410-6950", "distance": 4156.938153212877}, {"id": "7-aFmvscXWT223jlWrOkWg", "alias": "mictlan-mexico-new-york", "name": "Mictlan Mexico", "image_url": "https://s3-media1.fl.yelpcdn.com/bphoto/mghf60tMP5sedWf1eaAG_A/o.jpg", "is_closed": false, "url": "https://www.yelp.com/biz/mictlan-mexico-new-york?adjust_creative=9gNmiWYX8uTbFBeTTvJMdA&utm_campaign=yelp_api_v3&utm_medium=api_v3_business_search&utm_source=9gNmiWYX8uTbFBeTTvJMdA", "review_count": 33, "categories": [{"alias": "mexican", "title": "Mexican"}], "rating": 4.5, "coordinates": {"latitude": 40.71524, "longitude": -73.99183}, "transactions": ["pickup", "delivery"], "price": "$$", "location": {"address1": "17 Orchard St", "address2": "", "address3": null, "city": "New York", "zip_code": "10002", "country": "US", "state": "NY", "display_address": ["17 Orchard St", "New York, NY 10002"]}, "phone": "+19174095553", "display_phone": "(917) 409-5553", "distance": 5226.855712106567}, {"id": "7xY3vxBy7yFF5dVAi-6hPQ", "alias": "pipos-mexican-restaurant-new-york", "name": "Pipo's Mexican Restaurant", "image_url": "https://s3-media2.fl.yelpcdn.com/bphoto/KaB-fm8pY98K9KNRb29_0Q/o.jpg", "is_closed": false, "url": "https://www.yelp.com/biz/pipos-mexican-restaurant-new-york?adjust_creative=9gNmiWYX8uTbFBeTTvJMdA&utm_campaign=yelp_api_v3&utm_medium=api_v3_business_search&utm_source=9gNmiWYX8uTbFBeTTvJMdA", "review_count": 75, "categories": [{"alias": "mexican", "title": "Mexican"}], "rating": 4.0, "coordinates": {"latitude": 40.7994318892483, "longitude": -73.9398034173906}, "transactions": ["pickup", "delivery"], "price": "$", "location": {"address1": "166 E 118th St", "address2": "", "address3": "", "city": "New York", "zip_code": "10035", "country": "US", "state": "NY", "display_address": ["166 E 118th St", "New York, NY 10035"]}, "phone": "+12128282382", "display_phone": "(212) 828-2382", "distance": 5130.4517358775465}, {"id": "H-EZ1g_3M8oNHctGjnddwQ", "alias": "taqueria-viva-mexico-kitchen-cafe-jersey-city", "name": "Taqueria Viva Mexico Kitchen Cafe", "image_url": "https://s3-media2.fl.yelpcdn.com/bphoto/hav5CGX6Few80LcoUequhg/o.jpg", "is_closed": false, "url": "https://www.yelp.com/biz/taqueria-viva-mexico-kitchen-cafe-jersey-city?adjust_creative=9gNmiWYX8uTbFBeTTvJMdA&utm_campaign=yelp_api_v3&utm_medium=api_v3_business_search&utm_source=9gNmiWYX8uTbFBeTTvJMdA", "review_count": 376, "categories": [{"alias": "mexican", "title": "Mexican"}], "rating": 4.0, "coordinates": {"latitude": 40.7139, "longitude": -74.04029}, "transactions": ["pickup", "delivery"], "price": "$", "location": {"address1": "133 Morris St", "address2": "", "address3": "", "city": "Jersey City", "zip_code": "07302", "country": "US", "state": "NJ", "display_address": ["133 Morris St", "Jersey City, NJ 07302"]}, "phone": "+12014333477", "display_phone": "(201) 433-3477", "distance": 7799.173285474395}, {"id": "2L20kuwaYbxza7EHbDuIYA", "alias": "tinas-cuban-cuisine-new-york-2", "name": "Tina's Cuban Cuisine", "image_url": "https://s3-media3.fl.yelpcdn.com/bphoto/aOeIeE4-ClPikSRffc8PYg/o.jpg", "is_closed": false, "url": "https://www.yelp.com/biz/tinas-cuban-cuisine-new-york-2?adjust_creative=9gNmiWYX8uTbFBeTTvJMdA&utm_campaign=yelp_api_v3&utm_medium=api_v3_business_search&utm_source=9gNmiWYX8uTbFBeTTvJMdA", "review_count": 297, "categories": [{"alias": "cuban", "title": "Cuban"}, {"alias": "latin", "title": "Latin American"}], "rating": 3.5, "coordinates": {"latitude": 40.74738, "longitude": -73.98288}, "transactions": ["pickup", "delivery"], "price": "$$", "location": {"address1": "179 Madison Ave", "address2": "", "address3": "", "city": "New York", "zip_code": "10016", "country": "US", "state": "NY", "display_address": ["179 Madison Ave", "New York, NY 10016"]}, "phone": "+12126793500", "display_phone": "(212) 679-3500", "distance": 1725.8612385455965}, {"id": "m3C3d47Bh4NJHGXvT6Rqbg", "alias": "mexico-2000-restaurant-brooklyn-2", "name": "Mexico 2000 Restaurant", "image_url": "https://s3-media1.fl.yelpcdn.com/bphoto/17JVKBVQMRv8NWeNzY9_aA/o.jpg", "is_closed": false, "url": "https://www.yelp.com/biz/mexico-2000-restaurant-brooklyn-2?adjust_creative=9gNmiWYX8uTbFBeTTvJMdA&utm_campaign=yelp_api_v3&utm_medium=api_v3_business_search&utm_source=9gNmiWYX8uTbFBeTTvJMdA", "review_count": 182, "categories": [{"alias": "mexican", "title": "Mexican"}], "rating": 3.5, "coordinates": {"latitude": 40.70765, "longitude": -73.95493}, "transactions": ["pickup", "delivery"], "price": "$$", "location": {"address1": "369 Broadway", "address2": "", "address3": "", "city": "Brooklyn", "zip_code": "11211", "country": "US", "state": "NY", "display_address": ["369 Broadway", "Brooklyn, NY 11211"]}, "phone": "+17184070109", "display_phone": "(718) 407-0109", "distance": 5861.259495155584}, {"id": "qZfJbJPxZUkC66lRldcbGA", "alias": "tulcingo-restaurant-new-york-3", "name": "Tulcingo Restaurant", "image_url": "https://s3-media1.fl.yelpcdn.com/bphoto/K4NnzlHd_s3j2Ss-gAqK7Q/o.jpg", "is_closed": false, "url": "https://www.yelp.com/biz/tulcingo-restaurant-new-york-3?adjust_creative=9gNmiWYX8uTbFBeTTvJMdA&utm_campaign=yelp_api_v3&utm_medium=api_v3_business_search&utm_source=9gNmiWYX8uTbFBeTTvJMdA", "review_count": 322, "categories": [{"alias": "mexican", "title": "Mexican"}], "rating": 3.5, "coordinates": {"latitude": 40.762756, "longitude": -73.993545}, "transactions": ["delivery"], "price": "$$", "location": {"address1": "665 10th Ave", "address2": null, "address3": "", "city": "New York", "zip_code": "10036", "country": "US", "state": "NY", "display_address": ["665 10th Ave", "New York, NY 10036"]}, "phone": "+12122625510", "display_phone": "(212) 262-5510", "distance": 2055.5532316376034}, {"id": "IBY_PUKMfcbHAtO8BTqigg", "alias": "moho-mexican-grill-bayside-2", "name": "Moho Mexican Grill", "image_url": "https://s3-media1.fl.yelpcdn.com/bphoto/QxsHTs7NAef41si0w1tjsA/o.jpg", "is_closed": false, "url": "https://www.yelp.com/biz/moho-mexican-grill-bayside-2?adjust_creative=9gNmiWYX8uTbFBeTTvJMdA&utm_campaign=yelp_api_v3&utm_medium=api_v3_business_search&utm_source=9gNmiWYX8uTbFBeTTvJMdA", "review_count": 262, "categories": [{"alias": "mexican", "title": "Mexican"}, {"alias": "halal", "title": "Halal"}], "rating": 4.0, "coordinates": {"latitude": 40.766353, "longitude": -73.772158}, "transactions": ["pickup", "delivery"], "price": "$$", "location": {"address1": "38-05 Bell Blvd", "address2": null, "address3": "", "city": "Bayside", "zip_code": "11361", "country": "US", "state": "NY", "display_address": ["38-05 Bell Blvd", "Bayside, NY 11361"]}, "phone": "+17187099695", "display_phone": "(718) 709-9695", "distance": 16643.68869586489}, {"id": "HqI1ROCmZa2THlBxT9nyrA", "alias": "las-palmas-restaurant-new-york-2", "name": "Las Palmas Restaurant", "image_url": "https://s3-media2.fl.yelpcdn.com/bphoto/uPUMxeuSL8KSZWAWzOwQBg/o.jpg", "is_closed": false, "url": "https://www.yelp.com/biz/las-palmas-restaurant-new-york-2?adjust_creative=9gNmiWYX8uTbFBeTTvJMdA&utm_campaign=yelp_api_v3&utm_medium=api_v3_business_search&utm_source=9gNmiWYX8uTbFBeTTvJMdA", "review_count": 190, "categories": [{"alias": "mexican", "title": "Mexican"}], "rating": 4.0, "coordinates": {"latitude": 40.8377037, "longitude": -73.9425248}, "transactions": ["pickup", "delivery"], "price": "$$", "location": {"address1": "3891 Broadway", "address2": "", "address3": "", "city": "New York", "zip_code": "10032", "country": "US", "state": "NY", "display_address": ["3891 Broadway", "New York, NY 10032"]}, "phone": "+19175210349", "display_phone": "(917) 521-0349", "distance": 9023.98593766403}, {"id": "tcAUSOnV9ZWR0y-Tv25h_w", "alias": "raiz-modern-mexican-new-york-2", "name": "Raiz Modern Mexican ", "image_url": "https://s3-media2.fl.yelpcdn.com/bphoto/eQF90DVtfpBZgRBULQAp4Q/o.jpg", "is_closed": false, "url": "https://www.yelp.com/biz/raiz-modern-mexican-new-york-2?adjust_creative=9gNmiWYX8uTbFBeTTvJMdA&utm_campaign=yelp_api_v3&utm_medium=api_v3_business_search&utm_source=9gNmiWYX8uTbFBeTTvJMdA", "review_count": 68, "categories": [{"alias": "vegan", "title": "Vegan"}, {"alias": "tacos", "title": "Tacos"}], "rating": 5.0, "coordinates": {"latitude": 40.72708, "longitude": -73.98546}, "transactions": ["pickup", "delivery"], "price": "$$", "location": {"address1": "120 1st Ave", "address2": null, "address3": "", "city": "New York", "zip_code": "10009", "country": "US", "state": "NY", "display_address": ["120 1st Ave", "New York, NY 10009"]}, "phone": "+16468632233", "display_phone": "(646) 863-2233", "distance": 3816.6538158799367}, {"id": "gAAG2KJ_pdfAK-_UVN-bjQ", "alias": "oaxaca-taqueria-brooklyn-5", "name": "Oaxaca Taqueria", "image_url": "https://s3-media4.fl.yelpcdn.com/bphoto/HvFTUK2Ie-gTNZkqRSC0FA/o.jpg", "is_closed": false, "url": "https://www.yelp.com/biz/oaxaca-taqueria-brooklyn-5?adjust_creative=9gNmiWYX8uTbFBeTTvJMdA&utm_campaign=yelp_api_v3&utm_medium=api_v3_business_search&utm_source=9gNmiWYX8uTbFBeTTvJMdA", "review_count": 55, "categories": [{"alias": "mexican", "title": "Mexican"}], "rating": 3.0, "coordinates": {"latitude": 40.7149695, "longitude": -73.9627357}, "transactions": ["pickup", "delivery"], "price": "$$", "location": {"address1": "130 Grand St", "address2": "", "address3": "", "city": "Brooklyn", "zip_code": "11249", "country": "US", "state": "NY", "display_address": ["130 Grand St", "Brooklyn, NY 11249"]}, "phone": "+17183888804", "display_phone": "(718) 388-8804", "distance": 4949.040267711556}, {"id": "IOHaEgK1zDvUvB3SfKuGCw", "alias": "parker-and-quinn-new-york", "name": "Parker & Quinn", "image_url": "https://s3-media4.fl.yelpcdn.com/bphoto/6xuN0yyAi9PaxSAVVAgfrg/o.jpg", "is_closed": false, "url": "https://www.yelp.com/biz/parker-and-quinn-new-york?adjust_creative=9gNmiWYX8uTbFBeTTvJMdA&utm_campaign=yelp_api_v3&utm_medium=api_v3_business_search&utm_source=9gNmiWYX8uTbFBeTTvJMdA", "review_count": 1594, "categories": [{"alias": "newamerican", "title": "American (New)"}, {"alias": "bars", "title": "Bars"}, {"alias": "breakfast_brunch", "title": "Breakfast & Brunch"}], "rating": 4.0, "coordinates": {"latitude": 40.752586217581296, "longitude": -73.9850713153442}, "transactions": ["pickup", "delivery"], "price": "$$", "location": {"address1": "64 W 39th St", "address2": "", "address3": "", "city": "New York", "zip_code": "10018", "country": "US", "state": "NY", "display_address": ["64 W 39th St", "New York, NY 10018"]}, "phone": "+12127290277", "display_phone": "(212) 729-0277", "distance": 1496.86998970733}, {"id": "h5WkewI6U7NjLB_n6WgdvQ", "alias": "handcraft-kitchen-and-cocktails-new-york", "name": "HandCraft Kitchen & Cocktails", "image_url": "https://s3-media2.fl.yelpcdn.com/bphoto/VsZGcFBJN_wCnwO_XNJiWw/o.jpg", "is_closed": false, "url": "https://www.yelp.com/biz/handcraft-kitchen-and-cocktails-new-york?adjust_creative=9gNmiWYX8uTbFBeTTvJMdA&utm_campaign=yelp_api_v3&utm_medium=api_v3_business_search&utm_source=9gNmiWYX8uTbFBeTTvJMdA", "review_count": 481, "categories": [{"alias": "cocktailbars", "title": "Cocktail Bars"}, {"alias": "gastropubs", "title": "Gastropubs"}, {"alias": "comfortfood", "title": "Comfort Food"}], "rating": 4.0, "coordinates": {"latitude": 40.740967, "longitude": -73.981292}, "transactions": ["pickup", "delivery"], "price": "$$", "location": {"address1": "367 3rd Ave", "address2": "", "address3": "", "city": "New York", "zip_code": "10016", "country": "US", "state": "NY", "display_address": ["367 3rd Ave", "New York, NY 10016"]}, "phone": "+12126893000", "display_phone": "(212) 689-3000", "distance": 2251.539372700811}, {"id": "vj-kTW34lV2ePesZRUUy0Q", "alias": "taqueria-mariposa-rosa-new-york", "name": "Taqueria Mariposa Rosa", "image_url": "https://s3-media4.fl.yelpcdn.com/bphoto/FihxHvlDbg5SFF4hQKtJMg/o.jpg", "is_closed": false, "url": "https://www.yelp.com/biz/taqueria-mariposa-rosa-new-york?adjust_creative=9gNmiWYX8uTbFBeTTvJMdA&utm_campaign=yelp_api_v3&utm_medium=api_v3_business_search&utm_source=9gNmiWYX8uTbFBeTTvJMdA", "review_count": 7, "categories": [{"alias": "tacos", "title": "Tacos"}, {"alias": "cocktailbars", "title": "Cocktail Bars"}], "rating": 4.5, "coordinates": {"latitude": 40.733207, "longitude": -74.0035415}, "transactions": ["pickup", "delivery"], "location": {"address1": "55 Grove St", "address2": null, "address3": "", "city": "New York", "zip_code": "10014", "country": "US", "state": "NY", "display_address": ["55 Grove St", "New York, NY 10014"]}, "phone": "+19173593254", "display_phone": "(917) 359-3254", "distance": 4065.1772210980944}], "total": 4800, "region": {"center": {"longitude": -73.96957397460938, "latitude": 40.75917470627005}}}