{"businesses": [{"id": "hdiuRS9sVZSMReZm4oV5SA", "alias": "da-andrea-new-york", "name": "Da Andrea", "image_url": "https://s3-media1.fl.yelpcdn.com/bphoto/OciLddTWxvBLKMH5DkMAOw/o.jpg", "is_closed": false, "url": "https://www.yelp.com/biz/da-andrea-new-york?adjust_creative=9gNmiWYX8uTbFBeTTvJMdA&utm_campaign=yelp_api_v3&utm_medium=api_v3_business_search&utm_source=9gNmiWYX8uTbFBeTTvJMdA", "review_count": 1827, "categories": [{"alias": "italian", "title": "Italian"}, {"alias": "mediterranean", "title": "Mediterranean"}, {"alias": "breakfast_brunch", "title": "Breakfast & Brunch"}], "rating": 4.5, "coordinates": {"latitude": 40.736218, "longitude": -73.99597}, "transactions": ["restaurant_reservation", "delivery", "pickup"], "price": "$$", "location": {"address1": "35 W 13th St", "address2": "", "address3": "", "city": "New York", "zip_code": "10011", "country": "US", "state": "NY", "display_address": ["35 W 13th St", "New York, NY 10011"]}, "phone": "+12123671979", "display_phone": "(212) 367-1979", "distance": 3385.3407919611877}, {"id": "VmdyRRMtUXOWV7F7w0ImwQ", "alias": "piccola-cucina-uptown-new-york", "name": "Piccola Cucina Uptown", "image_url": "https://s3-media1.fl.yelpcdn.com/bphoto/AlY4fWNZKAgYaS8bRAYJ4Q/o.jpg", "is_closed": false, "url": "https://www.yelp.com/biz/piccola-cucina-uptown-new-york?adjust_creative=9gNmiWYX8uTbFBeTTvJMdA&utm_campaign=yelp_api_v3&utm_medium=api_v3_business_search&utm_source=9gNmiWYX8uTbFBeTTvJMdA", "review_count": 285, "categories": [{"alias": "sicilian", "title": "Sicilian"}], "rating": 4.5, "coordinates": {"latitude": 40.763174, "longitude": -73.969046}, "transactions": ["delivery", "pickup"], "location": {"address1": "106 E 60th St", "address2": null, "address3": "", "city": "New York", "zip_code": "10022", "country": "US", "state": "NY", "display_address": ["106 E 60th St", "New York, NY 10022"]}, "phone": "+16467073997", "display_phone": "(646) 707-3997", "distance": 446.91841388672975}, {"id": "DoSU8IPq-Py_YV3kYmXPfQ", "alias": "trattoria-trecolori-new-york", "name": "Trattoria Trecolori", "image_url": "https://s3-media2.fl.yelpcdn.com/bphoto/nL_iTlbmA__6yNAAj1Xldg/o.jpg", "is_closed": false, "url": "https://www.yelp.com/biz/trattoria-trecolori-new-york?adjust_creative=9gNmiWYX8uTbFBeTTvJMdA&utm_campaign=yelp_api_v3&utm_medium=api_v3_business_search&utm_source=9gNmiWYX8uTbFBeTTvJMdA", "review_count": 2607, "categories": [{"alias": "italian", "title": "Italian"}], "rating": 4.0, "coordinates": {"latitude": 40.759876, "longitude": -73.986767}, "transactions": ["delivery", "pickup"], "price": "$$", "location": {"address1": "254 West 47th St", "address2": "", "address3": "", "city": "New York", "zip_code": "10036", "country": "US", "state": "NY", "display_address": ["254 West 47th St", "New York, NY 10036"]}, "phone": "+12129974540", "display_phone": "(212) 997-4540", "distance": 1452.4289910893299}, {"id": "vjubSxmdG_HoBBgd39geBw", "alias": "ninos-46-new-york", "name": "Nino's 46", "image_url": "https://s3-media4.fl.yelpcdn.com/bphoto/wFy83D_d5e89zMGcO5omWg/o.jpg", "is_closed": false, "url": "https://www.yelp.com/biz/ninos-46-new-york?adjust_creative=9gNmiWYX8uTbFBeTTvJMdA&utm_campaign=yelp_api_v3&utm_medium=api_v3_business_search&utm_source=9gNmiWYX8uTbFBeTTvJMdA", "review_count": 1354, "categories": [{"alias": "italian", "title": "Italian"}, {"alias": "gluten_free", "title": "Gluten-Free"}, {"alias": "pizza", "title": "Pizza"}], "rating": 4.0, "coordinates": {"latitude": 40.7569046125342, "longitude": -73.980516}, "transactions": ["restaurant_reservation", "delivery", "pickup"], "price": "$$", "location": {"address1": "39 W 46th St", "address2": null, "address3": "", "city": "New York", "zip_code": "10036", "country": "US", "state": "NY", "display_address": ["39 W 46th St", "New York, NY 10036"]}, "phone": "+12127194015", "display_phone": "(212) 719-4015", "distance": 955.5582603257764}, {"id": "16ZnHpuaaBt92XWeJHCC5A", "alias": "olio-e-pi\u00f9-new-york-7", "name": "Olio e Pi\u00f9", "image_url": "https://s3-media3.fl.yelpcdn.com/bphoto/Nn4I1SG0pYmqCyJPlArYOQ/o.jpg", "is_closed": false, "url": "https://www.yelp.com/biz/olio-e-pi%C3%B9-new-york-7?adjust_creative=9gNmiWYX8uTbFBeTTvJMdA&utm_campaign=yelp_api_v3&utm_medium=api_v3_business_search&utm_source=9gNmiWYX8uTbFBeTTvJMdA", "review_count": 4035, "categories": [{"alias": "pizza", "title": "Pizza"}, {"alias": "italian", "title": "Italian"}, {"alias": "cocktailbars", "title": "Cocktail Bars"}], "rating": 4.5, "coordinates": {"latitude": 40.733798036104304, "longitude": -73.99977392649927}, "transactions": ["delivery", "pickup"], "price": "$$", "location": {"address1": "3 Greenwich Ave", "address2": null, "address3": "", "city": "New York", "zip_code": "10014", "country": "US", "state": "NY", "display_address": ["3 Greenwich Ave", "New York, NY 10014"]}, "phone": "+12122436546", "display_phone": "(212) 243-6546", "distance": 3799.3053857408804}, {"id": "OAqsZMbjv66nOMqlimnYuQ", "alias": "uva-new-york", "name": "Uva", "image_url": "https://s3-media2.fl.yelpcdn.com/bphoto/Dv_IaSo7QTUrRRtclijk2w/o.jpg", "is_closed": false, "url": "https://www.yelp.com/biz/uva-new-york?adjust_creative=9gNmiWYX8uTbFBeTTvJMdA&utm_campaign=yelp_api_v3&utm_medium=api_v3_business_search&utm_source=9gNmiWYX8uTbFBeTTvJMdA", "review_count": 2702, "categories": [{"alias": "italian", "title": "Italian"}, {"alias": "wine_bars", "title": "Wine Bars"}, {"alias": "pizza", "title": "Pizza"}], "rating": 4.0, "coordinates": {"latitude": 40.77219299003591, "longitude": -73.95561517222123}, "transactions": ["restaurant_reservation", "delivery", "pickup"], "price": "$$$", "location": {"address1": "1486 2nd Ave", "address2": null, "address3": "", "city": "New York", "zip_code": "10075", "country": "US", "state": "NY", "display_address": ["1486 2nd Ave", "New York, NY 10075"]}, "phone": "+12124724552", "display_phone": "(212) 472-4552", "distance": 1864.78437788453}, {"id": "OWNmOq-TAsHjGcYdCVclSw", "alias": "osteria-la-baia-new-york", "name": "Osteria La Baia", "image_url": "https://s3-media3.fl.yelpcdn.com/bphoto/vvnwV1X3WSSE2JJAHN4Dqw/o.jpg", "is_closed": false, "url": "https://www.yelp.com/biz/osteria-la-baia-new-york?adjust_creative=9gNmiWYX8uTbFBeTTvJMdA&utm_campaign=yelp_api_v3&utm_medium=api_v3_business_search&utm_source=9gNmiWYX8uTbFBeTTvJMdA", "review_count": 69, "categories": [{"alias": "italian", "title": "Italian"}], "rating": 4.5, "coordinates": {"latitude": 40.76189587672743, "longitude": -73.9806749}, "transactions": [], "location": {"address1": "129 W 52nd St", "address2": null, "address3": "", "city": "New York", "zip_code": "10019", "country": "US", "state": "NY", "display_address": ["129 W 52nd St", "New York, NY 10019"]}, "phone": "+19176719898", "display_phone": "(917) 671-9898", "distance": 982.7063497672891}, {"id": "22nKUyCIbpnzR6R3_g1ptQ", "alias": "carmines-italian-restaurant-times-square-new-york-5", "name": "Carmine's Italian Restaurant - Times Square", "image_url": "https://s3-media1.fl.yelpcdn.com/bphoto/0UszeEYPWI-RIk0Ak6HtVQ/o.jpg", "is_closed": false, "url": "https://www.yelp.com/biz/carmines-italian-restaurant-times-square-new-york-5?adjust_creative=9gNmiWYX8uTbFBeTTvJMdA&utm_campaign=yelp_api_v3&utm_medium=api_v3_business_search&utm_source=9gNmiWYX8uTbFBeTTvJMdA", "review_count": 4423, "categories": [{"alias": "italian", "title": "Italian"}, {"alias": "venues", "title": "Venues & Event Spaces"}], "rating": 4.0, "coordinates": {"latitude": 40.75749848725768, "longitude": -73.98665333142026}, "transactions": ["delivery", "pickup"], "price": "$$", "location": {"address1": "200 W 44th St", "address2": "", "address3": "", "city": "New York", "zip_code": "10036", "country": "US", "state": "NY", "display_address": ["200 W 44th St", "New York, NY 10036"]}, "phone": "+12122213800", "display_phone": "(212) 221-3800", "distance": 1450.5628509441922}, {"id": "562aZEpTDdYKDe5hWuDyFA", "alias": "la-gioconda-new-york", "name": "La Gioconda", "image_url": "https://s3-media2.fl.yelpcdn.com/bphoto/spYlfLeNiF-OEWc63zbJCQ/o.jpg", "is_closed": false, "url": "https://www.yelp.com/biz/la-gioconda-new-york?adjust_creative=9gNmiWYX8uTbFBeTTvJMdA&utm_campaign=yelp_api_v3&utm_medium=api_v3_business_search&utm_source=9gNmiWYX8uTbFBeTTvJMdA", "review_count": 194, "categories": [{"alias": "italian", "title": "Italian"}, {"alias": "wine_bars", "title": "Wine Bars"}, {"alias": "tapasmallplates", "title": "Tapas/Small Plates"}], "rating": 4.0, "coordinates": {"latitude": 40.75716, "longitude": -73.96833}, "transactions": ["restaurant_reservation", "delivery", "pickup"], "price": "$$", "location": {"address1": "226 E 53rd St", "address2": "", "address3": "", "city": "New York", "zip_code": "10022", "country": "US", "state": "NY", "display_address": ["226 E 53rd St", "New York, NY 10022"]}, "phone": "+12123713536", "display_phone": "(212) 371-3536", "distance": 247.31596906700165}, {"id": "5TX0X8w5ssIACU_pnBEq6g", "alias": "tonys-di-napoli-new-york-4", "name": "Tony's Di Napoli", "image_url": "https://s3-media2.fl.yelpcdn.com/bphoto/oiswc3JuBx8TGXROs56aMA/o.jpg", "is_closed": false, "url": "https://www.yelp.com/biz/tonys-di-napoli-new-york-4?adjust_creative=9gNmiWYX8uTbFBeTTvJMdA&utm_campaign=yelp_api_v3&utm_medium=api_v3_business_search&utm_source=9gNmiWYX8uTbFBeTTvJMdA", "review_count": 2487, "categories": [{"alias": "italian", "title": "Italian"}, {"alias": "wine_bars", "title": "Wine Bars"}, {"alias": "seafood", "title": "Seafood"}], "rating": 4.0, "coordinates": {"latitude": 40.75641, "longitude": -73.98547}, "transactions": ["delivery", "pickup"], "price": "$$$", "location": {"address1": "147 W 43rd St", "address2": "", "address3": "", "city": "New York", "zip_code": "10036", "country": "US", "state": "NY", "display_address": ["147 W 43rd St", "New York, NY 10036"]}, "phone": "+12122210100", "display_phone": "(212) 221-0100", "distance": 1369.1083702941962}, {"id": "GjEE8vvjqb7eeHA3BGNxAw", "alias": "barolo-east-new-york", "name": "Barolo East", "image_url": "https://s3-media2.fl.yelpcdn.com/bphoto/2vWA0SP2qR8V35pIVpOY9g/o.jpg", "is_closed": false, "url": "https://www.yelp.com/biz/barolo-east-new-york?adjust_creative=9gNmiWYX8uTbFBeTTvJMdA&utm_campaign=yelp_api_v3&utm_medium=api_v3_business_search&utm_source=9gNmiWYX8uTbFBeTTvJMdA", "review_count": 247, "categories": [{"alias": "italian", "title": "Italian"}], "rating": 4.5, "coordinates": {"latitude": 40.75481, "longitude": -73.97059}, "transactions": ["restaurant_reservation", "delivery", "pickup"], "price": "$$$", "location": {"address1": "214 E 49th St", "address2": "", "address3": null, "city": "New York", "zip_code": "10017", "country": "US", "state": "NY", "display_address": ["214 E 49th St", "New York, NY 10017"]}, "phone": "+12127545710", "display_phone": "(212) 754-5710", "distance": 498.77707127190075}, {"id": "TzVVPWK_4dhdSEpNqZwIhQ", "alias": "toscana-49-new-york", "name": "Toscana 49", "image_url": "https://s3-media2.fl.yelpcdn.com/bphoto/fIjHQVFX3evMCBJ0VhbkCA/o.jpg", "is_closed": false, "url": "https://www.yelp.com/biz/toscana-49-new-york?adjust_creative=9gNmiWYX8uTbFBeTTvJMdA&utm_campaign=yelp_api_v3&utm_medium=api_v3_business_search&utm_source=9gNmiWYX8uTbFBeTTvJMdA", "review_count": 325, "categories": [{"alias": "italian", "title": "Italian"}], "rating": 4.0, "coordinates": {"latitude": 40.7556957079225, "longitude": -73.9717184007168}, "transactions": ["delivery", "pickup"], "price": "$$$", "location": {"address1": "143 East 49 St", "address2": "", "address3": "", "city": "New York", "zip_code": "10017", "country": "US", "state": "NY", "display_address": ["143 East 49 St", "New York, NY 10017"]}, "phone": "+12122560190", "display_phone": "(212) 256-0190", "distance": 426.9355776481454}, {"id": "rFeNJtqgMWf2tWy-RB6jgg", "alias": "torrisi-new-york-2", "name": "Torrisi", "image_url": "https://s3-media3.fl.yelpcdn.com/bphoto/16FPs4blSzOjgvhAKJoz6w/o.jpg", "is_closed": false, "url": "https://www.yelp.com/biz/torrisi-new-york-2?adjust_creative=9gNmiWYX8uTbFBeTTvJMdA&utm_campaign=yelp_api_v3&utm_medium=api_v3_business_search&utm_source=9gNmiWYX8uTbFBeTTvJMdA", "review_count": 25, "categories": [{"alias": "italian", "title": "Italian"}], "rating": 4.5, "coordinates": {"latitude": 40.7246154, "longitude": -73.9952614}, "transactions": [], "location": {"address1": "275 Mulberry St", "address2": null, "address3": "", "city": "New York", "zip_code": "10012", "country": "US", "state": "NY", "display_address": ["275 Mulberry St", "New York, NY 10012"]}, "phone": "+12122543000", "display_phone": "(212) 254-3000", "distance": 4449.163524908264}, {"id": "V3USzFEGhuoXez4G2Rk11A", "alias": "tavola-new-york", "name": "Tavola", "image_url": "https://s3-media1.fl.yelpcdn.com/bphoto/HhhlKQchXV9dhvgGgNH1Bw/o.jpg", "is_closed": false, "url": "https://www.yelp.com/biz/tavola-new-york?adjust_creative=9gNmiWYX8uTbFBeTTvJMdA&utm_campaign=yelp_api_v3&utm_medium=api_v3_business_search&utm_source=9gNmiWYX8uTbFBeTTvJMdA", "review_count": 1239, "categories": [{"alias": "italian", "title": "Italian"}, {"alias": "pizza", "title": "Pizza"}, {"alias": "wine_bars", "title": "Wine Bars"}], "rating": 4.0, "coordinates": {"latitude": 40.755403, "longitude": -73.994516}, "transactions": ["restaurant_reservation", "delivery", "pickup"], "price": "$$", "location": {"address1": "488 9th Ave", "address2": "", "address3": "", "city": "New York", "zip_code": "10018", "country": "US", "state": "NY", "display_address": ["488 9th Ave", "New York, NY 10018"]}, "phone": "+12122731181", "display_phone": "(212) 273-1181", "distance": 2142.271898883068}, {"id": "8oO6j7AlnAbMSJs9Oj9GIw", "alias": "osteria-delbianco-new-york", "name": "Osteria Delbianco", "image_url": "https://s3-media1.fl.yelpcdn.com/bphoto/5Zg6JXS34dTIbRakd0ieaA/o.jpg", "is_closed": false, "url": "https://www.yelp.com/biz/osteria-delbianco-new-york?adjust_creative=9gNmiWYX8uTbFBeTTvJMdA&utm_campaign=yelp_api_v3&utm_medium=api_v3_business_search&utm_source=9gNmiWYX8uTbFBeTTvJMdA", "review_count": 172, "categories": [{"alias": "italian", "title": "Italian"}], "rating": 4.5, "coordinates": {"latitude": 40.7573689002, "longitude": -73.9764462233}, "transactions": ["restaurant_reservation", "delivery", "pickup"], "price": "$$$", "location": {"address1": "22 East 49th St", "address2": null, "address3": "", "city": "New York", "zip_code": "10017", "country": "US", "state": "NY", "display_address": ["22 East 49th St", "New York, NY 10017"]}, "phone": "+12128385972", "display_phone": "(212) 838-5972", "distance": 612.6667155016465}, {"id": "JLpEKUYAtzBRQwsUL3RPIA", "alias": "il-corso-new-york", "name": "Il Corso", "image_url": "https://s3-media1.fl.yelpcdn.com/bphoto/Kaq43p0ueSp872npX-zITw/o.jpg", "is_closed": false, "url": "https://www.yelp.com/biz/il-corso-new-york?adjust_creative=9gNmiWYX8uTbFBeTTvJMdA&utm_campaign=yelp_api_v3&utm_medium=api_v3_business_search&utm_source=9gNmiWYX8uTbFBeTTvJMdA", "review_count": 422, "categories": [{"alias": "italian", "title": "Italian"}, {"alias": "wine_bars", "title": "Wine Bars"}], "rating": 4.5, "coordinates": {"latitude": 40.762441, "longitude": -73.977206}, "transactions": ["delivery"], "price": "$$$", "location": {"address1": "54 W 55th St", "address2": null, "address3": "", "city": "New York", "zip_code": "10019", "country": "US", "state": "NY", "display_address": ["54 W 55th St", "New York, NY 10019"]}, "phone": "+12129571500", "display_phone": "(212) 957-1500", "distance": 737.8116222847772}, {"id": "MOwB9YYd-Ko6nVgSB-ltQw", "alias": "briciola-new-york", "name": "Briciola", "image_url": "https://s3-media4.fl.yelpcdn.com/bphoto/MDN82ulW129NxVVWRD_GqA/o.jpg", "is_closed": false, "url": "https://www.yelp.com/biz/briciola-new-york?adjust_creative=9gNmiWYX8uTbFBeTTvJMdA&utm_campaign=yelp_api_v3&utm_medium=api_v3_business_search&utm_source=9gNmiWYX8uTbFBeTTvJMdA", "review_count": 982, "categories": [{"alias": "italian", "title": "Italian"}, {"alias": "wine_bars", "title": "Wine Bars"}, {"alias": "tapas", "title": "Tapas Bars"}], "rating": 4.0, "coordinates": {"latitude": 40.7637997047278, "longitude": -73.9880919456482}, "transactions": ["delivery", "pickup"], "price": "$$", "location": {"address1": "370 W 51st St", "address2": "", "address3": "", "city": "New York", "zip_code": "10019", "country": "US", "state": "NY", "display_address": ["370 W 51st St", "New York, NY 10019"]}, "phone": "+16466785763", "display_phone": "(646) 678-5763", "distance": 1642.2357763465468}, {"id": "lgFApPVpbXnsIFw1CRJORw", "alias": "cellini-restaurant-new-york", "name": "Cellini Restaurant", "image_url": "https://s3-media1.fl.yelpcdn.com/bphoto/nUESxCY4cgiV-4bJtDpF8g/o.jpg", "is_closed": false, "url": "https://www.yelp.com/biz/cellini-restaurant-new-york?adjust_creative=9gNmiWYX8uTbFBeTTvJMdA&utm_campaign=yelp_api_v3&utm_medium=api_v3_business_search&utm_source=9gNmiWYX8uTbFBeTTvJMdA", "review_count": 179, "categories": [{"alias": "italian", "title": "Italian"}], "rating": 4.0, "coordinates": {"latitude": 40.760115, "longitude": -73.972686}, "transactions": [], "price": "$$$", "location": {"address1": "65 E 54th St", "address2": "", "address3": "", "city": "New York", "zip_code": "10022", "country": "US", "state": "NY", "display_address": ["65 E 54th St", "New York, NY 10022"]}, "phone": "+12127511555", "display_phone": "(212) 751-1555", "distance": 283.18382006169315}, {"id": "rp8S7scxOkVVeG7dNneMGQ", "alias": "l-artusi-new-york", "name": "L'Artusi", "image_url": "https://s3-media2.fl.yelpcdn.com/bphoto/mf-sqEXHdm6aLo3i3LJsfQ/o.jpg", "is_closed": false, "url": "https://www.yelp.com/biz/l-artusi-new-york?adjust_creative=9gNmiWYX8uTbFBeTTvJMdA&utm_campaign=yelp_api_v3&utm_medium=api_v3_business_search&utm_source=9gNmiWYX8uTbFBeTTvJMdA", "review_count": 2244, "categories": [{"alias": "italian", "title": "Italian"}, {"alias": "cocktailbars", "title": "Cocktail Bars"}], "rating": 4.5, "coordinates": {"latitude": 40.73372, "longitude": -74.00513}, "transactions": ["delivery", "pickup"], "price": "$$$", "location": {"address1": "228 W 10th St", "address2": "", "address3": "", "city": "New York", "zip_code": "10014", "country": "US", "state": "NY", "display_address": ["228 W 10th St", "New York, NY 10014"]}, "phone": "+12122555757", "display_phone": "(212) 255-5757", "distance": 4120.568867022396}, {"id": "AUifp6IDKzmorCM6vY2fug", "alias": "pepe-giallo-new-york", "name": "Pepe Giallo", "image_url": "https://s3-media3.fl.yelpcdn.com/bphoto/0hZOcrrtCTOMUnlKHU5gfQ/o.jpg", "is_closed": false, "url": "https://www.yelp.com/biz/pepe-giallo-new-york?adjust_creative=9gNmiWYX8uTbFBeTTvJMdA&utm_campaign=yelp_api_v3&utm_medium=api_v3_business_search&utm_source=9gNmiWYX8uTbFBeTTvJMdA", "review_count": 760, "categories": [{"alias": "italian", "title": "Italian"}], "rating": 4.0, "coordinates": {"latitude": 40.7468940064083, "longitude": -74.0049896784992}, "transactions": ["delivery", "pickup"], "price": "$$", "location": {"address1": "195 10th Ave", "address2": null, "address3": "", "city": "New York", "zip_code": "10011", "country": "US", "state": "NY", "display_address": ["195 10th Ave", "New York, NY 10011"]}, "phone": "+12122426055", "display_phone": "(212) 242-6055", "distance": 3280.8733316329776}, {"id": "Ve6GVzzJpR5QIIPdcn6ViQ", "alias": "mercato-new-york", "name": "Mercato", "image_url": "https://s3-media3.fl.yelpcdn.com/bphoto/LTDeQgRvclFWi5cfXOr3qg/o.jpg", "is_closed": false, "url": "https://www.yelp.com/biz/mercato-new-york?adjust_creative=9gNmiWYX8uTbFBeTTvJMdA&utm_campaign=yelp_api_v3&utm_medium=api_v3_business_search&utm_source=9gNmiWYX8uTbFBeTTvJMdA", "review_count": 1027, "categories": [{"alias": "italian", "title": "Italian"}, {"alias": "cocktailbars", "title": "Cocktail Bars"}, {"alias": "desserts", "title": "Desserts"}], "rating": 4.0, "coordinates": {"latitude": 40.75619, "longitude": -73.9937}, "transactions": ["delivery", "pickup"], "price": "$$", "location": {"address1": "352 W 39th St", "address2": "", "address3": "", "city": "New York", "zip_code": "10018", "country": "US", "state": "NY", "display_address": ["352 W 39th St", "New York, NY 10018"]}, "phone": "+12126432000", "display_phone": "(212) 643-2000", "distance": 2056.8132711305157}, {"id": "yB4ziqFM_7V8JxJas7CHfA", "alias": "ulivo-new-york-2", "name": "Ulivo", "image_url": "https://s3-media2.fl.yelpcdn.com/bphoto/SeqmtuN6hXsstVpV53pIpA/o.jpg", "is_closed": false, "url": "https://www.yelp.com/biz/ulivo-new-york-2?adjust_creative=9gNmiWYX8uTbFBeTTvJMdA&utm_campaign=yelp_api_v3&utm_medium=api_v3_business_search&utm_source=9gNmiWYX8uTbFBeTTvJMdA", "review_count": 366, "categories": [{"alias": "italian", "title": "Italian"}, {"alias": "cocktailbars", "title": "Cocktail Bars"}], "rating": 4.0, "coordinates": {"latitude": 40.7447371960713, "longitude": -73.9880339428782}, "transactions": ["delivery", "pickup"], "price": "$$", "location": {"address1": "4 W 28th St", "address2": "", "address3": "", "city": "New York", "zip_code": "10001", "country": "US", "state": "NY", "display_address": ["4 W 28th St", "New York, NY 10001"]}, "phone": "+12126848000", "display_phone": "(212) 684-8000", "distance": 2234.9877303322496}, {"id": "rpVX-o82EEOX8ZDnM28a_Q", "alias": "bistango-new-york-8", "name": "Bistango", "image_url": "https://s3-media4.fl.yelpcdn.com/bphoto/wHZfIVXjZqWPOa3qnXv7Fw/o.jpg", "is_closed": false, "url": "https://www.yelp.com/biz/bistango-new-york-8?adjust_creative=9gNmiWYX8uTbFBeTTvJMdA&utm_campaign=yelp_api_v3&utm_medium=api_v3_business_search&utm_source=9gNmiWYX8uTbFBeTTvJMdA", "review_count": 344, "categories": [{"alias": "italian", "title": "Italian"}, {"alias": "gluten_free", "title": "Gluten-Free"}, {"alias": "cocktailbars", "title": "Cocktail Bars"}], "rating": 4.0, "coordinates": {"latitude": 40.75628, "longitude": -73.97144}, "transactions": ["restaurant_reservation", "delivery", "pickup"], "price": "$$", "location": {"address1": "145 E 50th St", "address2": "", "address3": "The Kimberly Hotel", "city": "New York", "zip_code": "10022", "country": "US", "state": "NY", "display_address": ["145 E 50th St", "The Kimberly Hotel", "New York, NY 10022"]}, "phone": "+12128884121", "display_phone": "(212) 888-4121", "distance": 347.5579128517892}, {"id": "5F9kZPnAleDYqCeCyvGJPA", "alias": "bad-roman-new-york", "name": "Bad Roman", "image_url": "https://s3-media3.fl.yelpcdn.com/bphoto/cU7SyNOn3RU9axmGoyZ4SQ/o.jpg", "is_closed": false, "url": "https://www.yelp.com/biz/bad-roman-new-york?adjust_creative=9gNmiWYX8uTbFBeTTvJMdA&utm_campaign=yelp_api_v3&utm_medium=api_v3_business_search&utm_source=9gNmiWYX8uTbFBeTTvJMdA", "review_count": 18, "categories": [{"alias": "newamerican", "title": "American (New)"}, {"alias": "italian", "title": "Italian"}], "rating": 4.0, "coordinates": {"latitude": 40.768494, "longitude": -73.983072}, "transactions": [], "location": {"address1": "10 Columbus Cir", "address2": "", "address3": null, "city": "New York", "zip_code": "10019", "country": "US", "state": "NY", "display_address": ["10 Columbus Cir", "New York, NY 10019"]}, "phone": "", "display_phone": "", "distance": 1549.7505573006727}, {"id": "26emJlm1YMFyOCezfgVk4g", "alias": "da-raffaele-new-york", "name": "Da Raffaele", "image_url": "https://s3-media3.fl.yelpcdn.com/bphoto/qQ1oAz1LA54i9i_kGjrzhA/o.jpg", "is_closed": false, "url": "https://www.yelp.com/biz/da-raffaele-new-york?adjust_creative=9gNmiWYX8uTbFBeTTvJMdA&utm_campaign=yelp_api_v3&utm_medium=api_v3_business_search&utm_source=9gNmiWYX8uTbFBeTTvJMdA", "review_count": 218, "categories": [{"alias": "italian", "title": "Italian"}], "rating": 4.5, "coordinates": {"latitude": 40.7535386913133, "longitude": -73.9666010811925}, "transactions": ["delivery"], "price": "$$", "location": {"address1": "883 First Ave", "address2": "", "address3": "", "city": "New York", "zip_code": "10022", "country": "US", "state": "NY", "display_address": ["883 First Ave", "New York, NY 10022"]}, "phone": "+16468959849", "display_phone": "(646) 895-9849", "distance": 674.8701930843818}, {"id": "LXdblKc5g1Dp17xiV-Am1w", "alias": "trattoria-dellarte-new-york", "name": "Trattoria Dell'Arte", "image_url": "https://s3-media4.fl.yelpcdn.com/bphoto/YLzbKuDi2qwkFk_oBTo9BA/o.jpg", "is_closed": false, "url": "https://www.yelp.com/biz/trattoria-dellarte-new-york?adjust_creative=9gNmiWYX8uTbFBeTTvJMdA&utm_campaign=yelp_api_v3&utm_medium=api_v3_business_search&utm_source=9gNmiWYX8uTbFBeTTvJMdA", "review_count": 1161, "categories": [{"alias": "italian", "title": "Italian"}], "rating": 4.0, "coordinates": {"latitude": 40.76545990643915, "longitude": -73.98053136970677}, "transactions": ["delivery", "pickup"], "price": "$$$", "location": {"address1": "900 7th Ave", "address2": "", "address3": "", "city": "New York", "zip_code": "10019", "country": "US", "state": "NY", "display_address": ["900 7th Ave", "New York, NY 10019"]}, "phone": "+12122459800", "display_phone": "(212) 245-9800", "distance": 1157.6217394043324}, {"id": "z7H9ApIGopnDnQaglnPTzg", "alias": "allora-ristorante-new-york-2", "name": "Allora Ristorante", "image_url": "https://s3-media1.fl.yelpcdn.com/bphoto/PFMCcufxzzNRQ6JOVX5jFQ/o.jpg", "is_closed": false, "url": "https://www.yelp.com/biz/allora-ristorante-new-york-2?adjust_creative=9gNmiWYX8uTbFBeTTvJMdA&utm_campaign=yelp_api_v3&utm_medium=api_v3_business_search&utm_source=9gNmiWYX8uTbFBeTTvJMdA", "review_count": 754, "categories": [{"alias": "italian", "title": "Italian"}, {"alias": "bars", "title": "Bars"}], "rating": 4.5, "coordinates": {"latitude": 40.75433, "longitude": -73.97277}, "transactions": ["restaurant_reservation", "delivery"], "price": "$$$", "location": {"address1": "145 E 47th St", "address2": null, "address3": "", "city": "New York", "zip_code": "10017", "country": "US", "state": "NY", "display_address": ["145 E 47th St", "New York, NY 10017"]}, "phone": "+12127549800", "display_phone": "(212) 754-9800", "distance": 589.0857047204463}, {"id": "aLM9irVFlNoVlS9dGuW_Lg", "alias": "amata-new-york-2", "name": "Amata", "image_url": "https://s3-media2.fl.yelpcdn.com/bphoto/068_7uYCtcBWco0HtzyRWw/o.jpg", "is_closed": false, "url": "https://www.yelp.com/biz/amata-new-york-2?adjust_creative=9gNmiWYX8uTbFBeTTvJMdA&utm_campaign=yelp_api_v3&utm_medium=api_v3_business_search&utm_source=9gNmiWYX8uTbFBeTTvJMdA", "review_count": 94, "categories": [{"alias": "italian", "title": "Italian"}], "rating": 4.0, "coordinates": {"latitude": 40.759426, "longitude": -73.967063}, "transactions": ["delivery"], "price": "$$$", "location": {"address1": "209 E 56th St", "address2": "", "address3": "", "city": "New York", "zip_code": "10022", "country": "US", "state": "NY", "display_address": ["209 E 56th St", "New York, NY 10022"]}, "phone": "+12123080830", "display_phone": "(212) 308-0830", "distance": 206.39700049711294}, {"id": "HpxYBu1ARzOGvuUcLJe54g", "alias": "giardino-54-new-york", "name": "Giardino 54", "image_url": "https://s3-media3.fl.yelpcdn.com/bphoto/c2ryLJ0qvZqNTIgJevQ9YQ/o.jpg", "is_closed": false, "url": "https://www.yelp.com/biz/giardino-54-new-york?adjust_creative=9gNmiWYX8uTbFBeTTvJMdA&utm_campaign=yelp_api_v3&utm_medium=api_v3_business_search&utm_source=9gNmiWYX8uTbFBeTTvJMdA", "review_count": 195, "categories": [{"alias": "wine_bars", "title": "Wine Bars"}, {"alias": "italian", "title": "Italian"}, {"alias": "cocktailbars", "title": "Cocktail Bars"}], "rating": 4.5, "coordinates": {"latitude": 40.7660476, "longitude": -73.987591}, "transactions": ["delivery", "pickup"], "price": "$$", "location": {"address1": "400 1/2 W 54th St", "address2": "", "address3": null, "city": "New York", "zip_code": "10019", "country": "US", "state": "NY", "display_address": ["400 1/2 W 54th St", "New York, NY 10019"]}, "phone": "+16467264575", "display_phone": "(646) 726-4575", "distance": 1699.0007242022727}, {"id": "hzPBADaUBQEL30MGrvKsww", "alias": "il-tinello-ristorante-italiano-new-york", "name": "Il Tinello Ristorante Italiano", "image_url": "https://s3-media1.fl.yelpcdn.com/bphoto/p8lWDm0hSpuw1TD4WUgi6A/o.jpg", "is_closed": false, "url": "https://www.yelp.com/biz/il-tinello-ristorante-italiano-new-york?adjust_creative=9gNmiWYX8uTbFBeTTvJMdA&utm_campaign=yelp_api_v3&utm_medium=api_v3_business_search&utm_source=9gNmiWYX8uTbFBeTTvJMdA", "review_count": 318, "categories": [{"alias": "italian", "title": "Italian"}], "rating": 4.5, "coordinates": {"latitude": 40.76256, "longitude": -73.97566}, "transactions": ["delivery", "pickup"], "price": "$$$$", "location": {"address1": "16 W 56th St", "address2": "", "address3": "", "city": "New York", "zip_code": "10019", "country": "US", "state": "NY", "display_address": ["16 W 56th St", "New York, NY 10019"]}, "phone": "+12122454388", "display_phone": "(212) 245-4388", "distance": 636.7505984782514}, {"id": "7cjT33LfYSk7vrRdEaSr4w", "alias": "angeletto-restaurant-new-york", "name": "Angeletto Restaurant", "image_url": "https://s3-media4.fl.yelpcdn.com/bphoto/6uaxZoW81RMhxJ1-8XBHOA/o.jpg", "is_closed": false, "url": "https://www.yelp.com/biz/angeletto-restaurant-new-york?adjust_creative=9gNmiWYX8uTbFBeTTvJMdA&utm_campaign=yelp_api_v3&utm_medium=api_v3_business_search&utm_source=9gNmiWYX8uTbFBeTTvJMdA", "review_count": 291, "categories": [{"alias": "italian", "title": "Italian"}, {"alias": "cocktailbars", "title": "Cocktail Bars"}], "rating": 4.5, "coordinates": {"latitude": 40.753188, "longitude": -73.969365}, "transactions": ["restaurant_reservation", "delivery", "pickup"], "price": "$$$", "location": {"address1": "890 2nd Ave", "address2": "", "address3": null, "city": "New York", "zip_code": "10017", "country": "US", "state": "NY", "display_address": ["890 2nd Ave", "New York, NY 10017"]}, "phone": "+12122351227", "display_phone": "(212) 235-1227", "distance": 665.9232942625828}, {"id": "IAbOg5Kd5AynOcbI8vGTwQ", "alias": "aperitivo-new-york-2", "name": "Aperitivo", "image_url": "https://s3-media2.fl.yelpcdn.com/bphoto/CDzgOce61HrGWXmuNWrgyA/o.jpg", "is_closed": false, "url": "https://www.yelp.com/biz/aperitivo-new-york-2?adjust_creative=9gNmiWYX8uTbFBeTTvJMdA&utm_campaign=yelp_api_v3&utm_medium=api_v3_business_search&utm_source=9gNmiWYX8uTbFBeTTvJMdA", "review_count": 53, "categories": [{"alias": "italian", "title": "Italian"}, {"alias": "pizza", "title": "Pizza"}], "rating": 4.5, "coordinates": {"latitude": 40.76431314475945, "longitude": -73.9717568}, "transactions": ["delivery", "pickup"], "location": {"address1": "14 E 60th St", "address2": null, "address3": "", "city": "New York", "zip_code": "10022", "country": "US", "state": "NY", "display_address": ["14 E 60th St", "New York, NY 10022"]}, "phone": "+16466939990", "display_phone": "(646) 693-9990", "distance": 600.2159448190688}, {"id": "3qIISjUYn1tbqHXi7nCLXg", "alias": "sofia-wine-bar-new-york", "name": "Sofia Wine Bar", "image_url": "https://s3-media2.fl.yelpcdn.com/bphoto/T7i7mqDiokMLMP9YFapfMw/o.jpg", "is_closed": false, "url": "https://www.yelp.com/biz/sofia-wine-bar-new-york?adjust_creative=9gNmiWYX8uTbFBeTTvJMdA&utm_campaign=yelp_api_v3&utm_medium=api_v3_business_search&utm_source=9gNmiWYX8uTbFBeTTvJMdA", "review_count": 736, "categories": [{"alias": "italian", "title": "Italian"}, {"alias": "wine_bars", "title": "Wine Bars"}], "rating": 4.0, "coordinates": {"latitude": 40.75502, "longitude": -73.96913}, "transactions": ["delivery", "pickup"], "price": "$$", "location": {"address1": "242 E 50th St", "address2": null, "address3": "", "city": "New York", "zip_code": "10022", "country": "US", "state": "NY", "display_address": ["242 E 50th St", "New York, NY 10022"]}, "phone": "+12128888660", "display_phone": "(212) 888-8660", "distance": 465.1610575521021}, {"id": "h37t9rA06Sr4EetJjKrfzw", "alias": "don-angie-new-york", "name": "Don Angie", "image_url": "https://s3-media2.fl.yelpcdn.com/bphoto/onJX6_vaMPHXUqIbMrq79A/o.jpg", "is_closed": false, "url": "https://www.yelp.com/biz/don-angie-new-york?adjust_creative=9gNmiWYX8uTbFBeTTvJMdA&utm_campaign=yelp_api_v3&utm_medium=api_v3_business_search&utm_source=9gNmiWYX8uTbFBeTTvJMdA", "review_count": 657, "categories": [{"alias": "italian", "title": "Italian"}, {"alias": "newamerican", "title": "American (New)"}], "rating": 4.5, "coordinates": {"latitude": 40.73778, "longitude": -74.00197}, "transactions": ["delivery"], "price": "$$$", "location": {"address1": "103 Greenwich Ave", "address2": "", "address3": null, "city": "New York", "zip_code": "10014", "country": "US", "state": "NY", "display_address": ["103 Greenwich Ave", "New York, NY 10014"]}, "phone": "+12128898884", "display_phone": "(212) 889-8884", "distance": 3623.913624097544}, {"id": "z8TIY5xLeQptbXxZp3LpsA", "alias": "felice-56-new-york", "name": "Felice 56", "image_url": "https://s3-media2.fl.yelpcdn.com/bphoto/5lW2CdoL2i0KqjsGcevZKg/o.jpg", "is_closed": false, "url": "https://www.yelp.com/biz/felice-56-new-york?adjust_creative=9gNmiWYX8uTbFBeTTvJMdA&utm_campaign=yelp_api_v3&utm_medium=api_v3_business_search&utm_source=9gNmiWYX8uTbFBeTTvJMdA", "review_count": 88, "categories": [{"alias": "italian", "title": "Italian"}, {"alias": "wine_bars", "title": "Wine Bars"}], "rating": 4.5, "coordinates": {"latitude": 40.762862, "longitude": -73.975396}, "transactions": ["delivery", "pickup"], "price": "$$$", "location": {"address1": "15 W 56th St", "address2": null, "address3": null, "city": "New York", "zip_code": "10019", "country": "US", "state": "NY", "display_address": ["15 W 56th St", "New York, NY 10019"]}, "phone": "+16464377272", "display_phone": "(646) 437-7272", "distance": 638.5313322403903}, {"id": "5zcZZJhriNQ2R92r9drxug", "alias": "il-postino-new-york-3", "name": "Il Postino", "image_url": "https://s3-media1.fl.yelpcdn.com/bphoto/Qxq7MWU1czjOKHZlc-S7Fg/o.jpg", "is_closed": false, "url": "https://www.yelp.com/biz/il-postino-new-york-3?adjust_creative=9gNmiWYX8uTbFBeTTvJMdA&utm_campaign=yelp_api_v3&utm_medium=api_v3_business_search&utm_source=9gNmiWYX8uTbFBeTTvJMdA", "review_count": 145, "categories": [{"alias": "italian", "title": "Italian"}, {"alias": "seafood", "title": "Seafood"}, {"alias": "soup", "title": "Soup"}], "rating": 4.0, "coordinates": {"latitude": 40.76374, "longitude": -73.96763}, "transactions": ["delivery", "pickup"], "price": "$$$$", "location": {"address1": "133 E 61st St", "address2": null, "address3": "", "city": "New York", "zip_code": "10065", "country": "US", "state": "NY", "display_address": ["133 E 61st St", "New York, NY 10065"]}, "phone": "+12126880033", "display_phone": "(212) 688-0033", "distance": 541.672969727448}, {"id": "WG639VkTjmK5dzydd1BBJA", "alias": "rubirosa-new-york-2", "name": "Rubirosa", "image_url": "https://s3-media3.fl.yelpcdn.com/bphoto/F65qqO1RNThFSHKKJ4iTRA/o.jpg", "is_closed": false, "url": "https://www.yelp.com/biz/rubirosa-new-york-2?adjust_creative=9gNmiWYX8uTbFBeTTvJMdA&utm_campaign=yelp_api_v3&utm_medium=api_v3_business_search&utm_source=9gNmiWYX8uTbFBeTTvJMdA", "review_count": 2920, "categories": [{"alias": "italian", "title": "Italian"}, {"alias": "pizza", "title": "Pizza"}], "rating": 4.5, "coordinates": {"latitude": 40.722766, "longitude": -73.996233}, "transactions": ["pickup"], "price": "$$", "location": {"address1": "235 Mulberry St", "address2": "", "address3": "", "city": "New York", "zip_code": "10012", "country": "US", "state": "NY", "display_address": ["235 Mulberry St", "New York, NY 10012"]}, "phone": "+12129650500", "display_phone": "(212) 965-0500", "distance": 4629.739253785127}, {"id": "SCQ9B9jxqNHvJKQ-RagxaA", "alias": "spes-new-york", "name": "SPES", "image_url": "https://s3-media3.fl.yelpcdn.com/bphoto/fN5JCF4cp_1UkI8hvgrLIA/o.jpg", "is_closed": false, "url": "https://www.yelp.com/biz/spes-new-york?adjust_creative=9gNmiWYX8uTbFBeTTvJMdA&utm_campaign=yelp_api_v3&utm_medium=api_v3_business_search&utm_source=9gNmiWYX8uTbFBeTTvJMdA", "review_count": 29, "categories": [{"alias": "cocktailbars", "title": "Cocktail Bars"}, {"alias": "wine_bars", "title": "Wine Bars"}, {"alias": "italian", "title": "Italian"}], "rating": 4.5, "coordinates": {"latitude": 40.72979, "longitude": -73.98274}, "transactions": [], "location": {"address1": "413 E 12th St", "address2": "", "address3": null, "city": "New York", "zip_code": "10009", "country": "US", "state": "NY", "display_address": ["413 E 12th St", "New York, NY 10009"]}, "phone": "", "display_phone": "", "distance": 3447.051407434483}, {"id": "TqNd-LKHuoYo1_mYwqiBFQ", "alias": "nonna-dora-s-new-york", "name": "Nonna Dora\u2019s", "image_url": "https://s3-media3.fl.yelpcdn.com/bphoto/ibUw-m4n1lb2zPHBkfK_Wg/o.jpg", "is_closed": false, "url": "https://www.yelp.com/biz/nonna-dora-s-new-york?adjust_creative=9gNmiWYX8uTbFBeTTvJMdA&utm_campaign=yelp_api_v3&utm_medium=api_v3_business_search&utm_source=9gNmiWYX8uTbFBeTTvJMdA", "review_count": 65, "categories": [{"alias": "pastashops", "title": "Pasta Shops"}], "rating": 4.5, "coordinates": {"latitude": 40.74440176159688, "longitude": -73.97634764480043}, "transactions": [], "location": {"address1": "606 2nd Ave", "address2": "", "address3": null, "city": "New York", "zip_code": "10016", "country": "US", "state": "NY", "display_address": ["606 2nd Ave", "New York, NY 10016"]}, "phone": "+19172616544", "display_phone": "(917) 261-6544", "distance": 1738.9485143768068}, {"id": "raqwXUBlnc0e8c7CYmxEJQ", "alias": "scarpetta-new-york", "name": "Scarpetta", "image_url": "https://s3-media1.fl.yelpcdn.com/bphoto/rSgDEOpd3JSl3llkpVu8tg/o.jpg", "is_closed": false, "url": "https://www.yelp.com/biz/scarpetta-new-york?adjust_creative=9gNmiWYX8uTbFBeTTvJMdA&utm_campaign=yelp_api_v3&utm_medium=api_v3_business_search&utm_source=9gNmiWYX8uTbFBeTTvJMdA", "review_count": 2221, "categories": [{"alias": "italian", "title": "Italian"}, {"alias": "bars", "title": "Bars"}, {"alias": "desserts", "title": "Desserts"}], "rating": 4.0, "coordinates": {"latitude": 40.744509, "longitude": -73.9856}, "transactions": ["delivery"], "price": "$$$", "location": {"address1": "88 Madison Ave", "address2": "", "address3": "", "city": "New York", "zip_code": "10016", "country": "US", "state": "NY", "display_address": ["88 Madison Ave", "New York, NY 10016"]}, "phone": "+12126910555", "display_phone": "(212) 691-0555", "distance": 2117.0063195846565}, {"id": "RXCCofQw1EjTcSN0ZeXfRA", "alias": "risotteria-melotti-nyc-new-york-3", "name": "Risotteria Melotti NYC", "image_url": "https://s3-media3.fl.yelpcdn.com/bphoto/qZ4MldeNv60P9v8jzO_2lQ/o.jpg", "is_closed": false, "url": "https://www.yelp.com/biz/risotteria-melotti-nyc-new-york-3?adjust_creative=9gNmiWYX8uTbFBeTTvJMdA&utm_campaign=yelp_api_v3&utm_medium=api_v3_business_search&utm_source=9gNmiWYX8uTbFBeTTvJMdA", "review_count": 374, "categories": [{"alias": "italian", "title": "Italian"}, {"alias": "gluten_free", "title": "Gluten-Free"}, {"alias": "breakfast_brunch", "title": "Breakfast & Brunch"}], "rating": 4.5, "coordinates": {"latitude": 40.726673363853, "longitude": -73.9880919456482}, "transactions": ["delivery", "pickup"], "price": "$$", "location": {"address1": "309 E 5th St", "address2": "", "address3": "", "city": "New York", "zip_code": "10003", "country": "US", "state": "NY", "display_address": ["309 E 5th St", "New York, NY 10003"]}, "phone": "+16467558939", "display_phone": "(646) 755-8939", "distance": 3936.327136141662}, {"id": "OCTiJwvjoK81WoDwsTkFvA", "alias": "paesano-of-mulberry-street-new-york", "name": "Paesano of Mulberry Street", "image_url": "https://s3-media2.fl.yelpcdn.com/bphoto/yN9ARCE3LF6u9E0yN5WpIw/o.jpg", "is_closed": false, "url": "https://www.yelp.com/biz/paesano-of-mulberry-street-new-york?adjust_creative=9gNmiWYX8uTbFBeTTvJMdA&utm_campaign=yelp_api_v3&utm_medium=api_v3_business_search&utm_source=9gNmiWYX8uTbFBeTTvJMdA", "review_count": 1338, "categories": [{"alias": "italian", "title": "Italian"}, {"alias": "salad", "title": "Salad"}, {"alias": "seafood", "title": "Seafood"}], "rating": 4.0, "coordinates": {"latitude": 40.718554, "longitude": -73.997447}, "transactions": ["restaurant_reservation", "delivery", "pickup"], "price": "$$", "location": {"address1": "136 Mulberry St", "address2": "", "address3": "", "city": "New York", "zip_code": "10013", "country": "US", "state": "NY", "display_address": ["136 Mulberry St", "New York, NY 10013"]}, "phone": "+12129651188", "display_phone": "(212) 965-1188", "distance": 5090.804604920212}, {"id": "dc3hkLkAqCSxDWQzrx-g9A", "alias": "quality-italian-new-york", "name": "Quality Italian", "image_url": "https://s3-media2.fl.yelpcdn.com/bphoto/7JK95Qmi9lKwvI7ags6fVA/o.jpg", "is_closed": false, "url": "https://www.yelp.com/biz/quality-italian-new-york?adjust_creative=9gNmiWYX8uTbFBeTTvJMdA&utm_campaign=yelp_api_v3&utm_medium=api_v3_business_search&utm_source=9gNmiWYX8uTbFBeTTvJMdA", "review_count": 1330, "categories": [{"alias": "italian", "title": "Italian"}, {"alias": "steak", "title": "Steakhouses"}, {"alias": "cocktailbars", "title": "Cocktail Bars"}], "rating": 4.0, "coordinates": {"latitude": 40.7644044527436, "longitude": -73.9767805051616}, "transactions": ["delivery", "pickup"], "price": "$$$", "location": {"address1": "57 W 57th St", "address2": "", "address3": "", "city": "New York", "zip_code": "10019", "country": "US", "state": "NY", "display_address": ["57 W 57th St", "New York, NY 10019"]}, "phone": "+12123901111", "display_phone": "(212) 390-1111", "distance": 840.5686796004238}, {"id": "qBGKigOGn_flCx1apxPzlA", "alias": "piccola-cucina-osteria-new-york-2", "name": "Piccola Cucina Osteria", "image_url": "https://s3-media3.fl.yelpcdn.com/bphoto/NpARz4CQKQWq5kWzO10jxw/o.jpg", "is_closed": false, "url": "https://www.yelp.com/biz/piccola-cucina-osteria-new-york-2?adjust_creative=9gNmiWYX8uTbFBeTTvJMdA&utm_campaign=yelp_api_v3&utm_medium=api_v3_business_search&utm_source=9gNmiWYX8uTbFBeTTvJMdA", "review_count": 759, "categories": [{"alias": "italian", "title": "Italian"}], "rating": 4.5, "coordinates": {"latitude": 40.72506, "longitude": -74.00322}, "transactions": ["delivery", "pickup"], "price": "$$", "location": {"address1": "196 Spring St", "address2": "", "address3": "", "city": "New York", "zip_code": "10012", "country": "US", "state": "NY", "display_address": ["196 Spring St", "New York, NY 10012"]}, "phone": "+16464787488", "display_phone": "(646) 478-7488", "distance": 4740.9576452908095}, {"id": "yQ7K4uFnxXxpBVbnOSR8kA", "alias": "polpette-71-new-york", "name": "Polpette 71", "image_url": "https://s3-media1.fl.yelpcdn.com/bphoto/6_GgDJkM2grSVfezrxu9RA/o.jpg", "is_closed": false, "url": "https://www.yelp.com/biz/polpette-71-new-york?adjust_creative=9gNmiWYX8uTbFBeTTvJMdA&utm_campaign=yelp_api_v3&utm_medium=api_v3_business_search&utm_source=9gNmiWYX8uTbFBeTTvJMdA", "review_count": 232, "categories": [{"alias": "italian", "title": "Italian"}], "rating": 4.0, "coordinates": {"latitude": 40.77668, "longitude": -73.97888}, "transactions": ["delivery", "pickup"], "price": "$$", "location": {"address1": "71 West 71st St", "address2": "", "address3": null, "city": "New York", "zip_code": "10023", "country": "US", "state": "NY", "display_address": ["71 West 71st St", "New York, NY 10023"]}, "phone": "+12128751512", "display_phone": "(212) 875-1512", "distance": 2097.217944466453}, {"id": "9K0run3oObR0YT4jaOEvWg", "alias": "l-angeletto-new-york", "name": "L'Angeletto", "image_url": "https://s3-media2.fl.yelpcdn.com/bphoto/lBJtjQItMFraCAiK9wRh8Q/o.jpg", "is_closed": false, "url": "https://www.yelp.com/biz/l-angeletto-new-york?adjust_creative=9gNmiWYX8uTbFBeTTvJMdA&utm_campaign=yelp_api_v3&utm_medium=api_v3_business_search&utm_source=9gNmiWYX8uTbFBeTTvJMdA", "review_count": 84, "categories": [{"alias": "italian", "title": "Italian"}], "rating": 4.5, "coordinates": {"latitude": 40.73541417, "longitude": -73.982956}, "transactions": ["restaurant_reservation", "delivery", "pickup"], "location": {"address1": "327 2nd Ave", "address2": "", "address3": null, "city": "New York", "zip_code": "10003", "country": "US", "state": "NY", "display_address": ["327 2nd Ave", "New York, NY 10003"]}, "phone": "+12122539600", "display_phone": "(212) 253-9600", "distance": 2871.842957117279}, {"id": "0axnkZlDiQcJVc06DDXxGQ", "alias": "ristorante-il-melograno-new-york", "name": "Ristorante Il Melograno", "image_url": "https://s3-media1.fl.yelpcdn.com/bphoto/92yZ46wiYeh2y4ng4NVBHA/o.jpg", "is_closed": false, "url": "https://www.yelp.com/biz/ristorante-il-melograno-new-york?adjust_creative=9gNmiWYX8uTbFBeTTvJMdA&utm_campaign=yelp_api_v3&utm_medium=api_v3_business_search&utm_source=9gNmiWYX8uTbFBeTTvJMdA", "review_count": 370, "categories": [{"alias": "italian", "title": "Italian"}, {"alias": "desserts", "title": "Desserts"}, {"alias": "salad", "title": "Salad"}], "rating": 4.0, "coordinates": {"latitude": 40.7654289685161, "longitude": -73.9914178848267}, "transactions": ["delivery", "pickup"], "price": "$$", "location": {"address1": "501 W 51st St", "address2": "", "address3": "", "city": "New York", "zip_code": "10019", "country": "US", "state": "NY", "display_address": ["501 W 51st St", "New York, NY 10019"]}, "phone": "+12127579290", "display_phone": "(212) 757-9290", "distance": 1966.7867559330011}, {"id": "LdWyeeV8DuYINKVTghFwrg", "alias": "canaletto-restaurant-new-york", "name": "Canaletto Restaurant", "image_url": "https://s3-media2.fl.yelpcdn.com/bphoto/aMqVySsd6-l4FHxlGwpxdg/o.jpg", "is_closed": false, "url": "https://www.yelp.com/biz/canaletto-restaurant-new-york?adjust_creative=9gNmiWYX8uTbFBeTTvJMdA&utm_campaign=yelp_api_v3&utm_medium=api_v3_business_search&utm_source=9gNmiWYX8uTbFBeTTvJMdA", "review_count": 81, "categories": [{"alias": "italian", "title": "Italian"}], "rating": 4.0, "coordinates": {"latitude": 40.76174, "longitude": -73.96569}, "transactions": ["delivery"], "price": "$$$", "location": {"address1": "208 E 60th St", "address2": "", "address3": "", "city": "New York", "zip_code": "10022", "country": "US", "state": "NY", "display_address": ["208 E 60th St", "New York, NY 10022"]}, "phone": "+12123179192", "display_phone": "(212) 317-9192", "distance": 438.84599639541653}, {"id": "LkV96_buOU_n0br4SBO57w", "alias": "ci-siamo-new-york-5", "name": "Ci Siamo", "image_url": "https://s3-media3.fl.yelpcdn.com/bphoto/Sc2AdduIiIcN7U36j_wstQ/o.jpg", "is_closed": false, "url": "https://www.yelp.com/biz/ci-siamo-new-york-5?adjust_creative=9gNmiWYX8uTbFBeTTvJMdA&utm_campaign=yelp_api_v3&utm_medium=api_v3_business_search&utm_source=9gNmiWYX8uTbFBeTTvJMdA", "review_count": 246, "categories": [{"alias": "italian", "title": "Italian"}, {"alias": "bars", "title": "Bars"}, {"alias": "pizza", "title": "Pizza"}], "rating": 4.5, "coordinates": {"latitude": 40.75240549384363, "longitude": -73.9982864846782}, "transactions": [], "price": "$$$", "location": {"address1": "440 West 33rd St", "address2": "Ste 100", "address3": "", "city": "New York", "zip_code": "10001", "country": "US", "state": "NY", "display_address": ["440 West 33rd St", "Ste 100", "New York, NY 10001"]}, "phone": "+12122196559", "display_phone": "(212) 219-6559", "distance": 2532.878983859273}, {"id": "Q1_UvNyONsaVS_VC1mD9Dw", "alias": "osteria-cotta-new-york", "name": "Osteria Cotta", "image_url": "https://s3-media1.fl.yelpcdn.com/bphoto/UVxuXoW83Rf4VChKcZZlJA/o.jpg", "is_closed": false, "url": "https://www.yelp.com/biz/osteria-cotta-new-york?adjust_creative=9gNmiWYX8uTbFBeTTvJMdA&utm_campaign=yelp_api_v3&utm_medium=api_v3_business_search&utm_source=9gNmiWYX8uTbFBeTTvJMdA", "review_count": 1032, "categories": [{"alias": "italian", "title": "Italian"}, {"alias": "wine_bars", "title": "Wine Bars"}, {"alias": "venues", "title": "Venues & Event Spaces"}], "rating": 4.0, "coordinates": {"latitude": 40.78554, "longitude": -73.97263}, "transactions": ["delivery", "pickup"], "price": "$$", "location": {"address1": "513 Columbus Ave", "address2": "", "address3": "", "city": "New York", "zip_code": "10024", "country": "US", "state": "NY", "display_address": ["513 Columbus Ave", "New York, NY 10024"]}, "phone": "+12128738500", "display_phone": "(212) 873-8500", "distance": 2940.883473178075}], "total": 4600, "region": {"center": {"longitude": -73.96957397460938, "latitude": 40.75917470627005}}}