{"businesses": [{"id": "cl97uG2_QtiMBah-_s9w7g", "alias": "il-divo-new-york-2", "name": "Il Divo", "image_url": "https://s3-media2.fl.yelpcdn.com/bphoto/9mGH7lAECDN0SMNiciVWJg/o.jpg", "is_closed": false, "url": "https://www.yelp.com/biz/il-divo-new-york-2?adjust_creative=9gNmiWYX8uTbFBeTTvJMdA&utm_campaign=yelp_api_v3&utm_medium=api_v3_business_search&utm_source=9gNmiWYX8uTbFBeTTvJMdA", "review_count": 100, "categories": [{"alias": "italian", "title": "Italian"}], "rating": 4.5, "coordinates": {"latitude": 40.76816, "longitude": -73.959204}, "transactions": ["delivery", "pickup"], "location": {"address1": "1347 2nd Ave At E 71st St", "address2": "", "address3": null, "city": "New York", "zip_code": "10021", "country": "US", "state": "NY", "display_address": ["1347 2nd Ave At E 71st St", "New York, NY 10021"]}, "phone": "+12123808164", "display_phone": "(212) 380-8164", "distance": 1327.0239711808285}, {"id": "zYaYXpmlo6QdnaPwuxWHhQ", "alias": "l-osteria-new-york", "name": "L'Osteria", "image_url": "https://s3-media1.fl.yelpcdn.com/bphoto/1ZObdJVjMAhc0GzW0wKO3w/o.jpg", "is_closed": false, "url": "https://www.yelp.com/biz/l-osteria-new-york?adjust_creative=9gNmiWYX8uTbFBeTTvJMdA&utm_campaign=yelp_api_v3&utm_medium=api_v3_business_search&utm_source=9gNmiWYX8uTbFBeTTvJMdA", "review_count": 22, "categories": [{"alias": "italian", "title": "Italian"}, {"alias": "desserts", "title": "Desserts"}, {"alias": "salad", "title": "Salad"}], "rating": 4.5, "coordinates": {"latitude": 40.77704, "longitude": -73.95721}, "transactions": ["delivery", "pickup"], "location": {"address1": "1219 Lexington Ave", "address2": "", "address3": null, "city": "New York", "zip_code": "10028", "country": "US", "state": "NY", "display_address": ["1219 Lexington Ave", "New York, NY 10028"]}, "phone": "+16465246294", "display_phone": "(646) 524-6294", "distance": 2256.8167210081515}, {"id": "l7OsDvMOO3ji3fg0nT0QzA", "alias": "tonys-di-napoli-new-york-7", "name": "Tony's Di Napoli", "image_url": "https://s3-media3.fl.yelpcdn.com/bphoto/5T9QngLeZWJ6dmurSb3vNg/o.jpg", "is_closed": false, "url": "https://www.yelp.com/biz/tonys-di-napoli-new-york-7?adjust_creative=9gNmiWYX8uTbFBeTTvJMdA&utm_campaign=yelp_api_v3&utm_medium=api_v3_business_search&utm_source=9gNmiWYX8uTbFBeTTvJMdA", "review_count": 820, "categories": [{"alias": "italian", "title": "Italian"}], "rating": 4.0, "coordinates": {"latitude": 40.764385574147596, "longitude": -73.96426247506157}, "transactions": ["pickup"], "price": "$$", "location": {"address1": "1081 3rd Ave", "address2": "", "address3": "", "city": "New York", "zip_code": "10065", "country": "US", "state": "NY", "display_address": ["1081 3rd Ave", "New York, NY 10065"]}, "phone": "+12128886333", "display_phone": "(212) 888-6333", "distance": 732.0167858707813}, {"id": "vVVmHacu2YAxKfpIjhfd1g", "alias": "norma-new-york-5", "name": "Norma", "image_url": "https://s3-media3.fl.yelpcdn.com/bphoto/qJKt5l2xSBUKOFRA6UOqVg/o.jpg", "is_closed": false, "url": "https://www.yelp.com/biz/norma-new-york-5?adjust_creative=9gNmiWYX8uTbFBeTTvJMdA&utm_campaign=yelp_api_v3&utm_medium=api_v3_business_search&utm_source=9gNmiWYX8uTbFBeTTvJMdA", "review_count": 596, "categories": [{"alias": "italian", "title": "Italian"}, {"alias": "pizza", "title": "Pizza"}], "rating": 4.5, "coordinates": {"latitude": 40.743553, "longitude": -73.980026}, "transactions": ["delivery", "pickup"], "price": "$$", "location": {"address1": "438 3rd Ave", "address2": null, "address3": "", "city": "New York", "zip_code": "10016", "country": "US", "state": "NY", "display_address": ["438 3rd Ave", "New York, NY 10016"]}, "phone": "+12128890600", "display_phone": "(212) 889-0600", "distance": 1942.2913842319626}, {"id": "5pRxCYQppSq0czjFDN9X3Q", "alias": "campagnola-restaurant-new-york", "name": "Campagnola Restaurant", "image_url": "https://s3-media3.fl.yelpcdn.com/bphoto/d2TVT6bOyUuQuhfnMhMBpw/o.jpg", "is_closed": false, "url": "https://www.yelp.com/biz/campagnola-restaurant-new-york?adjust_creative=9gNmiWYX8uTbFBeTTvJMdA&utm_campaign=yelp_api_v3&utm_medium=api_v3_business_search&utm_source=9gNmiWYX8uTbFBeTTvJMdA", "review_count": 315, "categories": [{"alias": "italian", "title": "Italian"}], "rating": 4.0, "coordinates": {"latitude": 40.768817, "longitude": -73.954833}, "transactions": ["delivery", "pickup"], "price": "$$$", "location": {"address1": "1382 1st Ave", "address2": "", "address3": "", "city": "New York", "zip_code": "10021", "country": "US", "state": "NY", "display_address": ["1382 1st Ave", "New York, NY 10021"]}, "phone": "+12128611102", "display_phone": "(212) 861-1102", "distance": 1637.5197811543906}, {"id": "zg9Jrtx9rqTXeaqufSOxHQ", "alias": "masseria-dei-vini-new-york", "name": "Masseria dei Vini", "image_url": "https://s3-media3.fl.yelpcdn.com/bphoto/y1KQC6vTkn39sCdJ91K8NQ/o.jpg", "is_closed": false, "url": "https://www.yelp.com/biz/masseria-dei-vini-new-york?adjust_creative=9gNmiWYX8uTbFBeTTvJMdA&utm_campaign=yelp_api_v3&utm_medium=api_v3_business_search&utm_source=9gNmiWYX8uTbFBeTTvJMdA", "review_count": 519, "categories": [{"alias": "bars", "title": "Bars"}, {"alias": "italian", "title": "Italian"}, {"alias": "pizza", "title": "Pizza"}], "rating": 4.0, "coordinates": {"latitude": 40.7684, "longitude": -73.98558}, "transactions": ["delivery", "pickup"], "price": "$$$", "location": {"address1": "887 9th Ave", "address2": "", "address3": "", "city": "New York", "zip_code": "10019", "country": "US", "state": "NY", "display_address": ["887 9th Ave", "New York, NY 10019"]}, "phone": "+12123152888", "display_phone": "(212) 315-2888", "distance": 1705.5209748039783}, {"id": "nBy8KtcUHktPFKw-VClG1A", "alias": "la-pecora-bianca-new-york-5", "name": "La Pecora Bianca", "image_url": "https://s3-media3.fl.yelpcdn.com/bphoto/r9sRiriMllHYVf0shKHM9g/o.jpg", "is_closed": false, "url": "https://www.yelp.com/biz/la-pecora-bianca-new-york-5?adjust_creative=9gNmiWYX8uTbFBeTTvJMdA&utm_campaign=yelp_api_v3&utm_medium=api_v3_business_search&utm_source=9gNmiWYX8uTbFBeTTvJMdA", "review_count": 375, "categories": [{"alias": "italian", "title": "Italian"}, {"alias": "breakfast_brunch", "title": "Breakfast & Brunch"}, {"alias": "wine_bars", "title": "Wine Bars"}], "rating": 4.0, "coordinates": {"latitude": 40.75495, "longitude": -73.9682718}, "transactions": ["pickup"], "price": "$$", "location": {"address1": "950 2nd Ave", "address2": null, "address3": "", "city": "New York", "zip_code": "10022", "country": "US", "state": "NY", "display_address": ["950 2nd Ave", "New York, NY 10022"]}, "phone": "+12128999996", "display_phone": "(212) 899-9996", "distance": 480.91914064361094}, {"id": "hDj_0pbi4mFR5p1H1w6igw", "alias": "misirizzi-new-york", "name": "Misirizzi", "image_url": "https://s3-media4.fl.yelpcdn.com/bphoto/d7fxVg-QMUrP8vtRYXheug/o.jpg", "is_closed": false, "url": "https://www.yelp.com/biz/misirizzi-new-york?adjust_creative=9gNmiWYX8uTbFBeTTvJMdA&utm_campaign=yelp_api_v3&utm_medium=api_v3_business_search&utm_source=9gNmiWYX8uTbFBeTTvJMdA", "review_count": 191, "categories": [{"alias": "italian", "title": "Italian"}], "rating": 4.5, "coordinates": {"latitude": 40.7272, "longitude": -73.99228}, "transactions": ["delivery", "pickup"], "price": "$$", "location": {"address1": "36 E 4th St", "address2": "", "address3": null, "city": "New York", "zip_code": "10003", "country": "US", "state": "NY", "display_address": ["36 E 4th St", "New York, NY 10003"]}, "phone": "+12123750100", "display_phone": "(212) 375-0100", "distance": 4037.4344766616864}, {"id": "ifIfq2EwEohCgoKnG68_LA", "alias": "villa-berulia-new-york-2", "name": "Villa Berulia", "image_url": "https://s3-media1.fl.yelpcdn.com/bphoto/MoYgCZL24bQVFU_k2jkKGg/o.jpg", "is_closed": false, "url": "https://www.yelp.com/biz/villa-berulia-new-york-2?adjust_creative=9gNmiWYX8uTbFBeTTvJMdA&utm_campaign=yelp_api_v3&utm_medium=api_v3_business_search&utm_source=9gNmiWYX8uTbFBeTTvJMdA", "review_count": 192, "categories": [{"alias": "italian", "title": "Italian"}, {"alias": "mediterranean", "title": "Mediterranean"}], "rating": 4.5, "coordinates": {"latitude": 40.7467827, "longitude": -73.9806507}, "transactions": ["delivery", "pickup"], "price": "$$", "location": {"address1": "107 E 34th St", "address2": "", "address3": "", "city": "New York", "zip_code": "10016", "country": "US", "state": "NY", "display_address": ["107 E 34th St", "New York, NY 10016"]}, "phone": "+12126891970", "display_phone": "(212) 689-1970", "distance": 1664.1002981778613}, {"id": "h4VCnZ2aZ33mdenS_ZI7jQ", "alias": "mama-mia-44-sw-new-york-2", "name": "Mama Mia 44 SW", "image_url": "https://s3-media2.fl.yelpcdn.com/bphoto/Dpd1wHWGVawq9MTOvoBwbQ/o.jpg", "is_closed": false, "url": "https://www.yelp.com/biz/mama-mia-44-sw-new-york-2?adjust_creative=9gNmiWYX8uTbFBeTTvJMdA&utm_campaign=yelp_api_v3&utm_medium=api_v3_business_search&utm_source=9gNmiWYX8uTbFBeTTvJMdA", "review_count": 823, "categories": [{"alias": "pizza", "title": "Pizza"}, {"alias": "seafood", "title": "Seafood"}, {"alias": "italian", "title": "Italian"}], "rating": 4.0, "coordinates": {"latitude": 40.759761, "longitude": -73.992065}, "transactions": ["restaurant_reservation", "delivery", "pickup"], "price": "$$", "location": {"address1": "621 9th Ave", "address2": "", "address3": "", "city": "New York", "zip_code": "10036", "country": "US", "state": "NY", "display_address": ["621 9th Ave", "New York, NY 10036"]}, "phone": "+12123154582", "display_phone": "(212) 315-4582", "distance": 1890.7288173382392}, {"id": "faukkggAc_tuJ4THYlf4fg", "alias": "la-masseria-new-york-3", "name": "La Masseria", "image_url": "https://s3-media3.fl.yelpcdn.com/bphoto/X7-FMtuVwxgDfzm-WdKOBQ/o.jpg", "is_closed": false, "url": "https://www.yelp.com/biz/la-masseria-new-york-3?adjust_creative=9gNmiWYX8uTbFBeTTvJMdA&utm_campaign=yelp_api_v3&utm_medium=api_v3_business_search&utm_source=9gNmiWYX8uTbFBeTTvJMdA", "review_count": 692, "categories": [{"alias": "italian", "title": "Italian"}], "rating": 4.0, "coordinates": {"latitude": 40.760868632784, "longitude": -73.986348802868}, "transactions": ["delivery", "pickup"], "price": "$$$", "location": {"address1": "235 W 48th St", "address2": "", "address3": "", "city": "New York", "zip_code": "10036", "country": "US", "state": "NY", "display_address": ["235 W 48th St", "New York, NY 10036"]}, "phone": "+12125822111", "display_phone": "(212) 582-2111", "distance": 1425.3531912052438}, {"id": "32VbG_XgkZIuye0PV-BxaA", "alias": "zero-otto-nove-new-york-3", "name": "Zero Otto Nove", "image_url": "https://s3-media2.fl.yelpcdn.com/bphoto/DJXTR0sAlxjkj1dEpRX7Vg/o.jpg", "is_closed": false, "url": "https://www.yelp.com/biz/zero-otto-nove-new-york-3?adjust_creative=9gNmiWYX8uTbFBeTTvJMdA&utm_campaign=yelp_api_v3&utm_medium=api_v3_business_search&utm_source=9gNmiWYX8uTbFBeTTvJMdA", "review_count": 529, "categories": [{"alias": "italian", "title": "Italian"}, {"alias": "pizza", "title": "Pizza"}], "rating": 4.0, "coordinates": {"latitude": 40.7407551035259, "longitude": -73.9914887388588}, "transactions": ["delivery", "pickup"], "price": "$$", "location": {"address1": "15 W 21st St", "address2": "", "address3": "", "city": "New York", "zip_code": "10010", "country": "US", "state": "NY", "display_address": ["15 W 21st St", "New York, NY 10010"]}, "phone": "+12122420899", "display_phone": "(212) 242-0899", "distance": 2757.325627595686}, {"id": "TZto7AjdA337XIw66AOpUw", "alias": "scalinatella-restaurant-new-york-3", "name": "Scalinatella Restaurant", "image_url": "https://s3-media2.fl.yelpcdn.com/bphoto/gD7Rgas0rC20bQNCGXVmSQ/o.jpg", "is_closed": false, "url": "https://www.yelp.com/biz/scalinatella-restaurant-new-york-3?adjust_creative=9gNmiWYX8uTbFBeTTvJMdA&utm_campaign=yelp_api_v3&utm_medium=api_v3_business_search&utm_source=9gNmiWYX8uTbFBeTTvJMdA", "review_count": 322, "categories": [{"alias": "italian", "title": "Italian"}], "rating": 4.0, "coordinates": {"latitude": 40.7627823203802, "longitude": -73.9654829353094}, "transactions": ["delivery"], "price": "$$$$", "location": {"address1": "201 E 61st St", "address2": "", "address3": "", "city": "New York", "zip_code": "10065", "country": "US", "state": "NY", "display_address": ["201 E 61st St", "New York, NY 10065"]}, "phone": "+12122078280", "display_phone": "(212) 207-8280", "distance": 535.8622334776185}, {"id": "mTWlEiCUEBlxBAkIikkB1A", "alias": "carmines-italian-restaurant-upper-west-side-new-york", "name": "Carmine's Italian Restaurant - Upper West Side", "image_url": "https://s3-media3.fl.yelpcdn.com/bphoto/_lTCIijz3zVH13nUugBwhg/o.jpg", "is_closed": false, "url": "https://www.yelp.com/biz/carmines-italian-restaurant-upper-west-side-new-york?adjust_creative=9gNmiWYX8uTbFBeTTvJMdA&utm_campaign=yelp_api_v3&utm_medium=api_v3_business_search&utm_source=9gNmiWYX8uTbFBeTTvJMdA", "review_count": 1695, "categories": [{"alias": "italian", "title": "Italian"}, {"alias": "desserts", "title": "Desserts"}, {"alias": "seafood", "title": "Seafood"}], "rating": 4.0, "coordinates": {"latitude": 40.791077, "longitude": -73.973763}, "transactions": ["delivery", "pickup"], "price": "$$", "location": {"address1": "2450 Broadway", "address2": "", "address3": "", "city": "New York", "zip_code": "10024", "country": "US", "state": "NY", "display_address": ["2450 Broadway", "New York, NY 10024"]}, "phone": "+12123622200", "display_phone": "(212) 362-2200", "distance": 3564.8637305617135}, {"id": "o2SAcKbfOMkA71xUfyee6Q", "alias": "rossinis-new-york", "name": "Rossini's", "image_url": "https://s3-media3.fl.yelpcdn.com/bphoto/_JpchdaIaqLDua7Qk5ZPjw/o.jpg", "is_closed": false, "url": "https://www.yelp.com/biz/rossinis-new-york?adjust_creative=9gNmiWYX8uTbFBeTTvJMdA&utm_campaign=yelp_api_v3&utm_medium=api_v3_business_search&utm_source=9gNmiWYX8uTbFBeTTvJMdA", "review_count": 260, "categories": [{"alias": "italian", "title": "Italian"}], "rating": 4.0, "coordinates": {"latitude": 40.74921, "longitude": -73.97883}, "transactions": ["delivery", "pickup"], "price": "$$$", "location": {"address1": "108 E 38th St", "address2": "", "address3": "", "city": "New York", "zip_code": "10016", "country": "US", "state": "NY", "display_address": ["108 E 38th St", "New York, NY 10016"]}, "phone": "+12126830135", "display_phone": "(212) 683-0135", "distance": 1365.188243577885}, {"id": "RbiXVG4tzpC3zuILadyPIQ", "alias": "la-pecora-bianca-new-york-9", "name": "La Pecora Bianca", "image_url": "https://s3-media2.fl.yelpcdn.com/bphoto/uXFXt2xJ8TdjP5FsEzhrtw/o.jpg", "is_closed": false, "url": "https://www.yelp.com/biz/la-pecora-bianca-new-york-9?adjust_creative=9gNmiWYX8uTbFBeTTvJMdA&utm_campaign=yelp_api_v3&utm_medium=api_v3_business_search&utm_source=9gNmiWYX8uTbFBeTTvJMdA", "review_count": 33, "categories": [{"alias": "italian", "title": "Italian"}, {"alias": "wine_bars", "title": "Wine Bars"}, {"alias": "breakfast_brunch", "title": "Breakfast & Brunch"}], "rating": 4.0, "coordinates": {"latitude": 40.78049101969648, "longitude": -73.9763467}, "transactions": [], "location": {"address1": "359 Columbus Ave", "address2": "", "address3": null, "city": "New York", "zip_code": "10024", "country": "US", "state": "NY", "display_address": ["359 Columbus Ave", "New York, NY 10024"]}, "phone": "+12123009870", "display_phone": "(212) 300-9870", "distance": 2437.9176293471955}, {"id": "Dng_LID2JNnc6M6A1FB19Q", "alias": "come-prima-ristorante-new-york-2", "name": "Come Prima Ristorante", "image_url": "https://s3-media1.fl.yelpcdn.com/bphoto/ix0zO_5r5b8dz7jB8Hpiig/o.jpg", "is_closed": false, "url": "https://www.yelp.com/biz/come-prima-ristorante-new-york-2?adjust_creative=9gNmiWYX8uTbFBeTTvJMdA&utm_campaign=yelp_api_v3&utm_medium=api_v3_business_search&utm_source=9gNmiWYX8uTbFBeTTvJMdA", "review_count": 103, "categories": [{"alias": "bars", "title": "Bars"}, {"alias": "italian", "title": "Italian"}], "rating": 4.5, "coordinates": {"latitude": 40.7721165011105, "longitude": -73.965037390213}, "transactions": ["delivery"], "price": "$$$", "location": {"address1": "903 Madison Ave", "address2": null, "address3": "", "city": "New York", "zip_code": "10021", "country": "US", "state": "NY", "display_address": ["903 Madison Ave", "New York, NY 10021"]}, "phone": "+12125177700", "display_phone": "(212) 517-7700", "distance": 1488.9137675853285}, {"id": "HiNUBUR1hFwScd_OvVLQAg", "alias": "la-pecora-bianca-new-york", "name": "La Pecora Bianca", "image_url": "https://s3-media1.fl.yelpcdn.com/bphoto/pXoM8IbmiWix_LZSNqYGqw/o.jpg", "is_closed": false, "url": "https://www.yelp.com/biz/la-pecora-bianca-new-york?adjust_creative=9gNmiWYX8uTbFBeTTvJMdA&utm_campaign=yelp_api_v3&utm_medium=api_v3_business_search&utm_source=9gNmiWYX8uTbFBeTTvJMdA", "review_count": 1005, "categories": [{"alias": "italian", "title": "Italian"}], "rating": 4.0, "coordinates": {"latitude": 40.74358, "longitude": -73.9892}, "transactions": ["pickup"], "price": "$$", "location": {"address1": "1133 Broadway", "address2": "", "address3": "", "city": "New York", "zip_code": "10010", "country": "US", "state": "NY", "display_address": ["1133 Broadway", "New York, NY 10010"]}, "phone": "+12124989696", "display_phone": "(212) 498-9696", "distance": 2388.96519595075}, {"id": "C8Ctyq7pXOPESK8cz_X2CA", "alias": "pomodoro-rosso-new-york", "name": "Pomodoro Rosso", "image_url": "https://s3-media4.fl.yelpcdn.com/bphoto/0zx51tJv6DivI7L3Xxf7lw/o.jpg", "is_closed": false, "url": "https://www.yelp.com/biz/pomodoro-rosso-new-york?adjust_creative=9gNmiWYX8uTbFBeTTvJMdA&utm_campaign=yelp_api_v3&utm_medium=api_v3_business_search&utm_source=9gNmiWYX8uTbFBeTTvJMdA", "review_count": 379, "categories": [{"alias": "italian", "title": "Italian"}], "rating": 4.0, "coordinates": {"latitude": 40.776398, "longitude": -73.979288}, "transactions": ["delivery", "pickup"], "price": "$$", "location": {"address1": "229 Columbus Ave", "address2": "", "address3": "", "city": "New York", "zip_code": "10023", "country": "US", "state": "NY", "display_address": ["229 Columbus Ave", "New York, NY 10023"]}, "phone": "+12127213009", "display_phone": "(212) 721-3009", "distance": 2082.544892300781}, {"id": "qYDoWRdntIApGW6fEUHWIQ", "alias": "biricchino-new-york-2", "name": "biricchino", "image_url": "https://s3-media2.fl.yelpcdn.com/bphoto/cWCc7_6ok6GLruOiuP5JgQ/o.jpg", "is_closed": false, "url": "https://www.yelp.com/biz/biricchino-new-york-2?adjust_creative=9gNmiWYX8uTbFBeTTvJMdA&utm_campaign=yelp_api_v3&utm_medium=api_v3_business_search&utm_source=9gNmiWYX8uTbFBeTTvJMdA", "review_count": 165, "categories": [{"alias": "italian", "title": "Italian"}, {"alias": "desserts", "title": "Desserts"}, {"alias": "pastashops", "title": "Pasta Shops"}], "rating": 4.0, "coordinates": {"latitude": 40.7488743961, "longitude": -73.9954839431414}, "transactions": ["delivery", "pickup"], "price": "$$", "location": {"address1": "260 W 29th St", "address2": "", "address3": "", "city": "New York", "zip_code": "10001", "country": "US", "state": "NY", "display_address": ["260 W 29th St", "New York, NY 10001"]}, "phone": "+12126956690", "display_phone": "(212) 695-6690", "distance": 2464.732998069067}, {"id": "E48WbksxAk19a8vjJRVIVQ", "alias": "ramerino-italian-prime-new-york", "name": "Ramerino Italian Prime", "image_url": "https://s3-media2.fl.yelpcdn.com/bphoto/nVVDMyxblVADKF7cPAanEA/o.jpg", "is_closed": false, "url": "https://www.yelp.com/biz/ramerino-italian-prime-new-york?adjust_creative=9gNmiWYX8uTbFBeTTvJMdA&utm_campaign=yelp_api_v3&utm_medium=api_v3_business_search&utm_source=9gNmiWYX8uTbFBeTTvJMdA", "review_count": 40, "categories": [{"alias": "italian", "title": "Italian"}, {"alias": "wine_bars", "title": "Wine Bars"}, {"alias": "seafood", "title": "Seafood"}], "rating": 4.5, "coordinates": {"latitude": 40.75107, "longitude": -73.98135}, "transactions": ["restaurant_reservation"], "price": "$$$", "location": {"address1": "16 E 39th St", "address2": null, "address3": "", "city": "New York", "zip_code": "10016", "country": "US", "state": "NY", "display_address": ["16 E 39th St", "New York, NY 10016"]}, "phone": "+16468807885", "display_phone": "(646) 880-7885", "distance": 1358.249942618913}, {"id": "jDIVPYpxQAk1HUAi0NIlQw", "alias": "pazza-notte-new-york-2", "name": "Pazza Notte", "image_url": "https://s3-media2.fl.yelpcdn.com/bphoto/gRbvd_bKnVOr6FWXTw1DTA/o.jpg", "is_closed": false, "url": "https://www.yelp.com/biz/pazza-notte-new-york-2?adjust_creative=9gNmiWYX8uTbFBeTTvJMdA&utm_campaign=yelp_api_v3&utm_medium=api_v3_business_search&utm_source=9gNmiWYX8uTbFBeTTvJMdA", "review_count": 1000, "categories": [{"alias": "italian", "title": "Italian"}, {"alias": "lounges", "title": "Lounges"}, {"alias": "pizza", "title": "Pizza"}], "rating": 4.0, "coordinates": {"latitude": 40.76348, "longitude": -73.978091}, "transactions": ["delivery", "pickup"], "price": "$$", "location": {"address1": "1375 Avenue Of The Americas", "address2": "", "address3": "", "city": "New York", "zip_code": "10019", "country": "US", "state": "NY", "display_address": ["1375 Avenue Of The Americas", "New York, NY 10019"]}, "phone": "+12127656288", "display_phone": "(212) 765-6288", "distance": 862.4033932623388}, {"id": "RG5atiZtuNtpDu6GrNUQGw", "alias": "norma-gastronomia-siciliana-new-york-6", "name": "NORMA Gastronomia Siciliana", "image_url": "https://s3-media2.fl.yelpcdn.com/bphoto/0rgyw1KbSoutHV_RxbLgnQ/o.jpg", "is_closed": false, "url": "https://www.yelp.com/biz/norma-gastronomia-siciliana-new-york-6?adjust_creative=9gNmiWYX8uTbFBeTTvJMdA&utm_campaign=yelp_api_v3&utm_medium=api_v3_business_search&utm_source=9gNmiWYX8uTbFBeTTvJMdA", "review_count": 87, "categories": [{"alias": "italian", "title": "Italian"}, {"alias": "pizza", "title": "Pizza"}], "rating": 4.0, "coordinates": {"latitude": 40.76563298237293, "longitude": -73.98769143895947}, "transactions": ["delivery", "pickup"], "location": {"address1": "801 9th Ave", "address2": "", "address3": null, "city": "New York", "zip_code": "10019", "country": "US", "state": "NY", "display_address": ["801 9th Ave", "New York, NY 10019"]}, "phone": "+12128890600", "display_phone": "(212) 889-0600", "distance": 1686.4222304125724}, {"id": "d15lwNLOlLSeaAYqPadntw", "alias": "sams-place-new-york", "name": "Sam's Place", "image_url": "https://s3-media1.fl.yelpcdn.com/bphoto/gobDNhXY7pA2mI4_j1CKBg/o.jpg", "is_closed": false, "url": "https://www.yelp.com/biz/sams-place-new-york?adjust_creative=9gNmiWYX8uTbFBeTTvJMdA&utm_campaign=yelp_api_v3&utm_medium=api_v3_business_search&utm_source=9gNmiWYX8uTbFBeTTvJMdA", "review_count": 292, "categories": [{"alias": "italian", "title": "Italian"}], "rating": 4.0, "coordinates": {"latitude": 40.749270880468, "longitude": -73.977082744053}, "transactions": ["delivery", "pickup"], "price": "$$", "location": {"address1": "132 E 39th St", "address2": "", "address3": "", "city": "New York", "zip_code": "10016", "country": "US", "state": "NY", "display_address": ["132 E 39th St", "New York, NY 10016"]}, "phone": "+12125996360", "display_phone": "(212) 599-6360", "distance": 1269.9562898131928}, {"id": "goqTQ4tOD-asC_ZJBW9l7w", "alias": "patsys-italian-restaurant-new-york", "name": "Patsy's Italian Restaurant", "image_url": "https://s3-media1.fl.yelpcdn.com/bphoto/OQT7znWSnmgeMo67YPdA_g/o.jpg", "is_closed": false, "url": "https://www.yelp.com/biz/patsys-italian-restaurant-new-york?adjust_creative=9gNmiWYX8uTbFBeTTvJMdA&utm_campaign=yelp_api_v3&utm_medium=api_v3_business_search&utm_source=9gNmiWYX8uTbFBeTTvJMdA", "review_count": 1087, "categories": [{"alias": "italian", "title": "Italian"}, {"alias": "southern", "title": "Southern"}, {"alias": "wine_bars", "title": "Wine Bars"}], "rating": 4.0, "coordinates": {"latitude": 40.76553, "longitude": -73.98274}, "transactions": ["delivery"], "price": "$$$", "location": {"address1": "236 W 56th St", "address2": "", "address3": "", "city": "New York", "zip_code": "10019", "country": "US", "state": "NY", "display_address": ["236 W 56th St", "New York, NY 10019"]}, "phone": "+12122473491", "display_phone": "(212) 247-3491", "distance": 1320.8084451819059}, {"id": "4ixWiPyYysS2i8LAg4qzrQ", "alias": "la-villetta-new-york", "name": "La Villetta", "image_url": "https://s3-media1.fl.yelpcdn.com/bphoto/whzkXW_dromCevhBFCZNXQ/o.jpg", "is_closed": false, "url": "https://www.yelp.com/biz/la-villetta-new-york?adjust_creative=9gNmiWYX8uTbFBeTTvJMdA&utm_campaign=yelp_api_v3&utm_medium=api_v3_business_search&utm_source=9gNmiWYX8uTbFBeTTvJMdA", "review_count": 106, "categories": [{"alias": "italian", "title": "Italian"}], "rating": 4.0, "coordinates": {"latitude": 40.7549171, "longitude": -73.9650879}, "transactions": ["delivery", "pickup"], "price": "$$$", "location": {"address1": "398 E 52nd St", "address2": "", "address3": "", "city": "New York", "zip_code": "10022", "country": "US", "state": "NY", "display_address": ["398 E 52nd St", "New York, NY 10022"]}, "phone": "+12128290003", "display_phone": "(212) 829-0003", "distance": 610.093316658731}, {"id": "iQo5aJwTL_ZrXCdPFKq-RA", "alias": "isle-of-capri-new-york-2", "name": "Isle of Capri", "image_url": "https://s3-media2.fl.yelpcdn.com/bphoto/XzX2wcVngvJZinZGS8tlgA/o.jpg", "is_closed": false, "url": "https://www.yelp.com/biz/isle-of-capri-new-york-2?adjust_creative=9gNmiWYX8uTbFBeTTvJMdA&utm_campaign=yelp_api_v3&utm_medium=api_v3_business_search&utm_source=9gNmiWYX8uTbFBeTTvJMdA", "review_count": 282, "categories": [{"alias": "italian", "title": "Italian"}], "rating": 4.0, "coordinates": {"latitude": 40.76283, "longitude": -73.96602}, "transactions": ["delivery"], "price": "$$$", "location": {"address1": "1028 3rd Ave", "address2": null, "address3": "", "city": "New York", "zip_code": "10065", "country": "US", "state": "NY", "display_address": ["1028 3rd Ave", "New York, NY 10065"]}, "phone": "+12127581902", "display_phone": "(212) 758-1902", "distance": 504.51291772257406}, {"id": "T5dgMOv1iNY-z2ibeFQZgA", "alias": "il-monello-new-york", "name": "Il Monello", "image_url": "https://s3-media3.fl.yelpcdn.com/bphoto/7IXF8m9lAz4b11MpERPAgA/o.jpg", "is_closed": false, "url": "https://www.yelp.com/biz/il-monello-new-york?adjust_creative=9gNmiWYX8uTbFBeTTvJMdA&utm_campaign=yelp_api_v3&utm_medium=api_v3_business_search&utm_source=9gNmiWYX8uTbFBeTTvJMdA", "review_count": 6, "categories": [{"alias": "italian", "title": "Italian"}, {"alias": "seafood", "title": "Seafood"}], "rating": 5.0, "coordinates": {"latitude": 40.753779846700596, "longitude": -73.9674672}, "transactions": ["restaurant_reservation", "delivery", "pickup"], "location": {"address1": "337 East 49th St", "address2": null, "address3": "", "city": "New York", "zip_code": "10017", "country": "US", "state": "NY", "display_address": ["337 East 49th St", "New York, NY 10017"]}, "phone": "+19176757491", "display_phone": "(917) 675-7491", "distance": 625.5761636380013}, {"id": "K9Ur20N51Li3sAvaV9-6Ng", "alias": "casa-limone-new-york-2", "name": "Casa Limone", "image_url": "https://s3-media1.fl.yelpcdn.com/bphoto/fMn_jSJemLIgQjYrogie8A/o.jpg", "is_closed": false, "url": "https://www.yelp.com/biz/casa-limone-new-york-2?adjust_creative=9gNmiWYX8uTbFBeTTvJMdA&utm_campaign=yelp_api_v3&utm_medium=api_v3_business_search&utm_source=9gNmiWYX8uTbFBeTTvJMdA", "review_count": 89, "categories": [{"alias": "italian", "title": "Italian"}, {"alias": "mediterranean", "title": "Mediterranean"}], "rating": 4.5, "coordinates": {"latitude": 40.7573268, "longitude": -73.97666174194207}, "transactions": ["delivery"], "location": {"address1": "20 East 49th St", "address2": null, "address3": "", "city": "New York", "zip_code": "10017", "country": "US", "state": "NY", "display_address": ["20 East 49th St", "New York, NY 10017"]}, "phone": "+16463706282", "display_phone": "(646) 370-6282", "distance": 631.3528453028089}, {"id": "TUJutjq0LU6zexzM8Wia4w", "alias": "arthur-and-sons-ny-italian-new-york", "name": "Arthur & Sons NY Italian", "image_url": "https://s3-media2.fl.yelpcdn.com/bphoto/7-wQeWY5eVEqUEB4G7d2Lg/o.jpg", "is_closed": false, "url": "https://www.yelp.com/biz/arthur-and-sons-ny-italian-new-york?adjust_creative=9gNmiWYX8uTbFBeTTvJMdA&utm_campaign=yelp_api_v3&utm_medium=api_v3_business_search&utm_source=9gNmiWYX8uTbFBeTTvJMdA", "review_count": 173, "categories": [{"alias": "italian", "title": "Italian"}], "rating": 4.0, "coordinates": {"latitude": 40.73801, "longitude": -74.00409}, "transactions": ["delivery", "pickup"], "location": {"address1": "38 8th Ave", "address2": null, "address3": "", "city": "New York", "zip_code": "10014", "country": "US", "state": "NY", "display_address": ["38 8th Ave", "New York, NY 10014"]}, "phone": "", "display_phone": "", "distance": 3739.505520650316}, {"id": "zDujEq9qZk13nBcG2PH4tA", "alias": "il-falco-long-island-city", "name": "Il Falco", "image_url": "https://s3-media1.fl.yelpcdn.com/bphoto/qNeXxTElmC0fcX6bkzoLZg/o.jpg", "is_closed": false, "url": "https://www.yelp.com/biz/il-falco-long-island-city?adjust_creative=9gNmiWYX8uTbFBeTTvJMdA&utm_campaign=yelp_api_v3&utm_medium=api_v3_business_search&utm_source=9gNmiWYX8uTbFBeTTvJMdA", "review_count": 341, "categories": [{"alias": "italian", "title": "Italian"}, {"alias": "venues", "title": "Venues & Event Spaces"}, {"alias": "wine_bars", "title": "Wine Bars"}], "rating": 4.5, "coordinates": {"latitude": 40.7476595714373, "longitude": -73.9455319123659}, "transactions": ["delivery", "pickup"], "price": "$$$", "location": {"address1": "21-50 44th Dr", "address2": "", "address3": "", "city": "Long Island City", "zip_code": "11101", "country": "US", "state": "NY", "display_address": ["21-50 44th Dr", "Long Island City, NY 11101"]}, "phone": "+17187070009", "display_phone": "(718) 707-0009", "distance": 2395.965652586611}, {"id": "FNxOWxts63oDRKwy9Pbfzw", "alias": "tarallucci-e-vino-nomad-new-york", "name": "Tarallucci E Vino - Nomad", "image_url": "https://s3-media1.fl.yelpcdn.com/bphoto/qfVNcpyeBa68BT6Zygbrdw/o.jpg", "is_closed": false, "url": "https://www.yelp.com/biz/tarallucci-e-vino-nomad-new-york?adjust_creative=9gNmiWYX8uTbFBeTTvJMdA&utm_campaign=yelp_api_v3&utm_medium=api_v3_business_search&utm_source=9gNmiWYX8uTbFBeTTvJMdA", "review_count": 196, "categories": [{"alias": "italian", "title": "Italian"}, {"alias": "wine_bars", "title": "Wine Bars"}, {"alias": "breakfast_brunch", "title": "Breakfast & Brunch"}], "rating": 4.0, "coordinates": {"latitude": 40.74345604900017, "longitude": -73.98470300895319}, "transactions": ["delivery", "pickup"], "price": "$$", "location": {"address1": "44 E 28th St", "address2": "", "address3": null, "city": "New York", "zip_code": "10016", "country": "US", "state": "NY", "display_address": ["44 E 28th St", "New York, NY 10016"]}, "phone": "+12127791100", "display_phone": "(212) 779-1100", "distance": 2163.105359141157}, {"id": "B2X53VuOuLyXe0OsGY-ZzA", "alias": "la-pecora-bianca-new-york-8", "name": "La Pecora Bianca", "image_url": "https://s3-media1.fl.yelpcdn.com/bphoto/RkbH_SlRnPVT1A3D268Ohw/o.jpg", "is_closed": false, "url": "https://www.yelp.com/biz/la-pecora-bianca-new-york-8?adjust_creative=9gNmiWYX8uTbFBeTTvJMdA&utm_campaign=yelp_api_v3&utm_medium=api_v3_business_search&utm_source=9gNmiWYX8uTbFBeTTvJMdA", "review_count": 38, "categories": [{"alias": "italian", "title": "Italian"}, {"alias": "wine_bars", "title": "Wine Bars"}, {"alias": "cocktailbars", "title": "Cocktail Bars"}], "rating": 4.5, "coordinates": {"latitude": 40.73959, "longitude": -74.00775}, "transactions": [], "location": {"address1": "817 Washington St", "address2": "", "address3": null, "city": "New York", "zip_code": "10014", "country": "US", "state": "NY", "display_address": ["817 Washington St", "New York, NY 10014"]}, "phone": "+12125093030", "display_phone": "(212) 509-3030", "distance": 3884.0983639130654}, {"id": "fFIQ8Rx4x1Z34kFJcmlVzQ", "alias": "cacio-e-pepe-new-york-4", "name": "Cacio E Pepe", "image_url": "https://s3-media4.fl.yelpcdn.com/bphoto/b-0Y4K6Est5MsZXULAo3IQ/o.jpg", "is_closed": false, "url": "https://www.yelp.com/biz/cacio-e-pepe-new-york-4?adjust_creative=9gNmiWYX8uTbFBeTTvJMdA&utm_campaign=yelp_api_v3&utm_medium=api_v3_business_search&utm_source=9gNmiWYX8uTbFBeTTvJMdA", "review_count": 61, "categories": [{"alias": "italian", "title": "Italian"}, {"alias": "desserts", "title": "Desserts"}, {"alias": "cocktailbars", "title": "Cocktail Bars"}], "rating": 4.5, "coordinates": {"latitude": 40.77090864674996, "longitude": -73.95098168604862}, "transactions": ["delivery", "pickup"], "price": "$$$", "location": {"address1": "1479 York Ave", "address2": null, "address3": null, "city": "New York", "zip_code": "10075", "country": "US", "state": "NY", "display_address": ["1479 York Ave", "New York, NY 10075"]}, "phone": "+16466827676", "display_phone": "(646) 682-7676", "distance": 2038.1709397672757}, {"id": "yi6jIxzHo-nbAOG4KWuqcw", "alias": "maialino-new-york", "name": "Maialino", "image_url": "https://s3-media2.fl.yelpcdn.com/bphoto/rPx9Q-3FDlY6ljUrpgIYkg/o.jpg", "is_closed": false, "url": "https://www.yelp.com/biz/maialino-new-york?adjust_creative=9gNmiWYX8uTbFBeTTvJMdA&utm_campaign=yelp_api_v3&utm_medium=api_v3_business_search&utm_source=9gNmiWYX8uTbFBeTTvJMdA", "review_count": 1417, "categories": [{"alias": "italian", "title": "Italian"}, {"alias": "breakfast_brunch", "title": "Breakfast & Brunch"}, {"alias": "bars", "title": "Bars"}], "rating": 4.0, "coordinates": {"latitude": 40.7448869, "longitude": -73.984231}, "transactions": ["delivery"], "price": "$$$", "location": {"address1": "30 E 30th St", "address2": null, "address3": "The Redbury New York", "city": "New York", "zip_code": "10016", "country": "US", "state": "NY", "display_address": ["30 E 30th St", "The Redbury New York", "New York, NY 10016"]}, "phone": "+12127772410", "display_phone": "(212) 777-2410", "distance": 2012.0572938014045}, {"id": "JOvcJqD5eCFrGjFa6k7vpQ", "alias": "zia-maria-chelsea-new-york-2", "name": "Zia Maria - Chelsea", "image_url": "https://s3-media2.fl.yelpcdn.com/bphoto/A2TFeyLpQ11MR563dsw0Dg/o.jpg", "is_closed": false, "url": "https://www.yelp.com/biz/zia-maria-chelsea-new-york-2?adjust_creative=9gNmiWYX8uTbFBeTTvJMdA&utm_campaign=yelp_api_v3&utm_medium=api_v3_business_search&utm_source=9gNmiWYX8uTbFBeTTvJMdA", "review_count": 306, "categories": [{"alias": "italian", "title": "Italian"}, {"alias": "pizza", "title": "Pizza"}, {"alias": "cocktailbars", "title": "Cocktail Bars"}], "rating": 4.0, "coordinates": {"latitude": 40.7454863, "longitude": -73.9993392}, "transactions": ["restaurant_reservation", "delivery", "pickup"], "price": "$$", "location": {"address1": "318 W 23rd St", "address2": "", "address3": "", "city": "New York", "zip_code": "10011", "country": "US", "state": "NY", "display_address": ["318 W 23rd St", "New York, NY 10011"]}, "phone": "+12125249200", "display_phone": "(212) 524-9200", "distance": 2937.8596166556135}, {"id": "wzHyRI6iW0rIY8rMb3KClA", "alias": "felice-new-york-10", "name": "Felice", "image_url": "https://s3-media4.fl.yelpcdn.com/bphoto/4j6pPyPSA4-Okw0UcqkLJw/o.jpg", "is_closed": false, "url": "https://www.yelp.com/biz/felice-new-york-10?adjust_creative=9gNmiWYX8uTbFBeTTvJMdA&utm_campaign=yelp_api_v3&utm_medium=api_v3_business_search&utm_source=9gNmiWYX8uTbFBeTTvJMdA", "review_count": 107, "categories": [{"alias": "italian", "title": "Italian"}], "rating": 4.0, "coordinates": {"latitude": 40.77697, "longitude": -73.97933}, "transactions": ["delivery", "pickup"], "location": {"address1": "240 Columbus Ave", "address2": null, "address3": null, "city": "New York", "zip_code": "10023", "country": "US", "state": "NY", "display_address": ["240 Columbus Ave", "New York, NY 10023"]}, "phone": "+12129311150", "display_phone": "(212) 931-1150", "distance": 2144.133243570056}, {"id": "ktMtLr8mp4K7IGxUgCTs6Q", "alias": "bocca-di-bacco-new-york-12", "name": "Bocca di Bacco", "image_url": "https://s3-media3.fl.yelpcdn.com/bphoto/ABVpJDkwvGJBRynhtuS4BA/o.jpg", "is_closed": false, "url": "https://www.yelp.com/biz/bocca-di-bacco-new-york-12?adjust_creative=9gNmiWYX8uTbFBeTTvJMdA&utm_campaign=yelp_api_v3&utm_medium=api_v3_business_search&utm_source=9gNmiWYX8uTbFBeTTvJMdA", "review_count": 6, "categories": [{"alias": "italian", "title": "Italian"}, {"alias": "wine_bars", "title": "Wine Bars"}, {"alias": "breakfast_brunch", "title": "Breakfast & Brunch"}], "rating": 4.5, "coordinates": {"latitude": 40.76021745303923, "longitude": -73.99156281784906}, "transactions": ["delivery", "pickup"], "location": {"address1": "635 9th Ave", "address2": null, "address3": "", "city": "New York", "zip_code": "10036", "country": "US", "state": "NY", "display_address": ["635 9th Ave", "New York, NY 10036"]}, "phone": "+12122622525", "display_phone": "(212) 262-2525", "distance": 1855.636432073407}, {"id": "7Tu5l9UfWVi_v3m4TwJAxQ", "alias": "caffe-dei-fiori-new-york", "name": "Caffe dei Fiori", "image_url": "https://s3-media2.fl.yelpcdn.com/bphoto/mEQVR-bzYZIBdvIns-Kt1w/o.jpg", "is_closed": false, "url": "https://www.yelp.com/biz/caffe-dei-fiori-new-york?adjust_creative=9gNmiWYX8uTbFBeTTvJMdA&utm_campaign=yelp_api_v3&utm_medium=api_v3_business_search&utm_source=9gNmiWYX8uTbFBeTTvJMdA", "review_count": 87, "categories": [{"alias": "italian", "title": "Italian"}], "rating": 4.5, "coordinates": {"latitude": 40.76935, "longitude": -73.9627}, "transactions": ["delivery", "pickup"], "price": "$$$", "location": {"address1": "973 Lexington Ave", "address2": "", "address3": "", "city": "New York", "zip_code": "10021", "country": "US", "state": "NY", "display_address": ["973 Lexington Ave", "New York, NY 10021"]}, "phone": "+12123273400", "display_phone": "(212) 327-3400", "distance": 1269.896252305583}, {"id": "Rc1Ay4C2BgLBouuM92SAtQ", "alias": "ferdi-new-york", "name": "Ferdi", "image_url": "https://s3-media3.fl.yelpcdn.com/bphoto/Xap7ghzZEWy9MCmY0gxVxA/o.jpg", "is_closed": false, "url": "https://www.yelp.com/biz/ferdi-new-york?adjust_creative=9gNmiWYX8uTbFBeTTvJMdA&utm_campaign=yelp_api_v3&utm_medium=api_v3_business_search&utm_source=9gNmiWYX8uTbFBeTTvJMdA", "review_count": 25, "categories": [{"alias": "italian", "title": "Italian"}, {"alias": "desserts", "title": "Desserts"}, {"alias": "breakfast_brunch", "title": "Breakfast & Brunch"}], "rating": 5.0, "coordinates": {"latitude": 40.72995, "longitude": -74.00449}, "transactions": ["delivery", "pickup"], "location": {"address1": "15 7th Ave S", "address2": null, "address3": "", "city": "New York", "zip_code": "10014", "country": "US", "state": "NY", "display_address": ["15 7th Ave S", "New York, NY 10014"]}, "phone": "+16464766464", "display_phone": "(646) 476-6464", "distance": 4375.6970435848525}, {"id": "MPblH3J1kpbNGL4C4U7RAQ", "alias": "il-carino-restaurant-new-york", "name": "IL Carino Restaurant", "image_url": "https://s3-media3.fl.yelpcdn.com/bphoto/EPDD1JbfYKniY1XKf-Sbcw/o.jpg", "is_closed": false, "url": "https://www.yelp.com/biz/il-carino-restaurant-new-york?adjust_creative=9gNmiWYX8uTbFBeTTvJMdA&utm_campaign=yelp_api_v3&utm_medium=api_v3_business_search&utm_source=9gNmiWYX8uTbFBeTTvJMdA", "review_count": 119, "categories": [{"alias": "italian", "title": "Italian"}], "rating": 4.0, "coordinates": {"latitude": 40.77945, "longitude": -73.95019}, "transactions": ["delivery", "pickup"], "price": "$$", "location": {"address1": "1710 2nd Ave", "address2": "", "address3": null, "city": "New York", "zip_code": "10128", "country": "US", "state": "NY", "display_address": ["1710 2nd Ave", "New York, NY 10128"]}, "phone": "+16468820487", "display_phone": "(646) 882-0487", "distance": 2787.352575875297}, {"id": "H_KyiRhwho8rdlw_R93_0Q", "alias": "marea-new-york", "name": "Marea", "image_url": "https://s3-media3.fl.yelpcdn.com/bphoto/eVTX_ATZuBzpdPSmpYt1Vw/o.jpg", "is_closed": false, "url": "https://www.yelp.com/biz/marea-new-york?adjust_creative=9gNmiWYX8uTbFBeTTvJMdA&utm_campaign=yelp_api_v3&utm_medium=api_v3_business_search&utm_source=9gNmiWYX8uTbFBeTTvJMdA", "review_count": 2326, "categories": [{"alias": "italian", "title": "Italian"}, {"alias": "seafood", "title": "Seafood"}, {"alias": "wine_bars", "title": "Wine Bars"}], "rating": 4.0, "coordinates": {"latitude": 40.7674213694566, "longitude": -73.9810554368179}, "transactions": ["delivery", "pickup"], "price": "$$$$", "location": {"address1": "240 Central Park S", "address2": "", "address3": "", "city": "New York", "zip_code": "10019", "country": "US", "state": "NY", "display_address": ["240 Central Park S", "New York, NY 10019"]}, "phone": "+12125825100", "display_phone": "(212) 582-5100", "distance": 1332.6296685573552}, {"id": "oUVX94JtKyLPXozC2hemCg", "alias": "manettas-ristorante-long-island-city", "name": "Manetta's Ristorante", "image_url": "https://s3-media2.fl.yelpcdn.com/bphoto/3ogg3adNEz1jiqIFjYVCsA/o.jpg", "is_closed": false, "url": "https://www.yelp.com/biz/manettas-ristorante-long-island-city?adjust_creative=9gNmiWYX8uTbFBeTTvJMdA&utm_campaign=yelp_api_v3&utm_medium=api_v3_business_search&utm_source=9gNmiWYX8uTbFBeTTvJMdA", "review_count": 447, "categories": [{"alias": "italian", "title": "Italian"}], "rating": 4.0, "coordinates": {"latitude": 40.7427, "longitude": -73.95184}, "transactions": ["delivery", "pickup"], "price": "$$", "location": {"address1": "1076 Jackson Ave", "address2": "", "address3": "", "city": "Long Island City", "zip_code": "11101", "country": "US", "state": "NY", "display_address": ["1076 Jackson Ave", "Long Island City, NY 11101"]}, "phone": "+17187866171", "display_phone": "(718) 786-6171", "distance": 2362.379708916203}, {"id": "rZ9OFoSqy8u4WECfh--ylg", "alias": "marta-new-york-7", "name": "Marta", "image_url": "https://s3-media1.fl.yelpcdn.com/bphoto/Fzpe_yJD6nUwoYNvMeccaw/o.jpg", "is_closed": false, "url": "https://www.yelp.com/biz/marta-new-york-7?adjust_creative=9gNmiWYX8uTbFBeTTvJMdA&utm_campaign=yelp_api_v3&utm_medium=api_v3_business_search&utm_source=9gNmiWYX8uTbFBeTTvJMdA", "review_count": 1001, "categories": [{"alias": "pizza", "title": "Pizza"}, {"alias": "italian", "title": "Italian"}], "rating": 4.0, "coordinates": {"latitude": 40.7445882, "longitude": -73.9847936}, "transactions": ["delivery"], "price": "$$$", "location": {"address1": "29 E 29th St", "address2": "", "address3": "", "city": "New York", "zip_code": "10016", "country": "US", "state": "NY", "display_address": ["29 E 29th St", "New York, NY 10016"]}, "phone": "+12126513800", "display_phone": "(212) 651-3800", "distance": 2038.8671829021082}, {"id": "H5bhfR5sL0I2w1csjI1uMA", "alias": "piatto-long-island-city", "name": "Piatto", "image_url": "https://s3-media2.fl.yelpcdn.com/bphoto/FJtVxMayJ0vQQzXjHyaiLA/o.jpg", "is_closed": false, "url": "https://www.yelp.com/biz/piatto-long-island-city?adjust_creative=9gNmiWYX8uTbFBeTTvJMdA&utm_campaign=yelp_api_v3&utm_medium=api_v3_business_search&utm_source=9gNmiWYX8uTbFBeTTvJMdA", "review_count": 235, "categories": [{"alias": "pizza", "title": "Pizza"}, {"alias": "italian", "title": "Italian"}, {"alias": "wine_bars", "title": "Wine Bars"}], "rating": 4.0, "coordinates": {"latitude": 40.7435117, "longitude": -73.9590968}, "transactions": ["delivery", "pickup"], "price": "$$", "location": {"address1": "1-50 50th Ave", "address2": "Corner of Center Blvd & 50th Avenue", "address3": "", "city": "Long Island City", "zip_code": "11101", "country": "US", "state": "NY", "display_address": ["1-50 50th Ave", "Corner of Center Blvd & 50th Avenue", "Long Island City, NY 11101"]}, "phone": "+17183612751", "display_phone": "(718) 361-2751", "distance": 1952.4915228834682}, {"id": "syNFp2qrQtXfH4bskQVgaA", "alias": "portale-new-york-2", "name": "Portale", "image_url": "https://s3-media2.fl.yelpcdn.com/bphoto/h94MgtV1TcWVgBs7y5FYAQ/o.jpg", "is_closed": false, "url": "https://www.yelp.com/biz/portale-new-york-2?adjust_creative=9gNmiWYX8uTbFBeTTvJMdA&utm_campaign=yelp_api_v3&utm_medium=api_v3_business_search&utm_source=9gNmiWYX8uTbFBeTTvJMdA", "review_count": 153, "categories": [{"alias": "italian", "title": "Italian"}, {"alias": "bars", "title": "Bars"}], "rating": 4.5, "coordinates": {"latitude": 40.74023348892918, "longitude": -73.9962661}, "transactions": ["delivery", "pickup"], "price": "$$$", "location": {"address1": "126 W 18th St", "address2": null, "address3": "", "city": "New York", "zip_code": "10011", "country": "US", "state": "NY", "display_address": ["126 W 18th St", "New York, NY 10011"]}, "phone": "+19177810255", "display_phone": "(917) 781-0255", "distance": 3080.844559159093}, {"id": "-UvkD-dQiefHRl1SNOJywA", "alias": "la-pecora-bianca-new-york-10", "name": "La Pecora Bianca", "image_url": "https://s3-media1.fl.yelpcdn.com/bphoto/lwgzXrJtwh9qJVOHi97ecg/o.jpg", "is_closed": false, "url": "https://www.yelp.com/biz/la-pecora-bianca-new-york-10?adjust_creative=9gNmiWYX8uTbFBeTTvJMdA&utm_campaign=yelp_api_v3&utm_medium=api_v3_business_search&utm_source=9gNmiWYX8uTbFBeTTvJMdA", "review_count": 24, "categories": [{"alias": "italian", "title": "Italian"}, {"alias": "wine_bars", "title": "Wine Bars"}], "rating": 3.5, "coordinates": {"latitude": 40.77477802702051, "longitude": -73.95379483409555}, "transactions": [], "location": {"address1": "1562 2nd Ave", "address2": "", "address3": null, "city": "New York", "zip_code": "10028", "country": "US", "state": "NY", "display_address": ["1562 2nd Ave", "New York, NY 10028"]}, "phone": "+12123009840", "display_phone": "(212) 300-9840", "distance": 2185.4296240884455}, {"id": "UQZmhaPAMdZabid6ccvhTg", "alias": "il-punto-ristorante-new-york-4", "name": "IL Punto Ristorante", "image_url": "https://s3-media1.fl.yelpcdn.com/bphoto/uEE-CNM1xSPktnPqZRpAkg/o.jpg", "is_closed": false, "url": "https://www.yelp.com/biz/il-punto-ristorante-new-york-4?adjust_creative=9gNmiWYX8uTbFBeTTvJMdA&utm_campaign=yelp_api_v3&utm_medium=api_v3_business_search&utm_source=9gNmiWYX8uTbFBeTTvJMdA", "review_count": 444, "categories": [{"alias": "italian", "title": "Italian"}, {"alias": "wine_bars", "title": "Wine Bars"}, {"alias": "gluten_free", "title": "Gluten-Free"}], "rating": 4.5, "coordinates": {"latitude": 40.75614426678582, "longitude": -73.9946186}, "transactions": ["restaurant_reservation", "delivery", "pickup"], "price": "$$$", "location": {"address1": "507 9th Ave", "address2": "", "address3": "", "city": "New York", "zip_code": "10018", "country": "US", "state": "NY", "display_address": ["507 9th Ave", "New York, NY 10018"]}, "phone": "+12122440088", "display_phone": "(212) 244-0088", "distance": 2136.1929679940536}, {"id": "9iC39Z1YjZKbrrCANgzBXg", "alias": "sergimmo-salumeria-new-york", "name": "Sergimmo Salumeria", "image_url": "https://s3-media1.fl.yelpcdn.com/bphoto/5Aa0ObfAtzPcOFweJhOu8g/o.jpg", "is_closed": false, "url": "https://www.yelp.com/biz/sergimmo-salumeria-new-york?adjust_creative=9gNmiWYX8uTbFBeTTvJMdA&utm_campaign=yelp_api_v3&utm_medium=api_v3_business_search&utm_source=9gNmiWYX8uTbFBeTTvJMdA", "review_count": 719, "categories": [{"alias": "italian", "title": "Italian"}, {"alias": "sandwiches", "title": "Sandwiches"}], "rating": 4.0, "coordinates": {"latitude": 40.754296, "longitude": -73.995498}, "transactions": ["delivery", "pickup"], "price": "$$", "location": {"address1": "456 9th Ave", "address2": "", "address3": "", "city": "New York", "zip_code": "10018", "country": "US", "state": "NY", "display_address": ["456 9th Ave", "New York, NY 10018"]}, "phone": "+12129674212", "display_phone": "(212) 967-4212", "distance": 2249.927901995799}, {"id": "5Akss-swwfyoSVeIsDBbvw", "alias": "basta-pasta-new-york", "name": "Basta Pasta", "image_url": "https://s3-media1.fl.yelpcdn.com/bphoto/DNcNi7IGtFjAso2_ubGW7A/o.jpg", "is_closed": false, "url": "https://www.yelp.com/biz/basta-pasta-new-york?adjust_creative=9gNmiWYX8uTbFBeTTvJMdA&utm_campaign=yelp_api_v3&utm_medium=api_v3_business_search&utm_source=9gNmiWYX8uTbFBeTTvJMdA", "review_count": 1510, "categories": [{"alias": "italian", "title": "Italian"}, {"alias": "japanese", "title": "Japanese"}], "rating": 4.0, "coordinates": {"latitude": 40.73881, "longitude": -73.99407}, "transactions": ["delivery", "pickup"], "price": "$$", "location": {"address1": "37 W 17th St", "address2": "", "address3": "", "city": "New York", "zip_code": "10011", "country": "US", "state": "NY", "display_address": ["37 W 17th St", "New York, NY 10011"]}, "phone": "+12123660888", "display_phone": "(212) 366-0888", "distance": 3057.7438021678327}], "total": 4600, "region": {"center": {"longitude": -73.96957397460938, "latitude": 40.75917470627005}}}