{"businesses": [{"id": "-tQ9Zlb5d9PPlDz_6UgV7w", "alias": "antica-pesa-brooklyn-3", "name": "Antica Pesa", "image_url": "https://s3-media2.fl.yelpcdn.com/bphoto/BxmQySTvNey3L3sIdr0rOA/o.jpg", "is_closed": false, "url": "https://www.yelp.com/biz/antica-pesa-brooklyn-3?adjust_creative=9gNmiWYX8uTbFBeTTvJMdA&utm_campaign=yelp_api_v3&utm_medium=api_v3_business_search&utm_source=9gNmiWYX8uTbFBeTTvJMdA", "review_count": 433, "categories": [{"alias": "italian", "title": "Italian"}, {"alias": "wine_bars", "title": "Wine Bars"}], "rating": 3.5, "coordinates": {"latitude": 40.71884, "longitude": -73.95865}, "transactions": ["pickup", "delivery"], "price": "$$$", "location": {"address1": "115 Berry St", "address2": "", "address3": "", "city": "Brooklyn", "zip_code": "11249", "country": "US", "state": "NY", "display_address": ["115 Berry St", "Brooklyn, NY 11249"]}, "phone": "+13477632635", "display_phone": "(347) 763-2635", "distance": 4581.654881563643}, {"id": "ywP0OEqRC6sp4NK1-QhW-g", "alias": "parm-new-york-4", "name": "Parm", "image_url": "https://s3-media2.fl.yelpcdn.com/bphoto/5V5Y0GYgz5v2o5p5YX5pRQ/o.jpg", "is_closed": false, "url": "https://www.yelp.com/biz/parm-new-york-4?adjust_creative=9gNmiWYX8uTbFBeTTvJMdA&utm_campaign=yelp_api_v3&utm_medium=api_v3_business_search&utm_source=9gNmiWYX8uTbFBeTTvJMdA", "review_count": 414, "categories": [{"alias": "italian", "title": "Italian"}, {"alias": "sandwiches", "title": "Sandwiches"}], "rating": 3.0, "coordinates": {"latitude": 40.714473491420726, "longitude": -74.01609333303082}, "transactions": ["pickup", "delivery"], "price": "$$", "location": {"address1": "250 Vesey St", "address2": "", "address3": "", "city": "New York", "zip_code": "10081", "country": "US", "state": "NY", "display_address": ["250 Vesey St", "New York, NY 10081"]}, "phone": "+12127764927", "display_phone": "(212) 776-4927", "distance": 6329.9534603087195}, {"id": "dbCTJp9ENDVIquxBWONzWQ", "alias": "pomodoro-new-york-2", "name": "Pomodoro", "image_url": "https://s3-media1.fl.yelpcdn.com/bphoto/lkQTD4ZL1aEFZMeGSh64wA/o.jpg", "is_closed": false, "url": "https://www.yelp.com/biz/pomodoro-new-york-2?adjust_creative=9gNmiWYX8uTbFBeTTvJMdA&utm_campaign=yelp_api_v3&utm_medium=api_v3_business_search&utm_source=9gNmiWYX8uTbFBeTTvJMdA", "review_count": 138, "categories": [{"alias": "italian", "title": "Italian"}, {"alias": "sandwiches", "title": "Sandwiches"}], "rating": 4.0, "coordinates": {"latitude": 40.75624, "longitude": -73.9939}, "transactions": ["pickup", "delivery"], "price": "$$", "location": {"address1": "518 9th Ave", "address2": "", "address3": "", "city": "New York", "zip_code": "10018", "country": "US", "state": "NY", "display_address": ["518 9th Ave", "New York, NY 10018"]}, "phone": "+12122397019", "display_phone": "(212) 239-7019", "distance": 2077.9509470230355}, {"id": "geTFpY84Tp-nVTXflnxtDA", "alias": "v-and-t-pizzeria-and-restaurant-new-york", "name": "V & T Pizzeria & Restaurant", "image_url": "https://s3-media3.fl.yelpcdn.com/bphoto/33M-LHO--Cm2Rj1VBovrmg/o.jpg", "is_closed": false, "url": "https://www.yelp.com/biz/v-and-t-pizzeria-and-restaurant-new-york?adjust_creative=9gNmiWYX8uTbFBeTTvJMdA&utm_campaign=yelp_api_v3&utm_medium=api_v3_business_search&utm_source=9gNmiWYX8uTbFBeTTvJMdA", "review_count": 386, "categories": [{"alias": "pizza", "title": "Pizza"}, {"alias": "italian", "title": "Italian"}, {"alias": "pastashops", "title": "Pasta Shops"}], "rating": 3.0, "coordinates": {"latitude": 40.80334, "longitude": -73.96383}, "transactions": ["pickup", "delivery"], "price": "$$", "location": {"address1": "1024 Amsterdam Ave", "address2": "", "address3": "", "city": "New York", "zip_code": "10025", "country": "US", "state": "NY", "display_address": ["1024 Amsterdam Ave", "New York, NY 10025"]}, "phone": "+12126631708", "display_phone": "(212) 663-1708", "distance": 4939.585687258218}, {"id": "kz9YaFCE1sGJ4CpLDKBIjQ", "alias": "the-stand-comedy-club-and-restaurant-new-york-3", "name": "The Stand Comedy Club and Restaurant", "image_url": "https://s3-media1.fl.yelpcdn.com/bphoto/btdrcdvyCbSkfdJl4GxwXA/o.jpg", "is_closed": false, "url": "https://www.yelp.com/biz/the-stand-comedy-club-and-restaurant-new-york-3?adjust_creative=9gNmiWYX8uTbFBeTTvJMdA&utm_campaign=yelp_api_v3&utm_medium=api_v3_business_search&utm_source=9gNmiWYX8uTbFBeTTvJMdA", "review_count": 660, "categories": [{"alias": "comedyclubs", "title": "Comedy Clubs"}, {"alias": "cocktailbars", "title": "Cocktail Bars"}, {"alias": "italian", "title": "Italian"}], "rating": 4.0, "coordinates": {"latitude": 40.73542, "longitude": -73.98835}, "transactions": ["pickup", "delivery"], "price": "$$", "location": {"address1": "116 E 16th St", "address2": "", "address3": null, "city": "New York", "zip_code": "10003", "country": "US", "state": "NY", "display_address": ["116 E 16th St", "New York, NY 10003"]}, "phone": "+12126772600", "display_phone": "(212) 677-2600", "distance": 3087.6147695230443}, {"id": "zzJA5P32V9MIHIMBIyasJw", "alias": "dante-west-village-new-york", "name": "Dante West Village", "image_url": "https://s3-media4.fl.yelpcdn.com/bphoto/AuCIUtbjFSrJ3Tcb5Dt7Yg/o.jpg", "is_closed": false, "url": "https://www.yelp.com/biz/dante-west-village-new-york?adjust_creative=9gNmiWYX8uTbFBeTTvJMdA&utm_campaign=yelp_api_v3&utm_medium=api_v3_business_search&utm_source=9gNmiWYX8uTbFBeTTvJMdA", "review_count": 182, "categories": [{"alias": "cocktailbars", "title": "Cocktail Bars"}, {"alias": "italian", "title": "Italian"}, {"alias": "breakfast_brunch", "title": "Breakfast & Brunch"}], "rating": 4.0, "coordinates": {"latitude": 40.735202, "longitude": -74.006251}, "transactions": ["delivery"], "price": "$$$", "location": {"address1": "551 Hudson St", "address2": "", "address3": null, "city": "New York", "zip_code": "10014", "country": "US", "state": "NY", "display_address": ["551 Hudson St", "New York, NY 10014"]}, "phone": "+12129825275", "display_phone": "(212) 982-5275", "distance": 4080.674912389254}, {"id": "m9zYRZFubncaWsQFIfNo5g", "alias": "loulou-petit-bistro-and-speakeasy-new-york", "name": "Loulou Petit Bistro & Speakeasy", "image_url": "https://s3-media1.fl.yelpcdn.com/bphoto/fJZ_Pwv4OfSc96kfrKZjUQ/o.jpg", "is_closed": false, "url": "https://www.yelp.com/biz/loulou-petit-bistro-and-speakeasy-new-york?adjust_creative=9gNmiWYX8uTbFBeTTvJMdA&utm_campaign=yelp_api_v3&utm_medium=api_v3_business_search&utm_source=9gNmiWYX8uTbFBeTTvJMdA", "review_count": 449, "categories": [{"alias": "french", "title": "French"}, {"alias": "cocktailbars", "title": "Cocktail Bars"}], "rating": 4.0, "coordinates": {"latitude": 40.742627091934104, "longitude": -74.00005776653397}, "transactions": ["pickup", "delivery"], "price": "$$", "location": {"address1": "176 8th Ave", "address2": "", "address3": null, "city": "New York", "zip_code": "10011", "country": "US", "state": "NY", "display_address": ["176 8th Ave", "New York, NY 10011"]}, "phone": "+12123379577", "display_phone": "(212) 337-9577", "distance": 3159.0219739917884}, {"id": "gu1gF8uZ_KvTzrL67hwH3g", "alias": "enzo-bruni-la-pizza-gourmet-new-york-8", "name": "Enzo Bruni La Pizza Gourmet", "image_url": "https://s3-media1.fl.yelpcdn.com/bphoto/p9_-Y2mHat53L5XCZUTtUA/o.jpg", "is_closed": false, "url": "https://www.yelp.com/biz/enzo-bruni-la-pizza-gourmet-new-york-8?adjust_creative=9gNmiWYX8uTbFBeTTvJMdA&utm_campaign=yelp_api_v3&utm_medium=api_v3_business_search&utm_source=9gNmiWYX8uTbFBeTTvJMdA", "review_count": 98, "categories": [{"alias": "italian", "title": "Italian"}], "rating": 4.5, "coordinates": {"latitude": 40.783433, "longitude": -73.947932}, "transactions": ["pickup", "delivery"], "price": "$$", "location": {"address1": "1827 2nd Ave", "address2": "", "address3": null, "city": "New York", "zip_code": "10128", "country": "US", "state": "NY", "display_address": ["1827 2nd Ave", "New York, NY 10128"]}, "phone": "+19176756867", "display_phone": "(917) 675-6867", "distance": 3254.480041008429}, {"id": "uDJw4dQiySoNCBoUalW1Ww", "alias": "lincoln-ristorante-new-york", "name": "Lincoln Ristorante", "image_url": "https://s3-media3.fl.yelpcdn.com/bphoto/PtR-U1OjmeEs3w39LsBHqA/o.jpg", "is_closed": false, "url": "https://www.yelp.com/biz/lincoln-ristorante-new-york?adjust_creative=9gNmiWYX8uTbFBeTTvJMdA&utm_campaign=yelp_api_v3&utm_medium=api_v3_business_search&utm_source=9gNmiWYX8uTbFBeTTvJMdA", "review_count": 595, "categories": [{"alias": "italian", "title": "Italian"}], "rating": 4.0, "coordinates": {"latitude": 40.773384318631486, "longitude": -73.98373135276117}, "transactions": ["pickup", "delivery"], "price": "$$$", "location": {"address1": "142 W 65th St", "address2": "", "address3": "", "city": "New York", "zip_code": "10023", "country": "US", "state": "NY", "display_address": ["142 W 65th St", "New York, NY 10023"]}, "phone": "+12123596500", "display_phone": "(212) 359-6500", "distance": 1979.4088429180083}, {"id": "y6V0XdpXbSoM4rHxLy5fwg", "alias": "vallata-new-york", "name": "Vallata", "image_url": "https://s3-media4.fl.yelpcdn.com/bphoto/9rau9RfmRkyYk5BuczbZ0A/o.jpg", "is_closed": false, "url": "https://www.yelp.com/biz/vallata-new-york?adjust_creative=9gNmiWYX8uTbFBeTTvJMdA&utm_campaign=yelp_api_v3&utm_medium=api_v3_business_search&utm_source=9gNmiWYX8uTbFBeTTvJMdA", "review_count": 40, "categories": [{"alias": "italian", "title": "Italian"}, {"alias": "wine_bars", "title": "Wine Bars"}, {"alias": "breakfast_brunch", "title": "Breakfast & Brunch"}], "rating": 4.0, "coordinates": {"latitude": 40.738070676010935, "longitude": -73.98858792703702}, "transactions": [], "location": {"address1": "47 E 19th St", "address2": "", "address3": null, "city": "New York", "zip_code": "10003", "country": "US", "state": "NY", "display_address": ["47 E 19th St", "New York, NY 10003"]}, "phone": "+12124614300", "display_phone": "(212) 461-4300", "distance": 2841.179912769589}, {"id": "ItyOhaRY5VeNAdK2liPEBg", "alias": "maria-restaurant-new-rochelle-2", "name": "Maria Restaurant", "image_url": "https://s3-media2.fl.yelpcdn.com/bphoto/0I-orY1uQ7quzWZvjqtJtA/o.jpg", "is_closed": false, "url": "https://www.yelp.com/biz/maria-restaurant-new-rochelle-2?adjust_creative=9gNmiWYX8uTbFBeTTvJMdA&utm_campaign=yelp_api_v3&utm_medium=api_v3_business_search&utm_source=9gNmiWYX8uTbFBeTTvJMdA", "review_count": 156, "categories": [{"alias": "italian", "title": "Italian"}, {"alias": "cocktailbars", "title": "Cocktail Bars"}], "rating": 4.0, "coordinates": {"latitude": 40.9143109, "longitude": -73.7736016}, "transactions": ["pickup", "delivery"], "price": "$$", "location": {"address1": "11 Huguenot St", "address2": "", "address3": null, "city": "New Rochelle", "zip_code": "10801", "country": "US", "state": "NY", "display_address": ["11 Huguenot St", "New Rochelle, NY 10801"]}, "phone": "+19146360006", "display_phone": "(914) 636-0006", "distance": 23852.95298461512}, {"id": "xTWpl9DgIkkr5B8h8_xUpA", "alias": "lokal-83-mediterranean-kitchen-new-york-2", "name": "Lokal 83 Mediterranean Kitchen", "image_url": "https://s3-media2.fl.yelpcdn.com/bphoto/Ujk_Zn67jyAFViiZ8RDRdQ/o.jpg", "is_closed": false, "url": "https://www.yelp.com/biz/lokal-83-mediterranean-kitchen-new-york-2?adjust_creative=9gNmiWYX8uTbFBeTTvJMdA&utm_campaign=yelp_api_v3&utm_medium=api_v3_business_search&utm_source=9gNmiWYX8uTbFBeTTvJMdA", "review_count": 447, "categories": [{"alias": "mediterranean", "title": "Mediterranean"}, {"alias": "cocktailbars", "title": "Cocktail Bars"}, {"alias": "greek", "title": "Greek"}], "rating": 4.5, "coordinates": {"latitude": 40.7842696, "longitude": -73.9734941}, "transactions": ["pickup", "delivery"], "price": "$$", "location": {"address1": "473 Columbus Ave", "address2": "83rd street", "address3": null, "city": "New York", "zip_code": "10024", "country": "US", "state": "NY", "display_address": ["473 Columbus Ave", "83rd street", "New York, NY 10024"]}, "phone": "+12125955554", "display_phone": "(212) 595-5554", "distance": 2809.8804511706853}, {"id": "EU47dsc_vvByG3qPIMyRog", "alias": "la-locanda-brooklyn", "name": "La Locanda", "image_url": "https://s3-media3.fl.yelpcdn.com/bphoto/8cm6-9f9kjdHf8sbGqkcSg/o.jpg", "is_closed": false, "url": "https://www.yelp.com/biz/la-locanda-brooklyn?adjust_creative=9gNmiWYX8uTbFBeTTvJMdA&utm_campaign=yelp_api_v3&utm_medium=api_v3_business_search&utm_source=9gNmiWYX8uTbFBeTTvJMdA", "review_count": 107, "categories": [{"alias": "italian", "title": "Italian"}], "rating": 4.0, "coordinates": {"latitude": 40.7178382873535, "longitude": -73.9446640014648}, "transactions": ["pickup", "delivery"], "price": "$$", "location": {"address1": "432 Graham Ave", "address2": "", "address3": "", "city": "Brooklyn", "zip_code": "11211", "country": "US", "state": "NY", "display_address": ["432 Graham Ave", "Brooklyn, NY 11211"]}, "phone": "+17183497800", "display_phone": "(718) 349-7800", "distance": 5052.0494754161955}, {"id": "K9kL1ice5jlkPXcNyTus3Q", "alias": "pasta-lovers-trattoria-new-york-2", "name": "Pasta Lovers Trattoria", "image_url": "https://s3-media3.fl.yelpcdn.com/bphoto/pFod81Jkt3BJB4YYglJVvw/o.jpg", "is_closed": false, "url": "https://www.yelp.com/biz/pasta-lovers-trattoria-new-york-2?adjust_creative=9gNmiWYX8uTbFBeTTvJMdA&utm_campaign=yelp_api_v3&utm_medium=api_v3_business_search&utm_source=9gNmiWYX8uTbFBeTTvJMdA", "review_count": 479, "categories": [{"alias": "italian", "title": "Italian"}, {"alias": "pastashops", "title": "Pasta Shops"}, {"alias": "wine_bars", "title": "Wine Bars"}], "rating": 3.5, "coordinates": {"latitude": 40.76003, "longitude": -73.98291}, "transactions": ["pickup", "delivery"], "price": "$$", "location": {"address1": "142 W 49th St", "address2": "", "address3": "", "city": "New York", "zip_code": "10019", "country": "US", "state": "NY", "display_address": ["142 W 49th St", "New York, NY 10019"]}, "phone": "+12128191155", "display_phone": "(212) 819-1155", "distance": 1131.4056559434619}, {"id": "Lw044EfH1h3XhUhri3ExfA", "alias": "blackbarn-new-york", "name": "BLACKBARN", "image_url": "https://s3-media2.fl.yelpcdn.com/bphoto/tynT-qoPLkafnZGnSA38NA/o.jpg", "is_closed": false, "url": "https://www.yelp.com/biz/blackbarn-new-york?adjust_creative=9gNmiWYX8uTbFBeTTvJMdA&utm_campaign=yelp_api_v3&utm_medium=api_v3_business_search&utm_source=9gNmiWYX8uTbFBeTTvJMdA", "review_count": 680, "categories": [{"alias": "newamerican", "title": "American (New)"}, {"alias": "breakfast_brunch", "title": "Breakfast & Brunch"}, {"alias": "wine_bars", "title": "Wine Bars"}], "rating": 4.0, "coordinates": {"latitude": 40.7431036278527, "longitude": -73.9870538457459}, "transactions": ["pickup", "delivery"], "price": "$$$", "location": {"address1": "19 E 26th St", "address2": "", "address3": "", "city": "New York", "zip_code": "10010", "country": "US", "state": "NY", "display_address": ["19 E 26th St", "New York, NY 10010"]}, "phone": "+12122655959", "display_phone": "(212) 265-5959", "distance": 2315.490681185289}, {"id": "k4ds_s6y8S46WzVIolypLQ", "alias": "serenas-wine-bar-new-york", "name": "Serena's Wine Bar", "image_url": "https://s3-media4.fl.yelpcdn.com/bphoto/Jc_T3bediJqfB5g-PHLBIQ/o.jpg", "is_closed": false, "url": "https://www.yelp.com/biz/serenas-wine-bar-new-york?adjust_creative=9gNmiWYX8uTbFBeTTvJMdA&utm_campaign=yelp_api_v3&utm_medium=api_v3_business_search&utm_source=9gNmiWYX8uTbFBeTTvJMdA", "review_count": 159, "categories": [{"alias": "wine_bars", "title": "Wine Bars"}], "rating": 4.0, "coordinates": {"latitude": 40.7652988, "longitude": -73.9609017}, "transactions": ["delivery"], "price": "$$", "location": {"address1": "1268 2nd Ave", "address2": "", "address3": "", "city": "New York", "zip_code": "10065", "country": "US", "state": "NY", "display_address": ["1268 2nd Ave", "New York, NY 10065"]}, "phone": "+12129882646", "display_phone": "(212) 988-2646", "distance": 998.5953401245783}, {"id": "7FSuPGQTUxe-A2Km_SVTNQ", "alias": "trattoria-ora-astoria", "name": "Trattoria Ora", "image_url": "https://s3-media1.fl.yelpcdn.com/bphoto/Y4SrUjzTP3gdcLe7xGq16A/o.jpg", "is_closed": false, "url": "https://www.yelp.com/biz/trattoria-ora-astoria?adjust_creative=9gNmiWYX8uTbFBeTTvJMdA&utm_campaign=yelp_api_v3&utm_medium=api_v3_business_search&utm_source=9gNmiWYX8uTbFBeTTvJMdA", "review_count": 60, "categories": [{"alias": "italian", "title": "Italian"}], "rating": 4.5, "coordinates": {"latitude": 40.7724, "longitude": -73.92729}, "transactions": ["pickup", "delivery"], "location": {"address1": "1801 Astoria Blvd", "address2": "", "address3": null, "city": "Astoria", "zip_code": "11102", "country": "US", "state": "NY", "display_address": ["1801 Astoria Blvd", "Astoria, NY 11102"]}, "phone": "+17184339680", "display_phone": "(718) 433-9680", "distance": 3854.6589268022717}, {"id": "gL4V5DN3yH45hbXqvy8-9g", "alias": "pizza-by-cert\u00e9-new-york", "name": "Pizza By Cert\u00e9", "image_url": "https://s3-media2.fl.yelpcdn.com/bphoto/Zo0rw3JIE5p4CiAY4cERag/o.jpg", "is_closed": false, "url": "https://www.yelp.com/biz/pizza-by-cert%C3%A9-new-york?adjust_creative=9gNmiWYX8uTbFBeTTvJMdA&utm_campaign=yelp_api_v3&utm_medium=api_v3_business_search&utm_source=9gNmiWYX8uTbFBeTTvJMdA", "review_count": 458, "categories": [{"alias": "pizza", "title": "Pizza"}, {"alias": "italian", "title": "Italian"}], "rating": 4.0, "coordinates": {"latitude": 40.7619979368852, "longitude": -73.9761684}, "transactions": ["pickup", "delivery"], "price": "$", "location": {"address1": "20 West 55th St", "address2": "", "address3": "", "city": "New York", "zip_code": "10019", "country": "US", "state": "NY", "display_address": ["20 West 55th St", "New York, NY 10019"]}, "phone": "+12123972020", "display_phone": "(212) 397-2020", "distance": 637.9884609653886}, {"id": "kmcgUxWhwlbmC-FAMTEF2g", "alias": "cafe-d-alsace-new-york-5", "name": "Cafe d\u2019Alsace", "image_url": "https://s3-media2.fl.yelpcdn.com/bphoto/YC0vU2BxVfPWbo0HJhnn6A/o.jpg", "is_closed": false, "url": "https://www.yelp.com/biz/cafe-d-alsace-new-york-5?adjust_creative=9gNmiWYX8uTbFBeTTvJMdA&utm_campaign=yelp_api_v3&utm_medium=api_v3_business_search&utm_source=9gNmiWYX8uTbFBeTTvJMdA", "review_count": 1341, "categories": [{"alias": "french", "title": "French"}, {"alias": "breakfast_brunch", "title": "Breakfast & Brunch"}, {"alias": "wine_bars", "title": "Wine Bars"}], "rating": 4.0, "coordinates": {"latitude": 40.77942, "longitude": -73.95084}, "transactions": ["pickup", "delivery"], "price": "$$$", "location": {"address1": "1703 2nd Ave", "address2": null, "address3": "", "city": "New York", "zip_code": "10128", "country": "US", "state": "NY", "display_address": ["1703 2nd Ave", "New York, NY 10128"]}, "phone": "+12127225133", "display_phone": "(212) 722-5133", "distance": 2748.0418588627426}, {"id": "b3lYtaBR1SlmH7NNDWi-vg", "alias": "the-landing-new-york-2", "name": "The Landing", "image_url": "https://s3-media4.fl.yelpcdn.com/bphoto/OGWHUEvDMtFWKXIWpLsizQ/o.jpg", "is_closed": false, "url": "https://www.yelp.com/biz/the-landing-new-york-2?adjust_creative=9gNmiWYX8uTbFBeTTvJMdA&utm_campaign=yelp_api_v3&utm_medium=api_v3_business_search&utm_source=9gNmiWYX8uTbFBeTTvJMdA", "review_count": 15, "categories": [{"alias": "cocktailbars", "title": "Cocktail Bars"}, {"alias": "tradamerican", "title": "American (Traditional)"}, {"alias": "burgers", "title": "Burgers"}], "rating": 4.5, "coordinates": {"latitude": 40.7511917, "longitude": -73.992165}, "transactions": [], "location": {"address1": "1 Pennsylvania Plz", "address2": null, "address3": null, "city": "New York", "zip_code": "10119", "country": "US", "state": "NY", "display_address": ["1 Pennsylvania Plz", "New York, NY 10119"]}, "phone": "+19177643463", "display_phone": "(917) 764-3463", "distance": 2099.7204506225453}, {"id": "8qT2fQh1qVhCVtAODADwRw", "alias": "i-gemelli-ristorante-south-hackensack-3", "name": "I Gemelli Ristorante", "image_url": "https://s3-media3.fl.yelpcdn.com/bphoto/GsIVzh1t3bjod8cPPdVkVA/o.jpg", "is_closed": false, "url": "https://www.yelp.com/biz/i-gemelli-ristorante-south-hackensack-3?adjust_creative=9gNmiWYX8uTbFBeTTvJMdA&utm_campaign=yelp_api_v3&utm_medium=api_v3_business_search&utm_source=9gNmiWYX8uTbFBeTTvJMdA", "review_count": 236, "categories": [{"alias": "italian", "title": "Italian"}], "rating": 4.5, "coordinates": {"latitude": 40.87057, "longitude": -74.04861}, "transactions": ["pickup", "delivery"], "price": "$$", "location": {"address1": "268 Huyler St", "address2": "", "address3": "", "city": "South Hackensack", "zip_code": "07606", "country": "US", "state": "NJ", "display_address": ["268 Huyler St", "South Hackensack, NJ 07606"]}, "phone": "+12014874220", "display_phone": "(201) 487-4220", "distance": 14071.301394068121}, {"id": "D0LsGudLqLabXbhEPMkw6A", "alias": "aumm-aumm-pizzeria-and-wine-bar-north-bergen", "name": "Aumm Aumm Pizzeria & Wine Bar", "image_url": "https://s3-media1.fl.yelpcdn.com/bphoto/VxtxzpHpeZ_8gRDuJZX1mA/o.jpg", "is_closed": false, "url": "https://www.yelp.com/biz/aumm-aumm-pizzeria-and-wine-bar-north-bergen?adjust_creative=9gNmiWYX8uTbFBeTTvJMdA&utm_campaign=yelp_api_v3&utm_medium=api_v3_business_search&utm_source=9gNmiWYX8uTbFBeTTvJMdA", "review_count": 395, "categories": [{"alias": "wine_bars", "title": "Wine Bars"}, {"alias": "italian", "title": "Italian"}, {"alias": "pizza", "title": "Pizza"}], "rating": 4.5, "coordinates": {"latitude": 40.79789, "longitude": -74.00231}, "transactions": ["pickup", "delivery"], "price": "$$", "location": {"address1": "7701 Broadway", "address2": null, "address3": "", "city": "North Bergen", "zip_code": "07047", "country": "US", "state": "NJ", "display_address": ["7701 Broadway", "North Bergen, NJ 07047"]}, "phone": "+12017139937", "display_phone": "(201) 713-9937", "distance": 5116.26870564033}, {"id": "XvEz60Y0NbLxooK9AmRU8g", "alias": "piccoli-trattoria-brooklyn", "name": "Piccoli Trattoria", "image_url": "https://s3-media1.fl.yelpcdn.com/bphoto/7FoKTPDjJjp0K02SgYZFrg/o.jpg", "is_closed": false, "url": "https://www.yelp.com/biz/piccoli-trattoria-brooklyn?adjust_creative=9gNmiWYX8uTbFBeTTvJMdA&utm_campaign=yelp_api_v3&utm_medium=api_v3_business_search&utm_source=9gNmiWYX8uTbFBeTTvJMdA", "review_count": 563, "categories": [{"alias": "italian", "title": "Italian"}, {"alias": "pastashops", "title": "Pasta Shops"}, {"alias": "wine_bars", "title": "Wine Bars"}], "rating": 4.5, "coordinates": {"latitude": 40.66518210863434, "longitude": -73.98653954110445}, "transactions": ["pickup", "delivery"], "price": "$$", "location": {"address1": "522 6th Ave", "address2": null, "address3": "", "city": "Brooklyn", "zip_code": "11215", "country": "US", "state": "NY", "display_address": ["522 6th Ave", "Brooklyn, NY 11215"]}, "phone": "+17187880066", "display_phone": "(718) 788-0066", "distance": 10548.855564459776}, {"id": "QV8c6gkvQfBt3QMZxCt39A", "alias": "cedrics-new-york", "name": "Cedric's", "image_url": "https://s3-media4.fl.yelpcdn.com/bphoto/It-9EmG7h3VepNv0Abg9ag/o.jpg", "is_closed": false, "url": "https://www.yelp.com/biz/cedrics-new-york?adjust_creative=9gNmiWYX8uTbFBeTTvJMdA&utm_campaign=yelp_api_v3&utm_medium=api_v3_business_search&utm_source=9gNmiWYX8uTbFBeTTvJMdA", "review_count": 21, "categories": [{"alias": "cocktailbars", "title": "Cocktail Bars"}], "rating": 4.0, "coordinates": {"latitude": 40.753190206996656, "longitude": -74.00251611263141}, "transactions": ["delivery"], "price": "$$", "location": {"address1": "545 W 30th St", "address2": null, "address3": "", "city": "New York", "zip_code": "10001", "country": "US", "state": "NY", "display_address": ["545 W 30th St", "New York, NY 10001"]}, "phone": "+16468604813", "display_phone": "(646) 860-4813", "distance": 2853.378419705811}, {"id": "k1zrPPGGMQdlHopP3MnxrQ", "alias": "storico-new-york", "name": "Storico", "image_url": "https://s3-media2.fl.yelpcdn.com/bphoto/KqQbPJLa-SNcW2uSC8aGzA/o.jpg", "is_closed": false, "url": "https://www.yelp.com/biz/storico-new-york?adjust_creative=9gNmiWYX8uTbFBeTTvJMdA&utm_campaign=yelp_api_v3&utm_medium=api_v3_business_search&utm_source=9gNmiWYX8uTbFBeTTvJMdA", "review_count": 217, "categories": [{"alias": "italian", "title": "Italian"}, {"alias": "salad", "title": "Salad"}, {"alias": "coffee", "title": "Coffee & Tea"}], "rating": 4.0, "coordinates": {"latitude": 40.779469, "longitude": -73.973975}, "transactions": [], "price": "$$$", "location": {"address1": "170 Ctr Park W", "address2": "", "address3": "New York Historical Society", "city": "New York", "zip_code": "10024", "country": "US", "state": "NY", "display_address": ["170 Ctr Park W", "New York Historical Society", "New York, NY 10024"]}, "phone": "+12124859211", "display_phone": "(212) 485-9211", "distance": 2286.852642150882}, {"id": "gjZpcE-X4zQOEqWQPelLgg", "alias": "max-new-york-7", "name": "Max", "image_url": "https://s3-media1.fl.yelpcdn.com/bphoto/iUO8gsY8CjfIY_Z2BZZnsg/o.jpg", "is_closed": false, "url": "https://www.yelp.com/biz/max-new-york-7?adjust_creative=9gNmiWYX8uTbFBeTTvJMdA&utm_campaign=yelp_api_v3&utm_medium=api_v3_business_search&utm_source=9gNmiWYX8uTbFBeTTvJMdA", "review_count": 475, "categories": [{"alias": "italian", "title": "Italian"}], "rating": 3.5, "coordinates": {"latitude": 40.71688, "longitude": -74.00835}, "transactions": ["pickup", "delivery"], "price": "$$", "location": {"address1": "134 W Broadway", "address2": "", "address3": "", "city": "New York", "zip_code": "10013", "country": "US", "state": "NY", "display_address": ["134 W Broadway", "New York, NY 10013"]}, "phone": "+12129665939", "display_phone": "(212) 966-5939", "distance": 5726.584742519907}, {"id": "FogLdooqSzKbmkwMGSwDiQ", "alias": "razza-jersey-city-4", "name": "Razza", "image_url": "https://s3-media3.fl.yelpcdn.com/bphoto/gZYasl2Qi58io3NNOeOgZg/o.jpg", "is_closed": false, "url": "https://www.yelp.com/biz/razza-jersey-city-4?adjust_creative=9gNmiWYX8uTbFBeTTvJMdA&utm_campaign=yelp_api_v3&utm_medium=api_v3_business_search&utm_source=9gNmiWYX8uTbFBeTTvJMdA", "review_count": 1167, "categories": [{"alias": "pizza", "title": "Pizza"}, {"alias": "italian", "title": "Italian"}, {"alias": "bars", "title": "Bars"}], "rating": 4.0, "coordinates": {"latitude": 40.7177776, "longitude": -74.0442612}, "transactions": ["delivery"], "price": "$$", "location": {"address1": "275-277 Grove St", "address2": "", "address3": "", "city": "Jersey City", "zip_code": "07302", "country": "US", "state": "NJ", "display_address": ["275-277 Grove St", "Jersey City, NJ 07302"]}, "phone": "+12013569348", "display_phone": "(201) 356-9348", "distance": 7796.47185146304}, {"id": "GgdR6L49eKH5drPaOYOOPQ", "alias": "pops-pizzas-new-york", "name": "Pop's Pizzas", "image_url": "https://s3-media2.fl.yelpcdn.com/bphoto/K51H3tN_XFj8LCYv5raNWQ/o.jpg", "is_closed": false, "url": "https://www.yelp.com/biz/pops-pizzas-new-york?adjust_creative=9gNmiWYX8uTbFBeTTvJMdA&utm_campaign=yelp_api_v3&utm_medium=api_v3_business_search&utm_source=9gNmiWYX8uTbFBeTTvJMdA", "review_count": 133, "categories": [{"alias": "pizza", "title": "Pizza"}], "rating": 4.5, "coordinates": {"latitude": 40.767086, "longitude": -73.983033}, "transactions": ["pickup", "delivery"], "price": "$", "location": {"address1": "301 West 57th St", "address2": null, "address3": "", "city": "New York", "zip_code": "10019", "country": "US", "state": "NY", "display_address": ["301 West 57th St", "New York, NY 10019"]}, "phone": "+12127848863", "display_phone": "(212) 784-8863", "distance": 1440.2080877869132}, {"id": "A5MHd0GjEb4P86UsNzUnig", "alias": "sesamo-new-york", "name": "SESAMO - Italian Asian Restaurant Hell's Kitchen NYC", "image_url": "https://s3-media4.fl.yelpcdn.com/bphoto/6T0XU_48g3rmdnMDp-dP7w/o.jpg", "is_closed": false, "url": "https://www.yelp.com/biz/sesamo-new-york?adjust_creative=9gNmiWYX8uTbFBeTTvJMdA&utm_campaign=yelp_api_v3&utm_medium=api_v3_business_search&utm_source=9gNmiWYX8uTbFBeTTvJMdA", "review_count": 288, "categories": [{"alias": "italian", "title": "Italian"}, {"alias": "cocktailbars", "title": "Cocktail Bars"}, {"alias": "asianfusion", "title": "Asian Fusion"}], "rating": 4.0, "coordinates": {"latitude": 40.765726, "longitude": -73.990678}, "transactions": ["pickup", "delivery"], "price": "$$", "location": {"address1": "764 10th Ave", "address2": "", "address3": null, "city": "New York", "zip_code": "10019", "country": "US", "state": "NY", "display_address": ["764 10th Ave", "New York, NY 10019"]}, "phone": "+12122652755", "display_phone": "(212) 265-2755", "distance": 1923.368668252784}, {"id": "h1_zWY2PVTZ5ul0RuiJ59g", "alias": "motorino-new-york-3", "name": "Motorino", "image_url": "https://s3-media3.fl.yelpcdn.com/bphoto/lokM_SgoS7oh9t9nyq1o-Q/o.jpg", "is_closed": false, "url": "https://www.yelp.com/biz/motorino-new-york-3?adjust_creative=9gNmiWYX8uTbFBeTTvJMdA&utm_campaign=yelp_api_v3&utm_medium=api_v3_business_search&utm_source=9gNmiWYX8uTbFBeTTvJMdA", "review_count": 282, "categories": [{"alias": "pizza", "title": "Pizza"}, {"alias": "italian", "title": "Italian"}], "rating": 3.5, "coordinates": {"latitude": 40.7855672, "longitude": -73.9730817}, "transactions": ["pickup", "delivery"], "price": "$$", "location": {"address1": "510 Columbus Ave", "address2": null, "address3": "", "city": "New York", "zip_code": "10024", "country": "US", "state": "NY", "display_address": ["510 Columbus Ave", "New York, NY 10024"]}, "phone": "+19176757581", "display_phone": "(917) 675-7581", "distance": 2962.376075845439}, {"id": "HD0e3eHwv573qHZOJJitWg", "alias": "aurora-soho-new-york", "name": "Aurora Soho", "image_url": "https://s3-media3.fl.yelpcdn.com/bphoto/M4sGEk7xHI9pYu3oDroZTQ/o.jpg", "is_closed": false, "url": "https://www.yelp.com/biz/aurora-soho-new-york?adjust_creative=9gNmiWYX8uTbFBeTTvJMdA&utm_campaign=yelp_api_v3&utm_medium=api_v3_business_search&utm_source=9gNmiWYX8uTbFBeTTvJMdA", "review_count": 527, "categories": [{"alias": "italian", "title": "Italian"}, {"alias": "breakfast_brunch", "title": "Breakfast & Brunch"}, {"alias": "wine_bars", "title": "Wine Bars"}], "rating": 4.0, "coordinates": {"latitude": 40.723543, "longitude": -74.003199}, "transactions": ["delivery"], "price": "$$$", "location": {"address1": "510 Broome St", "address2": "", "address3": "", "city": "New York", "zip_code": "10013", "country": "US", "state": "NY", "display_address": ["510 Broome St", "New York, NY 10013"]}, "phone": "+12123349020", "display_phone": "(212) 334-9020", "distance": 4870.621805524595}, {"id": "NqwwyMMXIS-JnwdDQBQT9A", "alias": "baz\u00e1r-tapas-bar-and-restaurant-new-york-9", "name": "Baz\u00e1r Tapas Bar & Restaurant", "image_url": "https://s3-media2.fl.yelpcdn.com/bphoto/hpyjPilFZ8iisZoqsKlqKg/o.jpg", "is_closed": false, "url": "https://www.yelp.com/biz/baz%C3%A1r-tapas-bar-and-restaurant-new-york-9?adjust_creative=9gNmiWYX8uTbFBeTTvJMdA&utm_campaign=yelp_api_v3&utm_medium=api_v3_business_search&utm_source=9gNmiWYX8uTbFBeTTvJMdA", "review_count": 729, "categories": [{"alias": "tapasmallplates", "title": "Tapas/Small Plates"}, {"alias": "cocktailbars", "title": "Cocktail Bars"}, {"alias": "wine_bars", "title": "Wine Bars"}], "rating": 4.0, "coordinates": {"latitude": 40.744449, "longitude": -73.990068}, "transactions": ["pickup", "delivery", "restaurant_reservation"], "price": "$$$", "location": {"address1": "31 W 26th St", "address2": "", "address3": null, "city": "New York", "zip_code": "10010", "country": "US", "state": "NY", "display_address": ["31 W 26th St", "New York, NY 10010"]}, "phone": "+12125108155", "display_phone": "(212) 510-8155", "distance": 2379.3509996521684}, {"id": "Xk3BVvlX-KXh6kJhbClMKw", "alias": "fine-and-rare-new-york", "name": "Fine & Rare", "image_url": "https://s3-media3.fl.yelpcdn.com/bphoto/8bLVqwAl3WvcKfDD9MOCMA/o.jpg", "is_closed": false, "url": "https://www.yelp.com/biz/fine-and-rare-new-york?adjust_creative=9gNmiWYX8uTbFBeTTvJMdA&utm_campaign=yelp_api_v3&utm_medium=api_v3_business_search&utm_source=9gNmiWYX8uTbFBeTTvJMdA", "review_count": 492, "categories": [{"alias": "newamerican", "title": "American (New)"}, {"alias": "jazzandblues", "title": "Jazz & Blues"}, {"alias": "lounges", "title": "Lounges"}], "rating": 4.5, "coordinates": {"latitude": 40.7501754760742, "longitude": -73.9821929931641}, "transactions": ["pickup", "delivery"], "price": "$$$", "location": {"address1": "9 E 37th St", "address2": null, "address3": "", "city": "New York", "zip_code": "10016", "country": "US", "state": "NY", "display_address": ["9 E 37th St", "New York, NY 10016"]}, "phone": "+12127253866", "display_phone": "(212) 725-3866", "distance": 1457.6913265021683}, {"id": "Ntia3g3RhsV9g-yHWsS0og", "alias": "fontana-tritone-leonia", "name": "Fontana Tritone", "image_url": "https://s3-media1.fl.yelpcdn.com/bphoto/FvG3BP7vjNe07oHSEgrpzw/o.jpg", "is_closed": false, "url": "https://www.yelp.com/biz/fontana-tritone-leonia?adjust_creative=9gNmiWYX8uTbFBeTTvJMdA&utm_campaign=yelp_api_v3&utm_medium=api_v3_business_search&utm_source=9gNmiWYX8uTbFBeTTvJMdA", "review_count": 69, "categories": [{"alias": "italian", "title": "Italian"}], "rating": 4.5, "coordinates": {"latitude": 40.8618199, "longitude": -73.9883783}, "transactions": ["pickup", "delivery"], "price": "$$", "location": {"address1": "248 Fort Lee Rd", "address2": null, "address3": null, "city": "LEONIA", "zip_code": "07605", "country": "US", "state": "NJ", "display_address": ["248 Fort Lee Rd", "LEONIA, NJ 07605"]}, "phone": "+12012429040", "display_phone": "(201) 242-9040", "distance": 11522.808240927245}, {"id": "blaTQKod-nz94F3Fm_ZoYQ", "alias": "osteria-laura-new-york", "name": "Osteria Laura", "image_url": "https://s3-media3.fl.yelpcdn.com/bphoto/xafcmRm6DDvcg7PYDrwICA/o.jpg", "is_closed": false, "url": "https://www.yelp.com/biz/osteria-laura-new-york?adjust_creative=9gNmiWYX8uTbFBeTTvJMdA&utm_campaign=yelp_api_v3&utm_medium=api_v3_business_search&utm_source=9gNmiWYX8uTbFBeTTvJMdA", "review_count": 51, "categories": [{"alias": "italian", "title": "Italian"}, {"alias": "wine_bars", "title": "Wine Bars"}, {"alias": "cocktailbars", "title": "Cocktail Bars"}], "rating": 4.5, "coordinates": {"latitude": 40.80251, "longitude": -73.95355}, "transactions": ["pickup", "delivery"], "location": {"address1": "1890 Adam Clayton Powell Jr Blvd", "address2": "", "address3": null, "city": "New York", "zip_code": "10026", "country": "US", "state": "NY", "display_address": ["1890 Adam Clayton Powell Jr Blvd", "New York, NY 10026"]}, "phone": "+19172616575", "display_phone": "(917) 261-6575", "distance": 4999.6478268634655}, {"id": "jo30o65XFWmgMJS86zFiFQ", "alias": "la-mela-ristorante-new-york", "name": "La Mela Ristorante", "image_url": "https://s3-media2.fl.yelpcdn.com/bphoto/P83k2kthDqQjmeACSjCpYQ/o.jpg", "is_closed": false, "url": "https://www.yelp.com/biz/la-mela-ristorante-new-york?adjust_creative=9gNmiWYX8uTbFBeTTvJMdA&utm_campaign=yelp_api_v3&utm_medium=api_v3_business_search&utm_source=9gNmiWYX8uTbFBeTTvJMdA", "review_count": 856, "categories": [{"alias": "italian", "title": "Italian"}], "rating": 4.0, "coordinates": {"latitude": 40.719907, "longitude": -73.997294}, "transactions": ["pickup"], "price": "$$", "location": {"address1": "167 Mulberry St", "address2": "", "address3": "", "city": "New York", "zip_code": "10013", "country": "US", "state": "NY", "display_address": ["167 Mulberry St", "New York, NY 10013"]}, "phone": "+12124319493", "display_phone": "(212) 431-9493", "distance": 4951.702838079894}, {"id": "XcfZqLrXdABSZLViQ34VTw", "alias": "chelsea-ristorante-new-york", "name": "Chelsea Ristorante", "image_url": "https://s3-media2.fl.yelpcdn.com/bphoto/Fqs1MIP4Of61hJ2gP5UDLw/o.jpg", "is_closed": false, "url": "https://www.yelp.com/biz/chelsea-ristorante-new-york?adjust_creative=9gNmiWYX8uTbFBeTTvJMdA&utm_campaign=yelp_api_v3&utm_medium=api_v3_business_search&utm_source=9gNmiWYX8uTbFBeTTvJMdA", "review_count": 218, "categories": [{"alias": "italian", "title": "Italian"}], "rating": 3.5, "coordinates": {"latitude": 40.7405719, "longitude": -74.0017238}, "transactions": ["pickup", "delivery"], "price": "$$", "location": {"address1": "108 8th Ave", "address2": "", "address3": "", "city": "New York", "zip_code": "10011", "country": "US", "state": "NY", "display_address": ["108 8th Ave", "New York, NY 10011"]}, "phone": "+12129247786", "display_phone": "(212) 924-7786", "distance": 3393.59048976476}, {"id": "LnMRZhKtOrW1eL04FiPYTg", "alias": "senza-gluten-new-york-2", "name": "Senza Gluten", "image_url": "https://s3-media2.fl.yelpcdn.com/bphoto/aYlbNkQnOeKyVCGloJCMWg/o.jpg", "is_closed": false, "url": "https://www.yelp.com/biz/senza-gluten-new-york-2?adjust_creative=9gNmiWYX8uTbFBeTTvJMdA&utm_campaign=yelp_api_v3&utm_medium=api_v3_business_search&utm_source=9gNmiWYX8uTbFBeTTvJMdA", "review_count": 688, "categories": [{"alias": "italian", "title": "Italian"}, {"alias": "gluten_free", "title": "Gluten-Free"}], "rating": 4.0, "coordinates": {"latitude": 40.7290911050589, "longitude": -74.00031}, "transactions": ["pickup", "delivery"], "price": "$$", "location": {"address1": "206 Sullivan St", "address2": "", "address3": "", "city": "New York", "zip_code": "10012", "country": "US", "state": "NY", "display_address": ["206 Sullivan St", "New York, NY 10012"]}, "phone": "+12124757775", "display_phone": "(212) 475-7775", "distance": 4230.21091751175}, {"id": "MdFV5IBcX-Ni6I4Zy1EqIw", "alias": "marlow-bistro-new-york", "name": "Marlow Bistro", "image_url": "https://s3-media2.fl.yelpcdn.com/bphoto/LBaU4BdGS49LzNeBGLuWsQ/o.jpg", "is_closed": false, "url": "https://www.yelp.com/biz/marlow-bistro-new-york?adjust_creative=9gNmiWYX8uTbFBeTTvJMdA&utm_campaign=yelp_api_v3&utm_medium=api_v3_business_search&utm_source=9gNmiWYX8uTbFBeTTvJMdA", "review_count": 346, "categories": [{"alias": "mediterranean", "title": "Mediterranean"}, {"alias": "pizza", "title": "Pizza"}, {"alias": "venues", "title": "Venues & Event Spaces"}], "rating": 4.0, "coordinates": {"latitude": 40.8028109023738, "longitude": -73.9641991912535}, "transactions": ["pickup", "delivery"], "price": "$$", "location": {"address1": "1018 Amsterdam Ave", "address2": "", "address3": null, "city": "New York", "zip_code": "10025", "country": "US", "state": "NY", "display_address": ["1018 Amsterdam Ave", "New York, NY 10025"]}, "phone": "+12126629020", "display_phone": "(212) 662-9020", "distance": 4873.176518164913}, {"id": "CYYLEipRFmr73Hz6XNEzoQ", "alias": "little-italy-pizza-new-york-5", "name": "Little Italy Pizza", "image_url": "https://s3-media4.fl.yelpcdn.com/bphoto/qpJGAHOP6HsEzIN4N06Uhw/o.jpg", "is_closed": false, "url": "https://www.yelp.com/biz/little-italy-pizza-new-york-5?adjust_creative=9gNmiWYX8uTbFBeTTvJMdA&utm_campaign=yelp_api_v3&utm_medium=api_v3_business_search&utm_source=9gNmiWYX8uTbFBeTTvJMdA", "review_count": 600, "categories": [{"alias": "pizza", "title": "Pizza"}, {"alias": "salad", "title": "Salad"}, {"alias": "pastashops", "title": "Pasta Shops"}], "rating": 4.0, "coordinates": {"latitude": 40.756482, "longitude": -73.981484}, "transactions": ["pickup", "delivery"], "price": "$", "location": {"address1": "55 W 45th St", "address2": "", "address3": "", "city": "New York", "zip_code": "10036", "country": "US", "state": "NY", "display_address": ["55 W 45th St", "New York, NY 10036"]}, "phone": "+12127307575", "display_phone": "(212) 730-7575", "distance": 1046.880841832898}, {"id": "I6Wg1NFYAAVzM2OpsdqcXA", "alias": "grand-vin-hoboken", "name": "Grand Vin", "image_url": "https://s3-media4.fl.yelpcdn.com/bphoto/GbYGgQ4svr83hDjHYvE9Cw/o.jpg", "is_closed": false, "url": "https://www.yelp.com/biz/grand-vin-hoboken?adjust_creative=9gNmiWYX8uTbFBeTTvJMdA&utm_campaign=yelp_api_v3&utm_medium=api_v3_business_search&utm_source=9gNmiWYX8uTbFBeTTvJMdA", "review_count": 531, "categories": [{"alias": "wine_bars", "title": "Wine Bars"}, {"alias": "italian", "title": "Italian"}, {"alias": "cocktailbars", "title": "Cocktail Bars"}], "rating": 4.0, "coordinates": {"latitude": 40.74331, "longitude": -74.03517}, "transactions": ["delivery"], "price": "$$", "location": {"address1": "500 Grand St", "address2": "", "address3": "", "city": "Hoboken", "zip_code": "07030", "country": "US", "state": "NJ", "display_address": ["500 Grand St", "Hoboken, NJ 07030"]}, "phone": "+12016227009", "display_phone": "(201) 622-7009", "distance": 5803.593162195823}, {"id": "FU1KDj4Yg388XMVTfcdIlw", "alias": "abitino-s-pizza-new-york", "name": "Abitino\u2019s Pizza", "image_url": "https://s3-media4.fl.yelpcdn.com/bphoto/kPIefKVVBL1toHfO2msQKg/o.jpg", "is_closed": false, "url": "https://www.yelp.com/biz/abitino-s-pizza-new-york?adjust_creative=9gNmiWYX8uTbFBeTTvJMdA&utm_campaign=yelp_api_v3&utm_medium=api_v3_business_search&utm_source=9gNmiWYX8uTbFBeTTvJMdA", "review_count": 3, "categories": [{"alias": "pizza", "title": "Pizza"}, {"alias": "italian", "title": "Italian"}], "rating": 3.5, "coordinates": {"latitude": 40.74751421339018, "longitude": -73.9742346315895}, "transactions": ["pickup", "delivery"], "location": {"address1": "707 2nd Ave", "address2": "", "address3": null, "city": "New York", "zip_code": "10016", "country": "US", "state": "NY", "display_address": ["707 2nd Ave", "New York, NY 10016"]}, "phone": "+12126611919", "display_phone": "(212) 661-1919", "distance": 1354.716181219241}, {"id": "O6RBNHBleB0mCb2dAanxCw", "alias": "casa-lever-new-york", "name": "Casa Lever", "image_url": "https://s3-media3.fl.yelpcdn.com/bphoto/JxIlYs5RrOioW1jvrzjerw/o.jpg", "is_closed": false, "url": "https://www.yelp.com/biz/casa-lever-new-york?adjust_creative=9gNmiWYX8uTbFBeTTvJMdA&utm_campaign=yelp_api_v3&utm_medium=api_v3_business_search&utm_source=9gNmiWYX8uTbFBeTTvJMdA", "review_count": 247, "categories": [{"alias": "italian", "title": "Italian"}, {"alias": "lounges", "title": "Lounges"}], "rating": 4.0, "coordinates": {"latitude": 40.759741, "longitude": -73.972956}, "transactions": ["delivery"], "price": "$$$", "location": {"address1": "390 Park Ave", "address2": "", "address3": "", "city": "New York", "zip_code": "10022", "country": "US", "state": "NY", "display_address": ["390 Park Ave", "New York, NY 10022"]}, "phone": "+12128882700", "display_phone": "(212) 888-2700", "distance": 291.7290160230931}, {"id": "BpdlX1j1-FbOC1dWIrZv4w", "alias": "bella-blu-new-york", "name": "Bella Blu", "image_url": "https://s3-media3.fl.yelpcdn.com/bphoto/rhHp5NfqV9ta-sHyhcodjQ/o.jpg", "is_closed": false, "url": "https://www.yelp.com/biz/bella-blu-new-york?adjust_creative=9gNmiWYX8uTbFBeTTvJMdA&utm_campaign=yelp_api_v3&utm_medium=api_v3_business_search&utm_source=9gNmiWYX8uTbFBeTTvJMdA", "review_count": 288, "categories": [{"alias": "italian", "title": "Italian"}], "rating": 3.5, "coordinates": {"latitude": 40.769207, "longitude": -73.962791}, "transactions": ["pickup", "delivery"], "price": "$$$", "location": {"address1": "967 Lexington Ave", "address2": "", "address3": "", "city": "New York", "zip_code": "10021", "country": "US", "state": "NY", "display_address": ["967 Lexington Ave", "New York, NY 10021"]}, "phone": "+12129884624", "display_phone": "(212) 988-4624", "distance": 1253.649690733282}, {"id": "J9xVQScnr0lYWl61_mLXMA", "alias": "lido-new-york", "name": "Lido", "image_url": "https://s3-media3.fl.yelpcdn.com/bphoto/9cGpi2mEcBqzRy8vUJiwwQ/o.jpg", "is_closed": false, "url": "https://www.yelp.com/biz/lido-new-york?adjust_creative=9gNmiWYX8uTbFBeTTvJMdA&utm_campaign=yelp_api_v3&utm_medium=api_v3_business_search&utm_source=9gNmiWYX8uTbFBeTTvJMdA", "review_count": 1165, "categories": [{"alias": "italian", "title": "Italian"}, {"alias": "breakfast_brunch", "title": "Breakfast & Brunch"}, {"alias": "cocktailbars", "title": "Cocktail Bars"}], "rating": 4.0, "coordinates": {"latitude": 40.8049797781916, "longitude": -73.9548260014624}, "transactions": ["pickup", "delivery"], "price": "$$", "location": {"address1": "2168 Frederick Douglass Blvd", "address2": "", "address3": "", "city": "New York", "zip_code": "10026", "country": "US", "state": "NY", "display_address": ["2168 Frederick Douglass Blvd", "New York, NY 10026"]}, "phone": "+16464908575", "display_phone": "(646) 490-8575", "distance": 5242.466451971107}, {"id": "P2CTp4xyaNCe2AXSiLeOSQ", "alias": "the-odeon-new-york", "name": "The Odeon", "image_url": "https://s3-media2.fl.yelpcdn.com/bphoto/7RjddI-pTOVvnkO2ihMq6Q/o.jpg", "is_closed": false, "url": "https://www.yelp.com/biz/the-odeon-new-york?adjust_creative=9gNmiWYX8uTbFBeTTvJMdA&utm_campaign=yelp_api_v3&utm_medium=api_v3_business_search&utm_source=9gNmiWYX8uTbFBeTTvJMdA", "review_count": 746, "categories": [{"alias": "newamerican", "title": "American (New)"}, {"alias": "french", "title": "French"}, {"alias": "italian", "title": "Italian"}], "rating": 4.0, "coordinates": {"latitude": 40.71692, "longitude": -74.00792}, "transactions": ["pickup", "delivery"], "price": "$$$", "location": {"address1": "145 W Broadway", "address2": "", "address3": "", "city": "New York", "zip_code": "10013", "country": "US", "state": "NY", "display_address": ["145 W Broadway", "New York, NY 10013"]}, "phone": "+12122330507", "display_phone": "(212) 233-0507", "distance": 5693.75640173795}, {"id": "hDgpiXE5_d4Is1sJ5kUBQg", "alias": "wine-30-new-york", "name": "Wine 30", "image_url": "https://s3-media2.fl.yelpcdn.com/bphoto/9HRGjK_ECX7Fnbo_IRR6kQ/o.jpg", "is_closed": false, "url": "https://www.yelp.com/biz/wine-30-new-york?adjust_creative=9gNmiWYX8uTbFBeTTvJMdA&utm_campaign=yelp_api_v3&utm_medium=api_v3_business_search&utm_source=9gNmiWYX8uTbFBeTTvJMdA", "review_count": 827, "categories": [{"alias": "wine_bars", "title": "Wine Bars"}, {"alias": "mediterranean", "title": "Mediterranean"}, {"alias": "venues", "title": "Venues & Event Spaces"}], "rating": 4.0, "coordinates": {"latitude": 40.74492841946161, "longitude": -73.9837861}, "transactions": ["pickup", "delivery", "restaurant_reservation"], "price": "$$", "location": {"address1": "41 E 30th St", "address2": "", "address3": "", "city": "New York", "zip_code": "10016", "country": "US", "state": "NY", "display_address": ["41 E 30th St", "New York, NY 10016"]}, "phone": "+12124810197", "display_phone": "(212) 481-0197", "distance": 1985.5960860069492}, {"id": "4zw8vEJNc4mcHh2ARzj2gw", "alias": "osteria-brooklyn-brooklyn", "name": "Osteria Brooklyn", "image_url": "https://s3-media2.fl.yelpcdn.com/bphoto/fV8MgayoafJCoO5lQF-Whg/o.jpg", "is_closed": false, "url": "https://www.yelp.com/biz/osteria-brooklyn-brooklyn?adjust_creative=9gNmiWYX8uTbFBeTTvJMdA&utm_campaign=yelp_api_v3&utm_medium=api_v3_business_search&utm_source=9gNmiWYX8uTbFBeTTvJMdA", "review_count": 184, "categories": [{"alias": "italian", "title": "Italian"}], "rating": 4.5, "coordinates": {"latitude": 40.693154, "longitude": -73.967177}, "transactions": ["pickup", "delivery"], "price": "$$$", "location": {"address1": "458 Myrtle Ave", "address2": "", "address3": null, "city": "Brooklyn", "zip_code": "11205", "country": "US", "state": "NY", "display_address": ["458 Myrtle Ave", "Brooklyn, NY 11205"]}, "phone": "+16467509156", "display_phone": "(646) 750-9156", "distance": 7343.937689383692}, {"id": "oLA02lMIfgvbYquvXzkARw", "alias": "lillies-victorian-establishment-new-york-2", "name": "Lillie's Victorian Establishment", "image_url": "https://s3-media2.fl.yelpcdn.com/bphoto/W7Kz66hOvhDFben34y7KVQ/o.jpg", "is_closed": false, "url": "https://www.yelp.com/biz/lillies-victorian-establishment-new-york-2?adjust_creative=9gNmiWYX8uTbFBeTTvJMdA&utm_campaign=yelp_api_v3&utm_medium=api_v3_business_search&utm_source=9gNmiWYX8uTbFBeTTvJMdA", "review_count": 1578, "categories": [{"alias": "bars", "title": "Bars"}, {"alias": "gastropubs", "title": "Gastropubs"}, {"alias": "burgers", "title": "Burgers"}], "rating": 4.0, "coordinates": {"latitude": 40.7614625, "longitude": -73.9860519}, "transactions": ["pickup"], "price": "$$", "location": {"address1": "249 W 49th St", "address2": "", "address3": "", "city": "New York", "zip_code": "10019", "country": "US", "state": "NY", "display_address": ["249 W 49th St", "New York, NY 10019"]}, "phone": "+12129574530", "display_phone": "(212) 957-4530", "distance": 1410.962614845065}, {"id": "8LQLe1jvyGwrkhVMMbA9Vw", "alias": "cara-mia-italian-trattoria-guttenberg", "name": "Cara Mia Italian Trattoria", "image_url": "https://s3-media2.fl.yelpcdn.com/bphoto/LHga039Md_qFmRxlQu6sVQ/o.jpg", "is_closed": false, "url": "https://www.yelp.com/biz/cara-mia-italian-trattoria-guttenberg?adjust_creative=9gNmiWYX8uTbFBeTTvJMdA&utm_campaign=yelp_api_v3&utm_medium=api_v3_business_search&utm_source=9gNmiWYX8uTbFBeTTvJMdA", "review_count": 14, "categories": [{"alias": "italian", "title": "Italian"}, {"alias": "wine_bars", "title": "Wine Bars"}], "rating": 4.5, "coordinates": {"latitude": 40.7935, "longitude": -74.00573}, "transactions": [], "location": {"address1": "201 70th St", "address2": null, "address3": "", "city": "Guttenberg", "zip_code": "07093", "country": "US", "state": "NJ", "display_address": ["201 70th St", "Guttenberg, NJ 07093"]}, "phone": "+12012104777", "display_phone": "(201) 210-4777", "distance": 4886.50339155555}], "total": 4600, "region": {"center": {"longitude": -73.96957397460938, "latitude": 40.75917470627005}}}