{"businesses": [{"id": "OFfZUS-nu6NDnsWe1B2bUQ", "alias": "tonchin-new-york-2", "name": "Tonchin", "image_url": "https://s3-media3.fl.yelpcdn.com/bphoto/Xu78RamVyuKvKqV8IDrvsw/o.jpg", "is_closed": false, "url": "https://www.yelp.com/biz/tonchin-new-york-2?adjust_creative=9gNmiWYX8uTbFBeTTvJMdA&utm_campaign=yelp_api_v3&utm_medium=api_v3_business_search&utm_source=9gNmiWYX8uTbFBeTTvJMdA", "review_count": 1819, "categories": [{"alias": "ramen", "title": "Ramen"}, {"alias": "izakaya", "title": "Izakaya"}, {"alias": "wine_bars", "title": "Wine Bars"}], "rating": 4.5, "coordinates": {"latitude": 40.7502727, "longitude": -73.9844951}, "transactions": ["delivery", "pickup"], "price": "$$", "location": {"address1": "13 W 36th St", "address2": null, "address3": "", "city": "New York", "zip_code": "10018", "country": "US", "state": "NY", "display_address": ["13 W 36th St", "New York, NY 10018"]}, "phone": "+16466929912", "display_phone": "(646) 692-9912", "distance": 1599.8211764492949}, {"id": "q6ux26c-SfK-679y9lvVbw", "alias": "settepani-new-york-5", "name": "Settepani", "image_url": "https://s3-media4.fl.yelpcdn.com/bphoto/uGOXzN8jgNHrkOgsYdJoZA/o.jpg", "is_closed": false, "url": "https://www.yelp.com/biz/settepani-new-york-5?adjust_creative=9gNmiWYX8uTbFBeTTvJMdA&utm_campaign=yelp_api_v3&utm_medium=api_v3_business_search&utm_source=9gNmiWYX8uTbFBeTTvJMdA", "review_count": 276, "categories": [{"alias": "italian", "title": "Italian"}, {"alias": "mediterranean", "title": "Mediterranean"}], "rating": 3.5, "coordinates": {"latitude": 40.80435, "longitude": -73.94766}, "transactions": ["delivery", "pickup"], "price": "$$", "location": {"address1": "196 Lenox Ave", "address2": "", "address3": "", "city": "New York", "zip_code": "10026", "country": "US", "state": "NY", "display_address": ["196 Lenox Ave", "New York, NY 10026"]}, "phone": "+19174924806", "display_phone": "(917) 492-4806", "distance": 5350.4236697432}, {"id": "zOmgO8Di9Ui2bQHqSarUKg", "alias": "johns-of-times-square-new-york-2", "name": "John's of Times Square", "image_url": "https://s3-media4.fl.yelpcdn.com/bphoto/aw93wIvNg5TRMr-fTnCRkA/o.jpg", "is_closed": false, "url": "https://www.yelp.com/biz/johns-of-times-square-new-york-2?adjust_creative=9gNmiWYX8uTbFBeTTvJMdA&utm_campaign=yelp_api_v3&utm_medium=api_v3_business_search&utm_source=9gNmiWYX8uTbFBeTTvJMdA", "review_count": 2380, "categories": [{"alias": "pizza", "title": "Pizza"}, {"alias": "italian", "title": "Italian"}, {"alias": "cocktailbars", "title": "Cocktail Bars"}], "rating": 4.0, "coordinates": {"latitude": 40.75823, "longitude": -73.98836}, "transactions": ["delivery", "pickup"], "price": "$$", "location": {"address1": "260 W 44th St", "address2": "", "address3": "", "city": "New York", "zip_code": "10036", "country": "US", "state": "NY", "display_address": ["260 W 44th St", "New York, NY 10036"]}, "phone": "+12123917560", "display_phone": "(212) 391-7560", "distance": 1586.552921765873}, {"id": "C9BjYm4WyoQFPQUHmBErDg", "alias": "bird-dog-new-york", "name": "Bird Dog", "image_url": "https://s3-media1.fl.yelpcdn.com/bphoto/bYqTdqGOS37xbkgY_SvYPw/o.jpg", "is_closed": false, "url": "https://www.yelp.com/biz/bird-dog-new-york?adjust_creative=9gNmiWYX8uTbFBeTTvJMdA&utm_campaign=yelp_api_v3&utm_medium=api_v3_business_search&utm_source=9gNmiWYX8uTbFBeTTvJMdA", "review_count": 154, "categories": [{"alias": "southern", "title": "Southern"}, {"alias": "tuscan", "title": "Tuscan"}], "rating": 4.5, "coordinates": {"latitude": 40.733983, "longitude": -74.006549}, "transactions": [], "location": {"address1": "525 Hudson St", "address2": "", "address3": null, "city": "New York", "zip_code": "10014", "country": "US", "state": "NY", "display_address": ["525 Hudson St", "New York, NY 10014"]}, "phone": "+19172614221", "display_phone": "(917) 261-4221", "distance": 4189.134907639661}, {"id": "EaAAP-gDALDL7GxcseMjBQ", "alias": "the-polo-bar-new-york", "name": "The Polo Bar", "image_url": "https://s3-media2.fl.yelpcdn.com/bphoto/V4SlB-Yy2g3RUFLlCw2SLQ/o.jpg", "is_closed": false, "url": "https://www.yelp.com/biz/the-polo-bar-new-york?adjust_creative=9gNmiWYX8uTbFBeTTvJMdA&utm_campaign=yelp_api_v3&utm_medium=api_v3_business_search&utm_source=9gNmiWYX8uTbFBeTTvJMdA", "review_count": 472, "categories": [{"alias": "tradamerican", "title": "American (Traditional)"}, {"alias": "bars", "title": "Bars"}], "rating": 4.0, "coordinates": {"latitude": 40.76157, "longitude": -73.9744}, "transactions": ["delivery"], "price": "$$$", "location": {"address1": "1 E 55th St", "address2": "", "address3": "", "city": "New York", "zip_code": "10022", "country": "US", "state": "NY", "display_address": ["1 E 55th St", "New York, NY 10022"]}, "phone": "+12122078562", "display_phone": "(212) 207-8562", "distance": 485.9582042177145}, {"id": "elPjOCDb8WmOpaQEI-AAOw", "alias": "forno-siciliano-astoria", "name": "Forno Siciliano", "image_url": "https://s3-media1.fl.yelpcdn.com/bphoto/UFvi0YrKTq503fKSEc8oww/o.jpg", "is_closed": false, "url": "https://www.yelp.com/biz/forno-siciliano-astoria?adjust_creative=9gNmiWYX8uTbFBeTTvJMdA&utm_campaign=yelp_api_v3&utm_medium=api_v3_business_search&utm_source=9gNmiWYX8uTbFBeTTvJMdA", "review_count": 103, "categories": [{"alias": "italian", "title": "Italian"}], "rating": 4.0, "coordinates": {"latitude": 40.7711294255972, "longitude": -73.9031770938873}, "transactions": ["delivery", "pickup"], "price": "$$", "location": {"address1": "43-19 Ditmars Blvd", "address2": "", "address3": "", "city": "Astoria", "zip_code": "11105", "country": "US", "state": "NY", "display_address": ["43-19 Ditmars Blvd", "Astoria, NY 11105"]}, "phone": "+17182670790", "display_phone": "(718) 267-0790", "distance": 5747.649844165947}, {"id": "zuB6VRXwj3QzTh9x-nQIRQ", "alias": "il-fiorista-new-york", "name": "Il Fiorista", "image_url": "https://s3-media3.fl.yelpcdn.com/bphoto/P9dIvI7ZXqgg8rqIgTzL3g/o.jpg", "is_closed": false, "url": "https://www.yelp.com/biz/il-fiorista-new-york?adjust_creative=9gNmiWYX8uTbFBeTTvJMdA&utm_campaign=yelp_api_v3&utm_medium=api_v3_business_search&utm_source=9gNmiWYX8uTbFBeTTvJMdA", "review_count": 105, "categories": [{"alias": "cocktailbars", "title": "Cocktail Bars"}, {"alias": "italian", "title": "Italian"}, {"alias": "floraldesigners", "title": "Floral Designers"}], "rating": 4.0, "coordinates": {"latitude": 40.744174968132405, "longitude": -73.9895829}, "transactions": ["delivery", "pickup"], "location": {"address1": "17 W 26th St", "address2": "", "address3": null, "city": "New York", "zip_code": "10010", "country": "US", "state": "NY", "display_address": ["17 W 26th St", "New York, NY 10010"]}, "phone": "+16464908240", "display_phone": "(646) 490-8240", "distance": 2371.20769868406}, {"id": "AAQDZdKhtcX7otmOfOF9nw", "alias": "ginos-restaurant-brooklyn-2", "name": "Gino's Restaurant", "image_url": "https://s3-media3.fl.yelpcdn.com/bphoto/VoHtU2k9NVNjIyODQqCRzw/o.jpg", "is_closed": false, "url": "https://www.yelp.com/biz/ginos-restaurant-brooklyn-2?adjust_creative=9gNmiWYX8uTbFBeTTvJMdA&utm_campaign=yelp_api_v3&utm_medium=api_v3_business_search&utm_source=9gNmiWYX8uTbFBeTTvJMdA", "review_count": 811, "categories": [{"alias": "pizza", "title": "Pizza"}, {"alias": "italian", "title": "Italian"}, {"alias": "wine_bars", "title": "Wine Bars"}], "rating": 4.0, "coordinates": {"latitude": 40.63, "longitude": -74.02274}, "transactions": ["delivery", "pickup"], "price": "$$", "location": {"address1": "7414 5th Ave", "address2": "", "address3": "", "city": "Brooklyn", "zip_code": "11209", "country": "US", "state": "NY", "display_address": ["7414 5th Ave", "Brooklyn, NY 11209"]}, "phone": "+17187481698", "display_phone": "(718) 748-1698", "distance": 15048.87829894819}, {"id": "efgclSozdzhy6tQ2nrAUdA", "alias": "maggianos-little-italy-hackensack", "name": "Maggiano's Little Italy", "image_url": "https://s3-media1.fl.yelpcdn.com/bphoto/UEWjmRE3g2TDFLPwl3afnQ/o.jpg", "is_closed": false, "url": "https://www.yelp.com/biz/maggianos-little-italy-hackensack?adjust_creative=9gNmiWYX8uTbFBeTTvJMdA&utm_campaign=yelp_api_v3&utm_medium=api_v3_business_search&utm_source=9gNmiWYX8uTbFBeTTvJMdA", "review_count": 580, "categories": [{"alias": "italian", "title": "Italian"}, {"alias": "bars", "title": "Bars"}], "rating": 3.5, "coordinates": {"latitude": 40.90759133, "longitude": -74.03096883}, "transactions": ["delivery", "pickup"], "price": "$$", "location": {"address1": "70 Riverside Sq Mall", "address2": "", "address3": "", "city": "Hackensack", "zip_code": "07601", "country": "US", "state": "NJ", "display_address": ["70 Riverside Sq Mall", "Hackensack, NJ 07601"]}, "phone": "+12012212030", "display_phone": "(201) 221-2030", "distance": 17273.45777035593}, {"id": "MHbxF-ZS918-ZoXKQPBEyg", "alias": "sotto-le-stelle-sunnyside", "name": "Sotto Le Stelle", "image_url": "https://s3-media2.fl.yelpcdn.com/bphoto/Or9G8yVWLwIK-X766nPL1Q/o.jpg", "is_closed": false, "url": "https://www.yelp.com/biz/sotto-le-stelle-sunnyside?adjust_creative=9gNmiWYX8uTbFBeTTvJMdA&utm_campaign=yelp_api_v3&utm_medium=api_v3_business_search&utm_source=9gNmiWYX8uTbFBeTTvJMdA", "review_count": 350, "categories": [{"alias": "pizza", "title": "Pizza"}], "rating": 4.5, "coordinates": {"latitude": 40.743656, "longitude": -73.9201782}, "transactions": ["delivery", "pickup"], "price": "$$", "location": {"address1": "4407 Queens Blvd", "address2": "", "address3": null, "city": "Sunnyside", "zip_code": "11104", "country": "US", "state": "NY", "display_address": ["4407 Queens Blvd", "Sunnyside, NY 11104"]}, "phone": "+17186852086", "display_phone": "(718) 685-2086", "distance": 4504.5083157881945}, {"id": "00kdvS6FY0gTN5BV03tx5Q", "alias": "peak-new-york-2", "name": "Peak", "image_url": "https://s3-media3.fl.yelpcdn.com/bphoto/nxY4Ok_TTDT2aw8ZZ9FhSQ/o.jpg", "is_closed": false, "url": "https://www.yelp.com/biz/peak-new-york-2?adjust_creative=9gNmiWYX8uTbFBeTTvJMdA&utm_campaign=yelp_api_v3&utm_medium=api_v3_business_search&utm_source=9gNmiWYX8uTbFBeTTvJMdA", "review_count": 364, "categories": [{"alias": "newamerican", "title": "American (New)"}, {"alias": "venues", "title": "Venues & Event Spaces"}, {"alias": "lounges", "title": "Lounges"}], "rating": 4.5, "coordinates": {"latitude": 40.7541644, "longitude": -74.0009082}, "transactions": [], "price": "$$$$", "location": {"address1": "30 Hudson Yards", "address2": "Fl 101", "address3": null, "city": "New York", "zip_code": "10001", "country": "US", "state": "NY", "display_address": ["30 Hudson Yards", "Fl 101", "New York, NY 10001"]}, "phone": "+13322048540", "display_phone": "(332) 204-8540", "distance": 2697.406007176615}, {"id": "WHX90qTIuHdWHWDY5g9COw", "alias": "apulia-hoboken", "name": "Apulia", "image_url": "https://s3-media2.fl.yelpcdn.com/bphoto/_8JxgYpsdG3p1Qu6UUNQXw/o.jpg", "is_closed": false, "url": "https://www.yelp.com/biz/apulia-hoboken?adjust_creative=9gNmiWYX8uTbFBeTTvJMdA&utm_campaign=yelp_api_v3&utm_medium=api_v3_business_search&utm_source=9gNmiWYX8uTbFBeTTvJMdA", "review_count": 167, "categories": [{"alias": "pizza", "title": "Pizza"}, {"alias": "italian", "title": "Italian"}], "rating": 4.0, "coordinates": {"latitude": 40.75297, "longitude": -74.02582}, "transactions": ["delivery", "pickup"], "price": "$$", "location": {"address1": "1319 Washington St", "address2": "", "address3": null, "city": "Hoboken", "zip_code": "07030", "country": "US", "state": "NJ", "display_address": ["1319 Washington St", "Hoboken, NJ 07030"]}, "phone": "+12016833923", "display_phone": "(201) 683-3923", "distance": 4794.436439891062}, {"id": "Q9F2ocrmYuGt1yn3M7MOBw", "alias": "lucali-brooklyn-3", "name": "Lucali", "image_url": "https://s3-media3.fl.yelpcdn.com/bphoto/Yl_eZ_DW_iaumnU-pfSoaw/o.jpg", "is_closed": false, "url": "https://www.yelp.com/biz/lucali-brooklyn-3?adjust_creative=9gNmiWYX8uTbFBeTTvJMdA&utm_campaign=yelp_api_v3&utm_medium=api_v3_business_search&utm_source=9gNmiWYX8uTbFBeTTvJMdA", "review_count": 1939, "categories": [{"alias": "pizza", "title": "Pizza"}], "rating": 4.0, "coordinates": {"latitude": 40.681840746711224, "longitude": -74.0003327}, "transactions": ["delivery"], "price": "$$", "location": {"address1": "575 Henry St", "address2": null, "address3": "", "city": "Brooklyn", "zip_code": "11231", "country": "US", "state": "NY", "display_address": ["575 Henry St", "Brooklyn, NY 11231"]}, "phone": "+17188584086", "display_phone": "(718) 858-4086", "distance": 8981.342283499152}, {"id": "UB1mGugr1pvgUUP1eTNXrg", "alias": "stone-bridge-pizza-and-salad-new-york", "name": "Stone Bridge Pizza & Salad", "image_url": "https://s3-media1.fl.yelpcdn.com/bphoto/yfY3OA1Zd1GWBnbeZoWB8w/o.jpg", "is_closed": false, "url": "https://www.yelp.com/biz/stone-bridge-pizza-and-salad-new-york?adjust_creative=9gNmiWYX8uTbFBeTTvJMdA&utm_campaign=yelp_api_v3&utm_medium=api_v3_business_search&utm_source=9gNmiWYX8uTbFBeTTvJMdA", "review_count": 320, "categories": [{"alias": "pizza", "title": "Pizza"}, {"alias": "salad", "title": "Salad"}, {"alias": "sandwiches", "title": "Sandwiches"}], "rating": 4.5, "coordinates": {"latitude": 40.75225, "longitude": -73.98061}, "transactions": ["delivery", "pickup"], "price": "$$", "location": {"address1": "16 E 41st St", "address2": null, "address3": "", "city": "New York", "zip_code": "10017", "country": "US", "state": "NY", "display_address": ["16 E 41st St", "New York, NY 10017"]}, "phone": "+16467915690", "display_phone": "(646) 791-5690", "distance": 1207.7148971914448}, {"id": "ysqgdbSrezXgVwER2kQWKA", "alias": "julianas-brooklyn-3", "name": "Juliana's", "image_url": "https://s3-media2.fl.yelpcdn.com/bphoto/NVoLFle5H-SHNN6piAKIYw/o.jpg", "is_closed": false, "url": "https://www.yelp.com/biz/julianas-brooklyn-3?adjust_creative=9gNmiWYX8uTbFBeTTvJMdA&utm_campaign=yelp_api_v3&utm_medium=api_v3_business_search&utm_source=9gNmiWYX8uTbFBeTTvJMdA", "review_count": 2608, "categories": [{"alias": "pizza", "title": "Pizza"}], "rating": 4.5, "coordinates": {"latitude": 40.70274718768062, "longitude": -73.99343490196397}, "transactions": ["delivery"], "price": "$$", "location": {"address1": "19 Old Fulton St", "address2": "", "address3": "", "city": "Brooklyn", "zip_code": "11201", "country": "US", "state": "NY", "display_address": ["19 Old Fulton St", "Brooklyn, NY 11201"]}, "phone": "+17185966700", "display_phone": "(718) 596-6700", "distance": 6588.703538511196}, {"id": "mTnrikKr52osjrp4m6u4Vg", "alias": "blooms-tavern-new-york", "name": "Bloom's Tavern", "image_url": "https://s3-media1.fl.yelpcdn.com/bphoto/GQK63XNKBmz5Xg6rQ7Qt6A/o.jpg", "is_closed": false, "url": "https://www.yelp.com/biz/blooms-tavern-new-york?adjust_creative=9gNmiWYX8uTbFBeTTvJMdA&utm_campaign=yelp_api_v3&utm_medium=api_v3_business_search&utm_source=9gNmiWYX8uTbFBeTTvJMdA", "review_count": 160, "categories": [{"alias": "pubs", "title": "Pubs"}, {"alias": "venues", "title": "Venues & Event Spaces"}], "rating": 4.0, "coordinates": {"latitude": 40.7607477090562, "longitude": -73.9662868218754}, "transactions": ["delivery", "pickup"], "price": "$$", "location": {"address1": "208 E 58th St", "address2": "", "address3": "", "city": "New York", "zip_code": "10022", "country": "US", "state": "NY", "display_address": ["208 E 58th St", "New York, NY 10022"]}, "phone": "+12123089400", "display_phone": "(212) 308-9400", "distance": 327.48208489018896}, {"id": "qCf1QN11Qdncpqb7PhuyVw", "alias": "the-rag-trader-and-bo-peep-cocktail-and-highball-store-new-york", "name": "The Rag Trader & Bo Peep Cocktail and Highball Store", "image_url": "https://s3-media4.fl.yelpcdn.com/bphoto/i8TwHAYZBxv950tCkhtjjw/o.jpg", "is_closed": false, "url": "https://www.yelp.com/biz/the-rag-trader-and-bo-peep-cocktail-and-highball-store-new-york?adjust_creative=9gNmiWYX8uTbFBeTTvJMdA&utm_campaign=yelp_api_v3&utm_medium=api_v3_business_search&utm_source=9gNmiWYX8uTbFBeTTvJMdA", "review_count": 742, "categories": [{"alias": "bars", "title": "Bars"}, {"alias": "pianobars", "title": "Piano Bars"}, {"alias": "newamerican", "title": "American (New)"}], "rating": 4.5, "coordinates": {"latitude": 40.75059, "longitude": -73.98628}, "transactions": ["delivery", "pickup"], "price": "$$", "location": {"address1": "70 W 36th St", "address2": "", "address3": null, "city": "New York", "zip_code": "10018", "country": "US", "state": "NY", "display_address": ["70 W 36th St", "New York, NY 10018"]}, "phone": "+19172615495", "display_phone": "(917) 261-5495", "distance": 1699.8436277859703}, {"id": "r_fUOUhz-pHZxFDV1hzy0w", "alias": "peasant-new-york", "name": "Peasant", "image_url": "https://s3-media2.fl.yelpcdn.com/bphoto/mCN9R2zUuLT-VdOBog6wJQ/o.jpg", "is_closed": false, "url": "https://www.yelp.com/biz/peasant-new-york?adjust_creative=9gNmiWYX8uTbFBeTTvJMdA&utm_campaign=yelp_api_v3&utm_medium=api_v3_business_search&utm_source=9gNmiWYX8uTbFBeTTvJMdA", "review_count": 770, "categories": [{"alias": "italian", "title": "Italian"}], "rating": 4.0, "coordinates": {"latitude": 40.72171, "longitude": -73.99428}, "transactions": ["delivery", "pickup"], "price": "$$$", "location": {"address1": "194 Elizabeth St", "address2": "", "address3": "", "city": "New York", "zip_code": "10012", "country": "US", "state": "NY", "display_address": ["194 Elizabeth St", "New York, NY 10012"]}, "phone": "+12129659511", "display_phone": "(212) 965-9511", "distance": 4658.671257329387}, {"id": "eTR6nfHvQzvKX7Dcd6JrfA", "alias": "district-social-new-york", "name": "District Social", "image_url": "https://s3-media2.fl.yelpcdn.com/bphoto/Tx1suSKAhe_Vs926oZ_Ykg/o.jpg", "is_closed": false, "url": "https://www.yelp.com/biz/district-social-new-york?adjust_creative=9gNmiWYX8uTbFBeTTvJMdA&utm_campaign=yelp_api_v3&utm_medium=api_v3_business_search&utm_source=9gNmiWYX8uTbFBeTTvJMdA", "review_count": 725, "categories": [{"alias": "bars", "title": "Bars"}, {"alias": "newamerican", "title": "American (New)"}], "rating": 4.0, "coordinates": {"latitude": 40.7535743713379, "longitude": -73.9914321899414}, "transactions": [], "price": "$$", "location": {"address1": "252 W 37th St", "address2": null, "address3": "", "city": "New York", "zip_code": "10018", "country": "US", "state": "NY", "display_address": ["252 W 37th St", "New York, NY 10018"]}, "phone": "+12129949599", "display_phone": "(212) 994-9599", "distance": 1949.1235375703427}, {"id": "VHkiswx23peLA9Y8rHMo7Q", "alias": "cavalinos-restaurant-guttenberg", "name": "Cavalino's Restaurant", "image_url": "https://s3-media1.fl.yelpcdn.com/bphoto/8x7zuUUb4my-Bry0Qf7Xsg/o.jpg", "is_closed": false, "url": "https://www.yelp.com/biz/cavalinos-restaurant-guttenberg?adjust_creative=9gNmiWYX8uTbFBeTTvJMdA&utm_campaign=yelp_api_v3&utm_medium=api_v3_business_search&utm_source=9gNmiWYX8uTbFBeTTvJMdA", "review_count": 58, "categories": [{"alias": "italian", "title": "Italian"}, {"alias": "bars", "title": "Bars"}, {"alias": "seafood", "title": "Seafood"}], "rating": 4.5, "coordinates": {"latitude": 40.791303163438904, "longitude": -74.0040989}, "transactions": ["delivery", "pickup"], "price": "$$", "location": {"address1": "6800 Park Ave", "address2": null, "address3": null, "city": "Guttenberg", "zip_code": "07093", "country": "US", "state": "NJ", "display_address": ["6800 Park Ave", "Guttenberg, NJ 07093"]}, "phone": "+12016627118", "display_phone": "(201) 662-7118", "distance": 4605.929585261305}, {"id": "oexDsgqmXc9Qe3fy3uYx7g", "alias": "f-and-j-pine-bronx", "name": "F & J Pine", "image_url": "https://s3-media1.fl.yelpcdn.com/bphoto/faiLrnUv6EvT05jEznAmQQ/o.jpg", "is_closed": false, "url": "https://www.yelp.com/biz/f-and-j-pine-bronx?adjust_creative=9gNmiWYX8uTbFBeTTvJMdA&utm_campaign=yelp_api_v3&utm_medium=api_v3_business_search&utm_source=9gNmiWYX8uTbFBeTTvJMdA", "review_count": 669, "categories": [{"alias": "italian", "title": "Italian"}, {"alias": "wine_bars", "title": "Wine Bars"}, {"alias": "venues", "title": "Venues & Event Spaces"}], "rating": 3.5, "coordinates": {"latitude": 40.848685, "longitude": -73.862069}, "transactions": ["delivery"], "price": "$$", "location": {"address1": "1913 Bronxdale Ave", "address2": "", "address3": "", "city": "Bronx", "zip_code": "10462", "country": "US", "state": "NY", "display_address": ["1913 Bronxdale Ave", "Bronx, NY 10462"]}, "phone": "+17187925956", "display_phone": "(718) 792-5956", "distance": 13444.305578798667}, {"id": "rTzojTIarMjh_X7YPliySw", "alias": "zio-luigi-sunnyside", "name": "Zio Luigi", "image_url": "https://s3-media2.fl.yelpcdn.com/bphoto/yyU9uukPgm5xTm7dAFoQfQ/o.jpg", "is_closed": false, "url": "https://www.yelp.com/biz/zio-luigi-sunnyside?adjust_creative=9gNmiWYX8uTbFBeTTvJMdA&utm_campaign=yelp_api_v3&utm_medium=api_v3_business_search&utm_source=9gNmiWYX8uTbFBeTTvJMdA", "review_count": 153, "categories": [{"alias": "italian", "title": "Italian"}], "rating": 4.5, "coordinates": {"latitude": 40.7438632, "longitude": -73.9220898}, "transactions": ["delivery", "pickup"], "price": "$$", "location": {"address1": "42-15 Queens Blvd", "address2": "", "address3": "", "city": "Sunnyside", "zip_code": "11104", "country": "US", "state": "NY", "display_address": ["42-15 Queens Blvd", "Sunnyside, NY 11104"]}, "phone": "+17189377373", "display_phone": "(718) 937-7373", "distance": 4367.1253683737}, {"id": "z-y9GDoRr1S9Ma6b2n0A4A", "alias": "enoteca-maria-staten-island-3", "name": "Enoteca Maria", "image_url": "https://s3-media1.fl.yelpcdn.com/bphoto/PdiJoT18zIpni4pvfOq1_A/o.jpg", "is_closed": false, "url": "https://www.yelp.com/biz/enoteca-maria-staten-island-3?adjust_creative=9gNmiWYX8uTbFBeTTvJMdA&utm_campaign=yelp_api_v3&utm_medium=api_v3_business_search&utm_source=9gNmiWYX8uTbFBeTTvJMdA", "review_count": 424, "categories": [{"alias": "italian", "title": "Italian"}], "rating": 4.0, "coordinates": {"latitude": 40.642, "longitude": -74.07729}, "transactions": ["delivery"], "price": "$$$", "location": {"address1": "27 Hyatt St", "address2": "", "address3": "", "city": "Staten Island", "zip_code": "10301", "country": "US", "state": "NY", "display_address": ["27 Hyatt St", "Staten Island, NY 10301"]}, "phone": "+17184472777", "display_phone": "(718) 447-2777", "distance": 15879.069652772434}, {"id": "h8XLhVVPoYPYodZqQOjRMw", "alias": "robert-new-york-25", "name": "Robert", "image_url": "https://s3-media1.fl.yelpcdn.com/bphoto/pwQvmwU_i8yH0l87VpBMHg/o.jpg", "is_closed": false, "url": "https://www.yelp.com/biz/robert-new-york-25?adjust_creative=9gNmiWYX8uTbFBeTTvJMdA&utm_campaign=yelp_api_v3&utm_medium=api_v3_business_search&utm_source=9gNmiWYX8uTbFBeTTvJMdA", "review_count": 1013, "categories": [{"alias": "newamerican", "title": "American (New)"}, {"alias": "venues", "title": "Venues & Event Spaces"}, {"alias": "cocktailbars", "title": "Cocktail Bars"}], "rating": 4.0, "coordinates": {"latitude": 40.767394, "longitude": -73.982036}, "transactions": ["delivery"], "price": "$$$", "location": {"address1": "2 Columbus Cir", "address2": "", "address3": "", "city": "New York", "zip_code": "10019", "country": "US", "state": "NY", "display_address": ["2 Columbus Cir", "New York, NY 10019"]}, "phone": "+12122997730", "display_phone": "(212) 299-7730", "distance": 1391.7119908702905}, {"id": "EkueKakBOazLteBREvD_qA", "alias": "serafina-new-york-32", "name": "Serafina", "image_url": "https://s3-media3.fl.yelpcdn.com/bphoto/6vsUKcRqKl5b4ajrbeb8FQ/o.jpg", "is_closed": false, "url": "https://www.yelp.com/biz/serafina-new-york-32?adjust_creative=9gNmiWYX8uTbFBeTTvJMdA&utm_campaign=yelp_api_v3&utm_medium=api_v3_business_search&utm_source=9gNmiWYX8uTbFBeTTvJMdA", "review_count": 481, "categories": [{"alias": "italian", "title": "Italian"}, {"alias": "breakfast_brunch", "title": "Breakfast & Brunch"}, {"alias": "salad", "title": "Salad"}], "rating": 2.5, "coordinates": {"latitude": 40.7822587931929, "longitude": -73.9805542713186}, "transactions": ["delivery", "pickup"], "price": "$$$", "location": {"address1": "2178 Broadway", "address2": "", "address3": "", "city": "New York", "zip_code": "10024", "country": "US", "state": "NY", "display_address": ["2178 Broadway", "New York, NY 10024"]}, "phone": "+12125950092", "display_phone": "(212) 595-0092", "distance": 2728.2996514564866}, {"id": "1nQZbtmjODUgPm-QQdKrhA", "alias": "milk-and-roses-brooklyn", "name": "Milk and Roses", "image_url": "https://s3-media1.fl.yelpcdn.com/bphoto/GE5CPedZPVrz7dmgNX1XQA/o.jpg", "is_closed": false, "url": "https://www.yelp.com/biz/milk-and-roses-brooklyn?adjust_creative=9gNmiWYX8uTbFBeTTvJMdA&utm_campaign=yelp_api_v3&utm_medium=api_v3_business_search&utm_source=9gNmiWYX8uTbFBeTTvJMdA", "review_count": 437, "categories": [{"alias": "italian", "title": "Italian"}, {"alias": "venues", "title": "Venues & Event Spaces"}, {"alias": "newamerican", "title": "American (New)"}], "rating": 3.5, "coordinates": {"latitude": 40.737426, "longitude": -73.955056}, "transactions": ["delivery"], "price": "$$$", "location": {"address1": "35 Box St", "address2": "", "address3": "", "city": "Brooklyn", "zip_code": "11222", "country": "US", "state": "NY", "display_address": ["35 Box St", "Brooklyn, NY 11222"]}, "phone": "+17183890160", "display_phone": "(718) 389-0160", "distance": 2710.1299527019382}, {"id": "20PuwdAiKJmyMBnYGTtHGg", "alias": "terasa-north-ninth-brooklyn", "name": "Terasa North Ninth", "image_url": "https://s3-media3.fl.yelpcdn.com/bphoto/i9c74s2Ey-QA38pLYdLLAA/o.jpg", "is_closed": false, "url": "https://www.yelp.com/biz/terasa-north-ninth-brooklyn?adjust_creative=9gNmiWYX8uTbFBeTTvJMdA&utm_campaign=yelp_api_v3&utm_medium=api_v3_business_search&utm_source=9gNmiWYX8uTbFBeTTvJMdA", "review_count": 66, "categories": [{"alias": "mediterranean", "title": "Mediterranean"}, {"alias": "bars", "title": "Bars"}, {"alias": "tapasmallplates", "title": "Tapas/Small Plates"}], "rating": 4.5, "coordinates": {"latitude": 40.71897, "longitude": -73.95634}, "transactions": ["delivery", "pickup"], "location": {"address1": "145 Bedford Ave", "address2": "", "address3": null, "city": "Brooklyn", "zip_code": "11211", "country": "US", "state": "NY", "display_address": ["145 Bedford Ave", "Brooklyn, NY 11211"]}, "phone": "+13475295629", "display_phone": "(347) 529-5629", "distance": 4617.0748996656985}, {"id": "s3jou_L_LVYGkNHiuhjlew", "alias": "boucherie-west-village-new-york-3", "name": "Boucherie West Village", "image_url": "https://s3-media2.fl.yelpcdn.com/bphoto/-5TXMVrjARsqKQHDg-hKbQ/o.jpg", "is_closed": false, "url": "https://www.yelp.com/biz/boucherie-west-village-new-york-3?adjust_creative=9gNmiWYX8uTbFBeTTvJMdA&utm_campaign=yelp_api_v3&utm_medium=api_v3_business_search&utm_source=9gNmiWYX8uTbFBeTTvJMdA", "review_count": 2202, "categories": [{"alias": "french", "title": "French"}, {"alias": "cocktailbars", "title": "Cocktail Bars"}, {"alias": "steak", "title": "Steakhouses"}], "rating": 4.5, "coordinates": {"latitude": 40.733063, "longitude": -74.0028772}, "transactions": ["delivery", "pickup"], "price": "$$$", "location": {"address1": "99 7th Ave S", "address2": "", "address3": null, "city": "New York", "zip_code": "10014", "country": "US", "state": "NY", "display_address": ["99 7th Ave S", "New York, NY 10014"]}, "phone": "+12128371616", "display_phone": "(212) 837-1616", "distance": 4037.4830643489677}, {"id": "rhCs1nF5KTNwx-4YeyoK3g", "alias": "bartolinos-fine-italian-pizza-astoria-11", "name": "Bartolino's Fine Italian Pizza", "image_url": "https://s3-media1.fl.yelpcdn.com/bphoto/7mXKElkqWyOC2RMV-lVKRw/o.jpg", "is_closed": false, "url": "https://www.yelp.com/biz/bartolinos-fine-italian-pizza-astoria-11?adjust_creative=9gNmiWYX8uTbFBeTTvJMdA&utm_campaign=yelp_api_v3&utm_medium=api_v3_business_search&utm_source=9gNmiWYX8uTbFBeTTvJMdA", "review_count": 54, "categories": [{"alias": "pizza", "title": "Pizza"}, {"alias": "italian", "title": "Italian"}], "rating": 4.0, "coordinates": {"latitude": 40.7607386113415, "longitude": -73.9223789038732}, "transactions": ["delivery", "pickup"], "price": "$$", "location": {"address1": "3411 Broadway", "address2": null, "address3": null, "city": "Astoria", "zip_code": "11106", "country": "US", "state": "NY", "display_address": ["3411 Broadway", "Astoria, NY 11106"]}, "phone": "+13477306573", "display_phone": "(347) 730-6573", "distance": 3978.7914748324497}, {"id": "wRVSvTxBp62m0UEqRUUUJQ", "alias": "dees-wood-fired-pizza-and-kitchen-forest-hills", "name": "Dee's Wood Fired Pizza & Kitchen", "image_url": "https://s3-media1.fl.yelpcdn.com/bphoto/aJ98rfl4OS9jC2fISCn3nw/o.jpg", "is_closed": false, "url": "https://www.yelp.com/biz/dees-wood-fired-pizza-and-kitchen-forest-hills?adjust_creative=9gNmiWYX8uTbFBeTTvJMdA&utm_campaign=yelp_api_v3&utm_medium=api_v3_business_search&utm_source=9gNmiWYX8uTbFBeTTvJMdA", "review_count": 556, "categories": [{"alias": "pizza", "title": "Pizza"}, {"alias": "italian", "title": "Italian"}, {"alias": "tradamerican", "title": "American (Traditional)"}], "rating": 4.0, "coordinates": {"latitude": 40.709782, "longitude": -73.8452595}, "transactions": ["delivery", "pickup"], "price": "$$", "location": {"address1": "107-23 Metropolitan Ave", "address2": "", "address3": "", "city": "Forest Hills", "zip_code": "11375", "country": "US", "state": "NY", "display_address": ["107-23 Metropolitan Ave", "Forest Hills, NY 11375"]}, "phone": "+17187937553", "display_phone": "(718) 793-7553", "distance": 11826.941250074799}, {"id": "VgIiCZoUnujSMZATByk77Q", "alias": "the-meatball-shop-hells-kitchen-new-york", "name": "The Meatball Shop - Hell's Kitchen", "image_url": "https://s3-media3.fl.yelpcdn.com/bphoto/hD59qPZaeYfgfiKndEaamg/o.jpg", "is_closed": false, "url": "https://www.yelp.com/biz/the-meatball-shop-hells-kitchen-new-york?adjust_creative=9gNmiWYX8uTbFBeTTvJMdA&utm_campaign=yelp_api_v3&utm_medium=api_v3_business_search&utm_source=9gNmiWYX8uTbFBeTTvJMdA", "review_count": 494, "categories": [{"alias": "italian", "title": "Italian"}, {"alias": "tradamerican", "title": "American (Traditional)"}, {"alias": "salad", "title": "Salad"}], "rating": 4.0, "coordinates": {"latitude": 40.7651804928198, "longitude": -73.9874866666706}, "transactions": ["delivery", "pickup"], "price": "$$", "location": {"address1": "798 9th Ave", "address2": "", "address3": null, "city": "New York", "zip_code": "10019", "country": "US", "state": "NY", "display_address": ["798 9th Ave", "New York, NY 10019"]}, "phone": "+12122305860", "display_phone": "(212) 230-5860", "distance": 1649.8389657101695}, {"id": "lhLk3IWpFtEkziTLnGkvVA", "alias": "ainslie-new-york", "name": "Ainslie", "image_url": "https://s3-media1.fl.yelpcdn.com/bphoto/eaK2MS8rguZxZSRXVMipXA/o.jpg", "is_closed": false, "url": "https://www.yelp.com/biz/ainslie-new-york?adjust_creative=9gNmiWYX8uTbFBeTTvJMdA&utm_campaign=yelp_api_v3&utm_medium=api_v3_business_search&utm_source=9gNmiWYX8uTbFBeTTvJMdA", "review_count": 17, "categories": [{"alias": "wine_bars", "title": "Wine Bars"}, {"alias": "beergardens", "title": "Beer Gardens"}, {"alias": "italian", "title": "Italian"}], "rating": 4.0, "coordinates": {"latitude": 40.72104, "longitude": -73.99326}, "transactions": ["delivery", "pickup"], "location": {"address1": "199 Bowery", "address2": "", "address3": null, "city": "New York", "zip_code": "10002", "country": "US", "state": "NY", "display_address": ["199 Bowery", "New York, NY 10002"]}, "phone": "+16463602194", "display_phone": "(646) 360-2194", "distance": 4688.377698943313}, {"id": "QbIwccP-ycbVxwSt-LySFw", "alias": "club-macanudo-new-york", "name": "Club Macanudo", "image_url": "https://s3-media1.fl.yelpcdn.com/bphoto/buvdEk_NSrIkWknUQu-qhw/o.jpg", "is_closed": false, "url": "https://www.yelp.com/biz/club-macanudo-new-york?adjust_creative=9gNmiWYX8uTbFBeTTvJMdA&utm_campaign=yelp_api_v3&utm_medium=api_v3_business_search&utm_source=9gNmiWYX8uTbFBeTTvJMdA", "review_count": 196, "categories": [{"alias": "lounges", "title": "Lounges"}, {"alias": "cigarbars", "title": "Cigar Bars"}], "rating": 4.0, "coordinates": {"latitude": 40.7659506265448, "longitude": -73.9693435220428}, "transactions": ["delivery"], "price": "$$$", "location": {"address1": "26 E 63rd St", "address2": "", "address3": "", "city": "New York", "zip_code": "10021", "country": "US", "state": "NY", "display_address": ["26 E 63rd St", "New York, NY 10021"]}, "phone": "+12127528200", "display_phone": "(212) 752-8200", "distance": 753.6970721252768}, {"id": "DynFEEWtMX76qeqviUbOdA", "alias": "mille-nonne-new-york-2", "name": "Mille Nonne", "image_url": "https://s3-media2.fl.yelpcdn.com/bphoto/HuBDyuQIw_-b-oLKnk2HNg/o.jpg", "is_closed": false, "url": "https://www.yelp.com/biz/mille-nonne-new-york-2?adjust_creative=9gNmiWYX8uTbFBeTTvJMdA&utm_campaign=yelp_api_v3&utm_medium=api_v3_business_search&utm_source=9gNmiWYX8uTbFBeTTvJMdA", "review_count": 54, "categories": [{"alias": "italian", "title": "Italian"}], "rating": 4.5, "coordinates": {"latitude": 40.717949, "longitude": -73.988181}, "transactions": ["delivery", "pickup"], "location": {"address1": "88 Essex St", "address2": "Ste 47", "address3": "Inside Essex Market on the Ground Floor", "city": "New York", "zip_code": "10002", "country": "US", "state": "NY", "display_address": ["88 Essex St", "Ste 47", "Inside Essex Market on the Ground Floor", "New York, NY 10002"]}, "phone": "+16466698957", "display_phone": "(646) 669-8957", "distance": 4835.592701492878}, {"id": "wTaomJ5xoi-c7R_xKFmcpA", "alias": "positano-restaurant-brooklyn", "name": "Positano Restaurant", "image_url": "https://s3-media2.fl.yelpcdn.com/bphoto/Lbb0_WV-y42bTakTmAanaw/o.jpg", "is_closed": false, "url": "https://www.yelp.com/biz/positano-restaurant-brooklyn?adjust_creative=9gNmiWYX8uTbFBeTTvJMdA&utm_campaign=yelp_api_v3&utm_medium=api_v3_business_search&utm_source=9gNmiWYX8uTbFBeTTvJMdA", "review_count": 515, "categories": [{"alias": "italian", "title": "Italian"}, {"alias": "gluten_free", "title": "Gluten-Free"}, {"alias": "seafood", "title": "Seafood"}], "rating": 4.0, "coordinates": {"latitude": 40.6127378, "longitude": -74.0339271}, "transactions": ["delivery"], "price": "$$$", "location": {"address1": "10018 4th Ave", "address2": null, "address3": "", "city": "Brooklyn", "zip_code": "11209", "country": "US", "state": "NY", "display_address": ["10018 4th Ave", "Brooklyn, NY 11209"]}, "phone": "+17188331313", "display_phone": "(718) 833-1313", "distance": 17192.618415458066}, {"id": "KEgdfVEVVgJFnGFiLNPDzQ", "alias": "sofia-pizza-shoppe-new-york", "name": "Sofia Pizza Shoppe", "image_url": "https://s3-media3.fl.yelpcdn.com/bphoto/eLjYyALghSQYK8QECaj0yQ/o.jpg", "is_closed": false, "url": "https://www.yelp.com/biz/sofia-pizza-shoppe-new-york?adjust_creative=9gNmiWYX8uTbFBeTTvJMdA&utm_campaign=yelp_api_v3&utm_medium=api_v3_business_search&utm_source=9gNmiWYX8uTbFBeTTvJMdA", "review_count": 242, "categories": [{"alias": "pizza", "title": "Pizza"}], "rating": 4.5, "coordinates": {"latitude": 40.75674, "longitude": -73.96431}, "transactions": ["delivery", "pickup"], "price": "$", "location": {"address1": "989 1st Ave", "address2": "", "address3": null, "city": "New York", "zip_code": "10022", "country": "US", "state": "NY", "display_address": ["989 1st Ave", "New York, NY 10022"]}, "phone": "+12128888816", "display_phone": "(212) 888-8816", "distance": 520.3312331060953}, {"id": "vYnQYMWk_CpV8APtyFWYWA", "alias": "patrizias-of-maspeth-maspeth", "name": "Patrizia's Of Maspeth", "image_url": "https://s3-media3.fl.yelpcdn.com/bphoto/t4nO7r5TRahk9Pi0l9YIQQ/o.jpg", "is_closed": false, "url": "https://www.yelp.com/biz/patrizias-of-maspeth-maspeth?adjust_creative=9gNmiWYX8uTbFBeTTvJMdA&utm_campaign=yelp_api_v3&utm_medium=api_v3_business_search&utm_source=9gNmiWYX8uTbFBeTTvJMdA", "review_count": 259, "categories": [{"alias": "italian", "title": "Italian"}, {"alias": "pizza", "title": "Pizza"}, {"alias": "salad", "title": "Salad"}], "rating": 4.0, "coordinates": {"latitude": 40.726783, "longitude": -73.894276}, "transactions": ["delivery", "pickup"], "price": "$$", "location": {"address1": "6935 Grand Ave", "address2": null, "address3": "", "city": "Maspeth", "zip_code": "11378", "country": "US", "state": "NY", "display_address": ["6935 Grand Ave", "Maspeth, NY 11378"]}, "phone": "+17187792083", "display_phone": "(718) 779-2083", "distance": 7296.004463256928}, {"id": "C-8mGN7lt5rIraO5n-15ug", "alias": "the-smith-new-york-2", "name": "The Smith", "image_url": "https://s3-media2.fl.yelpcdn.com/bphoto/B9c_dlv3GFfi0ozNZW3fwQ/o.jpg", "is_closed": false, "url": "https://www.yelp.com/biz/the-smith-new-york-2?adjust_creative=9gNmiWYX8uTbFBeTTvJMdA&utm_campaign=yelp_api_v3&utm_medium=api_v3_business_search&utm_source=9gNmiWYX8uTbFBeTTvJMdA", "review_count": 3073, "categories": [{"alias": "newamerican", "title": "American (New)"}, {"alias": "breakfast_brunch", "title": "Breakfast & Brunch"}, {"alias": "cocktailbars", "title": "Cocktail Bars"}], "rating": 4.0, "coordinates": {"latitude": 40.755165, "longitude": -73.967868}, "transactions": ["delivery", "pickup"], "price": "$$", "location": {"address1": "956 2nd Ave", "address2": "", "address3": "", "city": "New York", "zip_code": "10022", "country": "US", "state": "NY", "display_address": ["956 2nd Ave", "New York, NY 10022"]}, "phone": "+12126442700", "display_phone": "(212) 644-2700", "distance": 468.44098606934006}, {"id": "7OwoncdLdUlwh6JMwSz_GQ", "alias": "the-top-of-the-standard-new-york", "name": "The Top of the Standard", "image_url": "https://s3-media4.fl.yelpcdn.com/bphoto/RIez81AE43JAM03OBhXksQ/o.jpg", "is_closed": false, "url": "https://www.yelp.com/biz/the-top-of-the-standard-new-york?adjust_creative=9gNmiWYX8uTbFBeTTvJMdA&utm_campaign=yelp_api_v3&utm_medium=api_v3_business_search&utm_source=9gNmiWYX8uTbFBeTTvJMdA", "review_count": 519, "categories": [{"alias": "lounges", "title": "Lounges"}, {"alias": "danceclubs", "title": "Dance Clubs"}], "rating": 4.0, "coordinates": {"latitude": 40.740828, "longitude": -74.008074}, "transactions": ["delivery"], "price": "$$$$", "location": {"address1": "848 Washington St", "address2": "", "address3": "", "city": "New York", "zip_code": "10014", "country": "US", "state": "NY", "display_address": ["848 Washington St", "New York, NY 10014"]}, "phone": "+12126457600", "display_phone": "(212) 645-7600", "distance": 3827.6576900600967}, {"id": "EHINHIbLklEUShuANKjGgw", "alias": "tomi\u00f1o-taberna-gallega-new-york", "name": "Tomi\u00f1o Taberna Gallega", "image_url": "https://s3-media3.fl.yelpcdn.com/bphoto/mmkbajVRlu9KEylHbxwiRw/o.jpg", "is_closed": false, "url": "https://www.yelp.com/biz/tomi%C3%B1o-taberna-gallega-new-york?adjust_creative=9gNmiWYX8uTbFBeTTvJMdA&utm_campaign=yelp_api_v3&utm_medium=api_v3_business_search&utm_source=9gNmiWYX8uTbFBeTTvJMdA", "review_count": 395, "categories": [{"alias": "wine_bars", "title": "Wine Bars"}, {"alias": "spanish", "title": "Spanish"}, {"alias": "tapas", "title": "Tapas Bars"}], "rating": 4.5, "coordinates": {"latitude": 40.7192978908919, "longitude": -73.9969160361937}, "transactions": ["delivery"], "price": "$$$", "location": {"address1": "192 Grand St", "address2": "", "address3": null, "city": "New York", "zip_code": "10013", "country": "US", "state": "NY", "display_address": ["192 Grand St", "New York, NY 10013"]}, "phone": "+12129334763", "display_phone": "(212) 933-4763", "distance": 4996.772920680136}, {"id": "y_tRUBOu3qg7lkaO2Xk1hQ", "alias": "frost-restaurant-brooklyn", "name": "Frost Restaurant", "image_url": "https://s3-media1.fl.yelpcdn.com/bphoto/iKyWEc3TGAcJQlL1sSp5-Q/o.jpg", "is_closed": false, "url": "https://www.yelp.com/biz/frost-restaurant-brooklyn?adjust_creative=9gNmiWYX8uTbFBeTTvJMdA&utm_campaign=yelp_api_v3&utm_medium=api_v3_business_search&utm_source=9gNmiWYX8uTbFBeTTvJMdA", "review_count": 191, "categories": [{"alias": "italian", "title": "Italian"}, {"alias": "seafood", "title": "Seafood"}, {"alias": "wine_bars", "title": "Wine Bars"}], "rating": 4.0, "coordinates": {"latitude": 40.7183945, "longitude": -73.9434941}, "transactions": ["delivery"], "price": "$$", "location": {"address1": "193 Frost St", "address2": "", "address3": "", "city": "Brooklyn", "zip_code": "11211", "country": "US", "state": "NY", "display_address": ["193 Frost St", "Brooklyn, NY 11211"]}, "phone": "+19176093215", "display_phone": "(917) 609-3215", "distance": 5038.859450144297}, {"id": "-7PnG_cD9VY-IfHGWzynmQ", "alias": "ainslie-brooklyn-2", "name": "Ainslie", "image_url": "https://s3-media2.fl.yelpcdn.com/bphoto/kYJQ57sIL6bnX9OBmdjggQ/o.jpg", "is_closed": false, "url": "https://www.yelp.com/biz/ainslie-brooklyn-2?adjust_creative=9gNmiWYX8uTbFBeTTvJMdA&utm_campaign=yelp_api_v3&utm_medium=api_v3_business_search&utm_source=9gNmiWYX8uTbFBeTTvJMdA", "review_count": 489, "categories": [{"alias": "beergardens", "title": "Beer Gardens"}, {"alias": "venues", "title": "Venues & Event Spaces"}, {"alias": "wine_bars", "title": "Wine Bars"}], "rating": 4.0, "coordinates": {"latitude": 40.712343, "longitude": -73.952121}, "transactions": ["delivery", "pickup"], "price": "$$", "location": {"address1": "76 Ainslie St", "address2": "", "address3": null, "city": "Brooklyn", "zip_code": "11211", "country": "US", "state": "NY", "display_address": ["76 Ainslie St", "Brooklyn, NY 11211"]}, "phone": "+13477253400", "display_phone": "(347) 725-3400", "distance": 5411.085270059114}, {"id": "SpyQHasbnU5YkOR6PI4sNQ", "alias": "margherita-nyc-new-york", "name": "Margherita NYC", "image_url": "https://s3-media3.fl.yelpcdn.com/bphoto/d0Rze61zvMmUOQ4z5Z-Mjw/o.jpg", "is_closed": false, "url": "https://www.yelp.com/biz/margherita-nyc-new-york?adjust_creative=9gNmiWYX8uTbFBeTTvJMdA&utm_campaign=yelp_api_v3&utm_medium=api_v3_business_search&utm_source=9gNmiWYX8uTbFBeTTvJMdA", "review_count": 316, "categories": [{"alias": "italian", "title": "Italian"}, {"alias": "pizza", "title": "Pizza"}], "rating": 4.0, "coordinates": {"latitude": 40.7189865112305, "longitude": -73.9969329833984}, "transactions": ["delivery", "pickup"], "price": "$$", "location": {"address1": "197 Grand St", "address2": "", "address3": "", "city": "New York", "zip_code": "10013", "country": "US", "state": "NY", "display_address": ["197 Grand St", "New York, NY 10013"]}, "phone": "+12122268391", "display_phone": "(212) 226-8391", "distance": 5022.529577583362}, {"id": "2RbBg1CIxBZAc2MQPdxkcA", "alias": "lillies-victorian-establishment-new-york", "name": "Lillie's Victorian Establishment", "image_url": "https://s3-media3.fl.yelpcdn.com/bphoto/99CWEJysOQ52vF0HbUnu3A/o.jpg", "is_closed": false, "url": "https://www.yelp.com/biz/lillies-victorian-establishment-new-york?adjust_creative=9gNmiWYX8uTbFBeTTvJMdA&utm_campaign=yelp_api_v3&utm_medium=api_v3_business_search&utm_source=9gNmiWYX8uTbFBeTTvJMdA", "review_count": 1165, "categories": [{"alias": "bars", "title": "Bars"}, {"alias": "british", "title": "British"}, {"alias": "gastropubs", "title": "Gastropubs"}], "rating": 3.5, "coordinates": {"latitude": 40.737661, "longitude": -73.991113}, "transactions": ["delivery", "pickup"], "price": "$$", "location": {"address1": "13 E 17th St", "address2": "", "address3": "", "city": "New York", "zip_code": "10003", "country": "US", "state": "NY", "display_address": ["13 E 17th St", "New York, NY 10003"]}, "phone": "+12123371970", "display_phone": "(212) 337-1970", "distance": 3002.473021693932}, {"id": "wCj2FSi9o6iosMIMNIIZsA", "alias": "loreto-italian-kitchen-and-bar-brooklyn", "name": "Loreto Italian Kitchen & Bar", "image_url": "https://s3-media2.fl.yelpcdn.com/bphoto/cW3fYqYyuKqHrmzxeg9-lA/o.jpg", "is_closed": false, "url": "https://www.yelp.com/biz/loreto-italian-kitchen-and-bar-brooklyn?adjust_creative=9gNmiWYX8uTbFBeTTvJMdA&utm_campaign=yelp_api_v3&utm_medium=api_v3_business_search&utm_source=9gNmiWYX8uTbFBeTTvJMdA", "review_count": 94, "categories": [{"alias": "lounges", "title": "Lounges"}, {"alias": "italian", "title": "Italian"}, {"alias": "wine_bars", "title": "Wine Bars"}], "rating": 4.5, "coordinates": {"latitude": 40.687037, "longitude": -73.978577}, "transactions": ["delivery", "pickup"], "location": {"address1": "280 Ashland Pl", "address2": null, "address3": "", "city": "Brooklyn", "zip_code": "11217", "country": "US", "state": "NY", "display_address": ["280 Ashland Pl", "Brooklyn, NY 11217"]}, "phone": "+17185541121", "display_phone": "(718) 554-1121", "distance": 8056.160124799731}, {"id": "7oNuDMESKejMgJFlkQwxmQ", "alias": "avena-downtown-new-york", "name": "Avena Downtown", "image_url": "https://s3-media1.fl.yelpcdn.com/bphoto/Kb5xMTmYlzZcj55Um-UEtg/o.jpg", "is_closed": false, "url": "https://www.yelp.com/biz/avena-downtown-new-york?adjust_creative=9gNmiWYX8uTbFBeTTvJMdA&utm_campaign=yelp_api_v3&utm_medium=api_v3_business_search&utm_source=9gNmiWYX8uTbFBeTTvJMdA", "review_count": 105, "categories": [{"alias": "italian", "title": "Italian"}, {"alias": "wine_bars", "title": "Wine Bars"}], "rating": 4.5, "coordinates": {"latitude": 40.7289, "longitude": -74.00216}, "transactions": ["delivery"], "price": "$$$", "location": {"address1": "260 6th Ave", "address2": "", "address3": null, "city": "New York", "zip_code": "10014", "country": "US", "state": "NY", "display_address": ["260 6th Ave", "New York, NY 10014"]}, "phone": "+16464550212", "display_phone": "(646) 455-0212", "distance": 4343.609742210589}, {"id": "ddyYKrNWkdc5mudrmLaTvA", "alias": "flora-brooklyn", "name": "Flora", "image_url": "https://s3-media1.fl.yelpcdn.com/bphoto/ktOINSsSJj_Bx6pep1fEuQ/o.jpg", "is_closed": false, "url": "https://www.yelp.com/biz/flora-brooklyn?adjust_creative=9gNmiWYX8uTbFBeTTvJMdA&utm_campaign=yelp_api_v3&utm_medium=api_v3_business_search&utm_source=9gNmiWYX8uTbFBeTTvJMdA", "review_count": 90, "categories": [{"alias": "italian", "title": "Italian"}, {"alias": "cocktailbars", "title": "Cocktail Bars"}, {"alias": "wine_bars", "title": "Wine Bars"}], "rating": 4.5, "coordinates": {"latitude": 40.66458, "longitude": -73.9800099}, "transactions": ["delivery", "pickup"], "price": "$$", "location": {"address1": "1021 8th Ave", "address2": "", "address3": null, "city": "Brooklyn", "zip_code": "11215", "country": "US", "state": "NY", "display_address": ["1021 8th Ave", "Brooklyn, NY 11215"]}, "phone": "+13478449480", "display_phone": "(347) 844-9480", "distance": 10554.961181534884}, {"id": "W1pBIFhkjJwjTe2P7o57yg", "alias": "lillys-cocktail-and-wine-new-york", "name": "Lilly's Cocktail and Wine", "image_url": "https://s3-media1.fl.yelpcdn.com/bphoto/8fygw5mLuP07tK5ZhnPEhA/o.jpg", "is_closed": false, "url": "https://www.yelp.com/biz/lillys-cocktail-and-wine-new-york?adjust_creative=9gNmiWYX8uTbFBeTTvJMdA&utm_campaign=yelp_api_v3&utm_medium=api_v3_business_search&utm_source=9gNmiWYX8uTbFBeTTvJMdA", "review_count": 150, "categories": [{"alias": "newamerican", "title": "American (New)"}, {"alias": "wine_bars", "title": "Wine Bars"}, {"alias": "cocktailbars", "title": "Cocktail Bars"}], "rating": 4.0, "coordinates": {"latitude": 40.77698, "longitude": -73.9785}, "transactions": ["restaurant_reservation", "delivery", "pickup"], "price": "$$", "location": {"address1": "50 W 72nd St", "address2": "", "address3": null, "city": "New York", "zip_code": "10023", "country": "US", "state": "NY", "display_address": ["50 W 72nd St", "New York, NY 10023"]}, "phone": "+12127994140", "display_phone": "(212) 799-4140", "distance": 2121.1574096130194}, {"id": "OmB4X44Ru8gjD6qgSNlXdg", "alias": "primola-restaurant-new-york", "name": "Primola Restaurant", "image_url": "https://s3-media3.fl.yelpcdn.com/bphoto/HX1Ewzc8o88FTzP5o_VjTg/o.jpg", "is_closed": false, "url": "https://www.yelp.com/biz/primola-restaurant-new-york?adjust_creative=9gNmiWYX8uTbFBeTTvJMdA&utm_campaign=yelp_api_v3&utm_medium=api_v3_business_search&utm_source=9gNmiWYX8uTbFBeTTvJMdA", "review_count": 158, "categories": [{"alias": "italian", "title": "Italian"}], "rating": 3.5, "coordinates": {"latitude": 40.7638675, "longitude": -73.9616489}, "transactions": ["delivery"], "price": "$$$", "location": {"address1": "1226 2nd Ave", "address2": "", "address3": "", "city": "New York", "zip_code": "10065", "country": "US", "state": "NY", "display_address": ["1226 2nd Ave", "New York, NY 10065"]}, "phone": "+12127581775", "display_phone": "(212) 758-1775", "distance": 847.2354079687066}, {"id": "sZZtK7rro9PK0fBH6L36Eg", "alias": "sagra-pizza-bar-new-york-2", "name": "Sagra Pizza Bar", "image_url": "https://s3-media3.fl.yelpcdn.com/bphoto/qLviyePQrx9cucG0regZyQ/o.jpg", "is_closed": false, "url": "https://www.yelp.com/biz/sagra-pizza-bar-new-york-2?adjust_creative=9gNmiWYX8uTbFBeTTvJMdA&utm_campaign=yelp_api_v3&utm_medium=api_v3_business_search&utm_source=9gNmiWYX8uTbFBeTTvJMdA", "review_count": 130, "categories": [{"alias": "italian", "title": "Italian"}, {"alias": "pizza", "title": "Pizza"}, {"alias": "wine_bars", "title": "Wine Bars"}], "rating": 4.0, "coordinates": {"latitude": 40.72969, "longitude": -74.00412}, "transactions": ["delivery", "pickup"], "price": "$$", "location": {"address1": "62 Carmine St", "address2": "", "address3": "", "city": "New York", "zip_code": "10014", "country": "US", "state": "NY", "display_address": ["62 Carmine St", "New York, NY 10014"]}, "phone": "+16466308331", "display_phone": "(646) 630-8331", "distance": 4382.537043412109}], "total": 4600, "region": {"center": {"longitude": -73.96957397460938, "latitude": 40.75917470627005}}}