{"businesses": [{"id": "EL5Y6BSinmUte5VW4Eh54Q", "alias": "frank-new-york", "name": "Frank", "image_url": "https://s3-media3.fl.yelpcdn.com/bphoto/4o3f1Yfqrn-h_4_eTVZyDQ/o.jpg", "is_closed": false, "url": "https://www.yelp.com/biz/frank-new-york?adjust_creative=9gNmiWYX8uTbFBeTTvJMdA&utm_campaign=yelp_api_v3&utm_medium=api_v3_business_search&utm_source=9gNmiWYX8uTbFBeTTvJMdA", "review_count": 784, "categories": [{"alias": "italian", "title": "Italian"}, {"alias": "bars", "title": "Bars"}, {"alias": "breakfast_brunch", "title": "Breakfast & Brunch"}], "rating": 3.5, "coordinates": {"latitude": 40.7268483205383, "longitude": -73.9887172038649}, "transactions": ["delivery", "pickup"], "price": "$$", "location": {"address1": "88 2nd Ave", "address2": "", "address3": "", "city": "New York", "zip_code": "10003", "country": "US", "state": "NY", "display_address": ["88 2nd Ave", "New York, NY 10003"]}, "phone": "+12124200202", "display_phone": "(212) 420-0202", "distance": 3939.740897034954}, {"id": "8XHbZIKDQbXhyKIGiukVeQ", "alias": "boucherie-union-square-new-york-2", "name": "Boucherie Union Square", "image_url": "https://s3-media4.fl.yelpcdn.com/bphoto/WqE28syOIIYrYBrmJ_4g3g/o.jpg", "is_closed": false, "url": "https://www.yelp.com/biz/boucherie-union-square-new-york-2?adjust_creative=9gNmiWYX8uTbFBeTTvJMdA&utm_campaign=yelp_api_v3&utm_medium=api_v3_business_search&utm_source=9gNmiWYX8uTbFBeTTvJMdA", "review_count": 1348, "categories": [{"alias": "steak", "title": "Steakhouses"}, {"alias": "french", "title": "French"}, {"alias": "cocktailbars", "title": "Cocktail Bars"}], "rating": 4.5, "coordinates": {"latitude": 40.73725824850519, "longitude": -73.9882252705524}, "transactions": ["delivery", "pickup"], "price": "$$$", "location": {"address1": "225 Park Ave S", "address2": null, "address3": "", "city": "New York", "zip_code": "10003", "country": "US", "state": "NY", "display_address": ["225 Park Ave S", "New York, NY 10003"]}, "phone": "+12123530200", "display_phone": "(212) 353-0200", "distance": 2899.5770068958877}, {"id": "86StyWnuGaTuY6X2e3irOg", "alias": "alice-restaurant-new-york", "name": "Alice Restaurant", "image_url": "https://s3-media2.fl.yelpcdn.com/bphoto/JFkDLRwc_jGkYQ42o18Zkw/o.jpg", "is_closed": false, "url": "https://www.yelp.com/biz/alice-restaurant-new-york?adjust_creative=9gNmiWYX8uTbFBeTTvJMdA&utm_campaign=yelp_api_v3&utm_medium=api_v3_business_search&utm_source=9gNmiWYX8uTbFBeTTvJMdA", "review_count": 107, "categories": [{"alias": "italian", "title": "Italian"}, {"alias": "bars", "title": "Bars"}, {"alias": "seafood", "title": "Seafood"}], "rating": 4.0, "coordinates": {"latitude": 40.73710696813969, "longitude": -73.99863114881475}, "transactions": ["delivery"], "location": {"address1": "126 W 13th St", "address2": "", "address3": null, "city": "New York", "zip_code": "10011", "country": "US", "state": "NY", "display_address": ["126 W 13th St", "New York, NY 10011"]}, "phone": "+12126914886", "display_phone": "(212) 691-4886", "distance": 3465.945763963629}, {"id": "nLMJL4p7k4jNO4qLMc1wNg", "alias": "leo-brooklyn", "name": "Leo", "image_url": "https://s3-media1.fl.yelpcdn.com/bphoto/ABPgft3LSeJ06VvjGsoJhQ/o.jpg", "is_closed": false, "url": "https://www.yelp.com/biz/leo-brooklyn?adjust_creative=9gNmiWYX8uTbFBeTTvJMdA&utm_campaign=yelp_api_v3&utm_medium=api_v3_business_search&utm_source=9gNmiWYX8uTbFBeTTvJMdA", "review_count": 83, "categories": [{"alias": "pizza", "title": "Pizza"}, {"alias": "coffee", "title": "Coffee & Tea"}, {"alias": "bakeries", "title": "Bakeries"}], "rating": 4.0, "coordinates": {"latitude": 40.7125608, "longitude": -73.9567886}, "transactions": ["delivery", "pickup"], "price": "$$", "location": {"address1": "123 Havemeyer St", "address2": "", "address3": null, "city": "Brooklyn", "zip_code": "11211", "country": "US", "state": "NY", "display_address": ["123 Havemeyer St", "Brooklyn, NY 11211"]}, "phone": "+17183846531", "display_phone": "(718) 384-6531", "distance": 5293.982028729541}, {"id": "U8Ljrx-w5otdMZNFhw5piw", "alias": "la-villa-brooklyn", "name": "La Villa", "image_url": "https://s3-media4.fl.yelpcdn.com/bphoto/opxMG0guTFpIwRjUXiSryA/o.jpg", "is_closed": false, "url": "https://www.yelp.com/biz/la-villa-brooklyn?adjust_creative=9gNmiWYX8uTbFBeTTvJMdA&utm_campaign=yelp_api_v3&utm_medium=api_v3_business_search&utm_source=9gNmiWYX8uTbFBeTTvJMdA", "review_count": 586, "categories": [{"alias": "italian", "title": "Italian"}, {"alias": "pizza", "title": "Pizza"}, {"alias": "sandwiches", "title": "Sandwiches"}], "rating": 4.0, "coordinates": {"latitude": 40.6743319055498, "longitude": -73.9816949398812}, "transactions": ["delivery", "pickup"], "price": "$$", "location": {"address1": "261 5th Ave", "address2": "", "address3": "", "city": "Brooklyn", "zip_code": "11215", "country": "US", "state": "NY", "display_address": ["261 5th Ave", "Brooklyn, NY 11215"]}, "phone": "+17184999888", "display_phone": "(718) 499-9888", "distance": 9489.225297771038}, {"id": "NBeQAgTo9hlJxgp9xbMO-w", "alias": "tufino-pizzeria-napoletana-astoria-28", "name": "Tufino Pizzeria Napoletana", "image_url": "https://s3-media4.fl.yelpcdn.com/bphoto/S24th9JXytdbsnlDtkxdNA/o.jpg", "is_closed": false, "url": "https://www.yelp.com/biz/tufino-pizzeria-napoletana-astoria-28?adjust_creative=9gNmiWYX8uTbFBeTTvJMdA&utm_campaign=yelp_api_v3&utm_medium=api_v3_business_search&utm_source=9gNmiWYX8uTbFBeTTvJMdA", "review_count": 453, "categories": [{"alias": "pizza", "title": "Pizza"}, {"alias": "italian", "title": "Italian"}, {"alias": "breakfast_brunch", "title": "Breakfast & Brunch"}], "rating": 4.0, "coordinates": {"latitude": 40.773986, "longitude": -73.908126}, "transactions": ["delivery", "pickup"], "price": "$$", "location": {"address1": "36-08 Ditmars Blvd", "address2": "", "address3": "", "city": "Astoria", "zip_code": "11105", "country": "US", "state": "NY", "display_address": ["36-08 Ditmars Blvd", "Astoria, NY 11105"]}, "phone": "+17182784800", "display_phone": "(718) 278-4800", "distance": 5431.827242449304}, {"id": "MaoCNdHni6MLjM9iYQqHcg", "alias": "frida-midtown-new-york", "name": "Frida Midtown", "image_url": "https://s3-media4.fl.yelpcdn.com/bphoto/rTLmxvP5qs15XvsE2OC6_w/o.jpg", "is_closed": false, "url": "https://www.yelp.com/biz/frida-midtown-new-york?adjust_creative=9gNmiWYX8uTbFBeTTvJMdA&utm_campaign=yelp_api_v3&utm_medium=api_v3_business_search&utm_source=9gNmiWYX8uTbFBeTTvJMdA", "review_count": 119, "categories": [{"alias": "mexican", "title": "Mexican"}, {"alias": "peruvian", "title": "Peruvian"}, {"alias": "cocktailbars", "title": "Cocktail Bars"}], "rating": 4.5, "coordinates": {"latitude": 40.756610894855896, "longitude": -73.96919065816803}, "transactions": ["delivery", "pickup", "restaurant_reservation"], "price": "$$$", "location": {"address1": "214 E 52nd St", "address2": null, "address3": "", "city": "New York", "zip_code": "10022", "country": "US", "state": "NY", "display_address": ["214 E 52nd St", "New York, NY 10022"]}, "phone": "+12126885200", "display_phone": "(212) 688-5200", "distance": 286.90486566488204}, {"id": "83zDAk03lFXkgImgkLhT9w", "alias": "chi-restaurant-and-bar-new-york", "name": "Chi Restaurant & Bar", "image_url": "https://s3-media4.fl.yelpcdn.com/bphoto/i88DTquqvXDMHv6tryKwqQ/o.jpg", "is_closed": false, "url": "https://www.yelp.com/biz/chi-restaurant-and-bar-new-york?adjust_creative=9gNmiWYX8uTbFBeTTvJMdA&utm_campaign=yelp_api_v3&utm_medium=api_v3_business_search&utm_source=9gNmiWYX8uTbFBeTTvJMdA", "review_count": 42, "categories": [{"alias": "bars", "title": "Bars"}, {"alias": "szechuan", "title": "Szechuan"}], "rating": 4.0, "coordinates": {"latitude": 40.75547, "longitude": -73.99439}, "transactions": ["delivery", "pickup"], "location": {"address1": "492 9th Ave", "address2": null, "address3": "", "city": "New York", "zip_code": "10018", "country": "US", "state": "NY", "display_address": ["492 9th Ave", "New York, NY 10018"]}, "phone": "+12129181470", "display_phone": "(212) 918-1470", "distance": 2137.457153875671}, {"id": "YMHxv6VFriKz1KevVXl0Cw", "alias": "gallow-green-new-york", "name": "Gallow Green", "image_url": "https://s3-media3.fl.yelpcdn.com/bphoto/5MvROxvknzVYCvj3jHrHfA/o.jpg", "is_closed": false, "url": "https://www.yelp.com/biz/gallow-green-new-york?adjust_creative=9gNmiWYX8uTbFBeTTvJMdA&utm_campaign=yelp_api_v3&utm_medium=api_v3_business_search&utm_source=9gNmiWYX8uTbFBeTTvJMdA", "review_count": 906, "categories": [{"alias": "cocktailbars", "title": "Cocktail Bars"}, {"alias": "newamerican", "title": "American (New)"}, {"alias": "breakfast_brunch", "title": "Breakfast & Brunch"}], "rating": 3.5, "coordinates": {"latitude": 40.7508871, "longitude": -74.0041249}, "transactions": ["delivery"], "price": "$$$", "location": {"address1": "542 W 27th St", "address2": "", "address3": "", "city": "New York", "zip_code": "10001", "country": "US", "state": "NY", "display_address": ["542 W 27th St", "New York, NY 10001"]}, "phone": "+12129041880", "display_phone": "(212) 904-1880", "distance": 3052.674895184609}, {"id": "pFesQXdrv75mTDztZzOiVg", "alias": "angelos-pizza-new-york-2", "name": "Angelo's Pizza", "image_url": "https://s3-media3.fl.yelpcdn.com/bphoto/qYPxWkZm-clROIWfTNzt6g/o.jpg", "is_closed": false, "url": "https://www.yelp.com/biz/angelos-pizza-new-york-2?adjust_creative=9gNmiWYX8uTbFBeTTvJMdA&utm_campaign=yelp_api_v3&utm_medium=api_v3_business_search&utm_source=9gNmiWYX8uTbFBeTTvJMdA", "review_count": 278, "categories": [{"alias": "pizza", "title": "Pizza"}], "rating": 3.0, "coordinates": {"latitude": 40.758151486516, "longitude": -73.9662031084299}, "transactions": ["delivery", "pickup"], "price": "$$", "location": {"address1": "1043 2nd Ave", "address2": "", "address3": "", "city": "New York", "zip_code": "10022", "country": "US", "state": "NY", "display_address": ["1043 2nd Ave", "New York, NY 10022"]}, "phone": "+12125213600", "display_phone": "(212) 521-3600", "distance": 283.74081105398716}, {"id": "ihd2cISx6muy6bKVPhA4cg", "alias": "queensyard-new-york", "name": "Queensyard", "image_url": "https://s3-media3.fl.yelpcdn.com/bphoto/beAu0NbQVgJVdaPol9333Q/o.jpg", "is_closed": false, "url": "https://www.yelp.com/biz/queensyard-new-york?adjust_creative=9gNmiWYX8uTbFBeTTvJMdA&utm_campaign=yelp_api_v3&utm_medium=api_v3_business_search&utm_source=9gNmiWYX8uTbFBeTTvJMdA", "review_count": 446, "categories": [{"alias": "british", "title": "British"}, {"alias": "cafes", "title": "Cafes"}, {"alias": "wine_bars", "title": "Wine Bars"}], "rating": 3.5, "coordinates": {"latitude": 40.7533936, "longitude": -74.00174205487694}, "transactions": ["delivery", "pickup"], "price": "$$$$", "location": {"address1": "20 Hudson Yards", "address2": null, "address3": "", "city": "New York", "zip_code": "10001", "country": "US", "state": "NY", "display_address": ["20 Hudson Yards", "New York, NY 10001"]}, "phone": "+12123770780", "display_phone": "(212) 377-0780", "distance": 2784.7075965152367}, {"id": "cRmRAl5HHJcysKBSrHivHA", "alias": "lamano-chelsea-new-york-2", "name": "Lamano Chelsea", "image_url": "https://s3-media3.fl.yelpcdn.com/bphoto/FOWPFoAdO360nnf9oUzUdg/o.jpg", "is_closed": false, "url": "https://www.yelp.com/biz/lamano-chelsea-new-york-2?adjust_creative=9gNmiWYX8uTbFBeTTvJMdA&utm_campaign=yelp_api_v3&utm_medium=api_v3_business_search&utm_source=9gNmiWYX8uTbFBeTTvJMdA", "review_count": 120, "categories": [{"alias": "wine_bars", "title": "Wine Bars"}, {"alias": "tapas", "title": "Tapas Bars"}, {"alias": "coffee", "title": "Coffee & Tea"}], "rating": 4.0, "coordinates": {"latitude": 40.7433797337789, "longitude": -73.9994259551167}, "transactions": ["pickup"], "price": "$$", "location": {"address1": "265 W 20th St", "address2": "", "address3": null, "city": "New York", "zip_code": "10011", "country": "US", "state": "NY", "display_address": ["265 W 20th St", "New York, NY 10011"]}, "phone": "+12127412398", "display_phone": "(212) 741-2398", "distance": 3067.226280907774}, {"id": "d7Asc4q2ImoPlA_BhfroTQ", "alias": "kest\u00e9-pizza-and-vino-new-york-5", "name": "Kest\u00e9 Pizza & Vino", "image_url": "https://s3-media2.fl.yelpcdn.com/bphoto/rBoHtwHN3lsNPKOWsmBCRw/o.jpg", "is_closed": false, "url": "https://www.yelp.com/biz/kest%C3%A9-pizza-and-vino-new-york-5?adjust_creative=9gNmiWYX8uTbFBeTTvJMdA&utm_campaign=yelp_api_v3&utm_medium=api_v3_business_search&utm_source=9gNmiWYX8uTbFBeTTvJMdA", "review_count": 1556, "categories": [{"alias": "pizza", "title": "Pizza"}, {"alias": "italian", "title": "Italian"}, {"alias": "wine_bars", "title": "Wine Bars"}], "rating": 4.0, "coordinates": {"latitude": 40.70937768719562, "longitude": -74.00483341921786}, "transactions": ["delivery", "pickup"], "price": "$$", "location": {"address1": "77 Fulton St", "address2": "", "address3": "", "city": "New York", "zip_code": "10038", "country": "US", "state": "NY", "display_address": ["77 Fulton St", "New York, NY 10038"]}, "phone": "+12122431500", "display_phone": "(212) 243-1500", "distance": 6283.810107724408}, {"id": "8uXCq3x2PRBohSl72ZO3Vg", "alias": "farinella-new-york-3", "name": "Farinella", "image_url": "https://s3-media2.fl.yelpcdn.com/bphoto/MQoR0b16nbfLFQX0JTKIZg/o.jpg", "is_closed": false, "url": "https://www.yelp.com/biz/farinella-new-york-3?adjust_creative=9gNmiWYX8uTbFBeTTvJMdA&utm_campaign=yelp_api_v3&utm_medium=api_v3_business_search&utm_source=9gNmiWYX8uTbFBeTTvJMdA", "review_count": 177, "categories": [{"alias": "pizza", "title": "Pizza"}], "rating": 3.5, "coordinates": {"latitude": 40.774698, "longitude": -73.959299}, "transactions": ["delivery", "pickup"], "price": "$", "location": {"address1": "1132 Lexington Ave", "address2": "", "address3": "", "city": "New York", "zip_code": "10075", "country": "US", "state": "NY", "display_address": ["1132 Lexington Ave", "New York, NY 10075"]}, "phone": "+12123273000", "display_phone": "(212) 327-3000", "distance": 1935.8027568346554}, {"id": "79bTSZd0QArz9xmninDdtQ", "alias": "trenta-tre-pizzeria-new-york-2", "name": "Trenta Tre Pizzeria", "image_url": "https://s3-media1.fl.yelpcdn.com/bphoto/i4_JCL5vATxRXK19l0fF2Q/o.jpg", "is_closed": false, "url": "https://www.yelp.com/biz/trenta-tre-pizzeria-new-york-2?adjust_creative=9gNmiWYX8uTbFBeTTvJMdA&utm_campaign=yelp_api_v3&utm_medium=api_v3_business_search&utm_source=9gNmiWYX8uTbFBeTTvJMdA", "review_count": 130, "categories": [{"alias": "pizza", "title": "Pizza"}, {"alias": "italian", "title": "Italian"}], "rating": 4.0, "coordinates": {"latitude": 40.74706, "longitude": -73.98311}, "transactions": ["delivery", "pickup"], "price": "$", "location": {"address1": "29 East 33rd St", "address2": "", "address3": null, "city": "New York", "zip_code": "10016", "country": "US", "state": "NY", "display_address": ["29 East 33rd St", "New York, NY 10016"]}, "phone": "+12126855300", "display_phone": "(212) 685-5300", "distance": 1760.165420518874}, {"id": "T_vLaKsuyJPDpsrSZuc7WA", "alias": "battello-jersey-city-3", "name": "Battello", "image_url": "https://s3-media3.fl.yelpcdn.com/bphoto/6oIXN3F4LlV5XQl9a5d8eg/o.jpg", "is_closed": false, "url": "https://www.yelp.com/biz/battello-jersey-city-3?adjust_creative=9gNmiWYX8uTbFBeTTvJMdA&utm_campaign=yelp_api_v3&utm_medium=api_v3_business_search&utm_source=9gNmiWYX8uTbFBeTTvJMdA", "review_count": 719, "categories": [{"alias": "italian", "title": "Italian"}, {"alias": "seafood", "title": "Seafood"}, {"alias": "lounges", "title": "Lounges"}], "rating": 3.5, "coordinates": {"latitude": 40.725357, "longitude": -74.032278}, "transactions": ["delivery", "pickup"], "price": "$$$", "location": {"address1": "502 Washington Blvd", "address2": null, "address3": "", "city": "Jersey City", "zip_code": "07310", "country": "US", "state": "NJ", "display_address": ["502 Washington Blvd", "Jersey City, NJ 07310"]}, "phone": "+12017981798", "display_phone": "(201) 798-1798", "distance": 6484.323201640976}, {"id": "rtivWWzG0XjUuhSrwusTgQ", "alias": "fausto-brooklyn", "name": "Fausto", "image_url": "https://s3-media3.fl.yelpcdn.com/bphoto/fdiL7VpkegiY7vU2YjKUmg/o.jpg", "is_closed": false, "url": "https://www.yelp.com/biz/fausto-brooklyn?adjust_creative=9gNmiWYX8uTbFBeTTvJMdA&utm_campaign=yelp_api_v3&utm_medium=api_v3_business_search&utm_source=9gNmiWYX8uTbFBeTTvJMdA", "review_count": 202, "categories": [{"alias": "italian", "title": "Italian"}, {"alias": "cocktailbars", "title": "Cocktail Bars"}], "rating": 4.0, "coordinates": {"latitude": 40.67597, "longitude": -73.97181}, "transactions": ["delivery"], "price": "$$$", "location": {"address1": "348 Flatbush Ave", "address2": "", "address3": null, "city": "Brooklyn", "zip_code": "11238", "country": "US", "state": "NY", "display_address": ["348 Flatbush Ave", "Brooklyn, NY 11238"]}, "phone": "+19179091427", "display_phone": "(917) 909-1427", "distance": 9255.725927793575}, {"id": "3Ic4C60oSH1cV2jknUXSjQ", "alias": "the-flatiron-room-new-york-3", "name": "The Flatiron Room", "image_url": "https://s3-media4.fl.yelpcdn.com/bphoto/Tq15tVlU7siEXcAkLhBBbg/o.jpg", "is_closed": false, "url": "https://www.yelp.com/biz/the-flatiron-room-new-york-3?adjust_creative=9gNmiWYX8uTbFBeTTvJMdA&utm_campaign=yelp_api_v3&utm_medium=api_v3_business_search&utm_source=9gNmiWYX8uTbFBeTTvJMdA", "review_count": 996, "categories": [{"alias": "lounges", "title": "Lounges"}, {"alias": "jazzandblues", "title": "Jazz & Blues"}, {"alias": "tradamerican", "title": "American (Traditional)"}], "rating": 4.5, "coordinates": {"latitude": 40.74452, "longitude": -73.99049}, "transactions": [], "price": "$$$", "location": {"address1": "37 W 26th St", "address2": "", "address3": "", "city": "New York", "zip_code": "10010", "country": "US", "state": "NY", "display_address": ["37 W 26th St", "New York, NY 10010"]}, "phone": "+12127253860", "display_phone": "(212) 725-3860", "distance": 2392.3164118422073}, {"id": "vRrVSB-LegwUwIxpkeRVtQ", "alias": "le-bernardin-new-york", "name": "Le Bernardin", "image_url": "https://s3-media2.fl.yelpcdn.com/bphoto/vKKZk1QYHbsCLhQjjNGICQ/o.jpg", "is_closed": false, "url": "https://www.yelp.com/biz/le-bernardin-new-york?adjust_creative=9gNmiWYX8uTbFBeTTvJMdA&utm_campaign=yelp_api_v3&utm_medium=api_v3_business_search&utm_source=9gNmiWYX8uTbFBeTTvJMdA", "review_count": 2835, "categories": [{"alias": "french", "title": "French"}, {"alias": "lounges", "title": "Lounges"}], "rating": 4.5, "coordinates": {"latitude": 40.761557, "longitude": -73.981763}, "transactions": [], "price": "$$$$", "location": {"address1": "155 W 51st St", "address2": "", "address3": "The Equitable Bldg", "city": "New York", "zip_code": "10019", "country": "US", "state": "NY", "display_address": ["155 W 51st St", "The Equitable Bldg", "New York, NY 10019"]}, "phone": "+12125541515", "display_phone": "(212) 554-1515", "distance": 1060.2359093914113}, {"id": "TybGiZNOipp1R1-u2k3ogA", "alias": "pomodoro-fort-lee", "name": "Pomodoro", "image_url": "https://s3-media3.fl.yelpcdn.com/bphoto/eX7Hv6QO19Wuill9lNHASw/o.jpg", "is_closed": false, "url": "https://www.yelp.com/biz/pomodoro-fort-lee?adjust_creative=9gNmiWYX8uTbFBeTTvJMdA&utm_campaign=yelp_api_v3&utm_medium=api_v3_business_search&utm_source=9gNmiWYX8uTbFBeTTvJMdA", "review_count": 220, "categories": [{"alias": "italian", "title": "Italian"}], "rating": 4.0, "coordinates": {"latitude": 40.8310841023922, "longitude": -73.9826329797506}, "transactions": ["delivery", "pickup"], "price": "$$", "location": {"address1": "795 Abbott Blvd", "address2": "", "address3": "", "city": "Fort Lee", "zip_code": "07024", "country": "US", "state": "NJ", "display_address": ["795 Abbott Blvd", "Fort Lee, NJ 07024"]}, "phone": "+12012240800", "display_phone": "(201) 224-0800", "distance": 8058.221324169927}, {"id": "mCLPr3PUwsO_zDehWeahbg", "alias": "la-fiamma-harrison", "name": "La Fiamma", "image_url": "https://s3-media3.fl.yelpcdn.com/bphoto/YrVEjQi0S0z6btomFV5Fxg/o.jpg", "is_closed": false, "url": "https://www.yelp.com/biz/la-fiamma-harrison?adjust_creative=9gNmiWYX8uTbFBeTTvJMdA&utm_campaign=yelp_api_v3&utm_medium=api_v3_business_search&utm_source=9gNmiWYX8uTbFBeTTvJMdA", "review_count": 167, "categories": [{"alias": "italian", "title": "Italian"}, {"alias": "bars", "title": "Bars"}, {"alias": "venues", "title": "Venues & Event Spaces"}], "rating": 4.5, "coordinates": {"latitude": 40.74706, "longitude": -74.15431}, "transactions": ["delivery"], "price": "$$", "location": {"address1": "440 Harrison Ave", "address2": "", "address3": "", "city": "Harrison", "zip_code": "07029", "country": "US", "state": "NJ", "display_address": ["440 Harrison Ave", "Harrison, NJ 07029"]}, "phone": "+19734835455", "display_phone": "(973) 483-5455", "distance": 15619.627012148354}, {"id": "piH-TNcmjLq2NHE4ZtbrBA", "alias": "zucchero-e-pomodori-new-york", "name": "Zucchero E Pomodori", "image_url": "https://s3-media3.fl.yelpcdn.com/bphoto/L0Xe0S89fZ7w5ME1maqi5A/o.jpg", "is_closed": false, "url": "https://www.yelp.com/biz/zucchero-e-pomodori-new-york?adjust_creative=9gNmiWYX8uTbFBeTTvJMdA&utm_campaign=yelp_api_v3&utm_medium=api_v3_business_search&utm_source=9gNmiWYX8uTbFBeTTvJMdA", "review_count": 228, "categories": [{"alias": "italian", "title": "Italian"}, {"alias": "desserts", "title": "Desserts"}, {"alias": "gluten_free", "title": "Gluten-Free"}], "rating": 3.5, "coordinates": {"latitude": 40.7698914, "longitude": -73.9541512}, "transactions": ["delivery", "pickup"], "price": "$$", "location": {"address1": "1448 1st Ave", "address2": "", "address3": "", "city": "New York", "zip_code": "10021", "country": "US", "state": "NY", "display_address": ["1448 1st Ave", "New York, NY 10021"]}, "phone": "+12125852100", "display_phone": "(212) 585-2100", "distance": 1762.702296313559}, {"id": "QrwObD0lKQsrBlDZzgzewA", "alias": "d-antan-vino-naturale-and-cucina-italiana-brooklyn", "name": "D'Antan|vino Naturale & cucina Italiana", "image_url": "https://s3-media4.fl.yelpcdn.com/bphoto/o3sAEOIYsGApTfz8rdePhA/o.jpg", "is_closed": false, "url": "https://www.yelp.com/biz/d-antan-vino-naturale-and-cucina-italiana-brooklyn?adjust_creative=9gNmiWYX8uTbFBeTTvJMdA&utm_campaign=yelp_api_v3&utm_medium=api_v3_business_search&utm_source=9gNmiWYX8uTbFBeTTvJMdA", "review_count": 61, "categories": [{"alias": "italian", "title": "Italian"}, {"alias": "wine_bars", "title": "Wine Bars"}], "rating": 4.5, "coordinates": {"latitude": 40.6772982, "longitude": -73.95882}, "transactions": [], "location": {"address1": "858 Bergen St", "address2": "", "address3": null, "city": "Brooklyn", "zip_code": "11238", "country": "US", "state": "NY", "display_address": ["858 Bergen St", "Brooklyn, NY 11238"]}, "phone": "+13473659674", "display_phone": "(347) 365-9674", "distance": 9145.109504456179}, {"id": "wZkZmjZEJDraLJgAalnHvA", "alias": "pisticci-new-york", "name": "Pisticci", "image_url": "https://s3-media1.fl.yelpcdn.com/bphoto/jjLF4tqJplE19ZqY0bi9Gw/o.jpg", "is_closed": false, "url": "https://www.yelp.com/biz/pisticci-new-york?adjust_creative=9gNmiWYX8uTbFBeTTvJMdA&utm_campaign=yelp_api_v3&utm_medium=api_v3_business_search&utm_source=9gNmiWYX8uTbFBeTTvJMdA", "review_count": 1013, "categories": [{"alias": "italian", "title": "Italian"}, {"alias": "venues", "title": "Venues & Event Spaces"}, {"alias": "vegetarian", "title": "Vegetarian"}], "rating": 4.0, "coordinates": {"latitude": 40.8141624, "longitude": -73.960288}, "transactions": ["delivery", "pickup"], "price": "$$", "location": {"address1": "125 La Salle St", "address2": "", "address3": "", "city": "New York", "zip_code": "10027", "country": "US", "state": "NY", "display_address": ["125 La Salle St", "New York, NY 10027"]}, "phone": "+12129323500", "display_phone": "(212) 932-3500", "distance": 6183.30725751173}, {"id": "skLDCHQcmivdGx5Qd_qBIA", "alias": "il-passatore-brooklyn", "name": "Il Passatore", "image_url": "https://s3-media2.fl.yelpcdn.com/bphoto/nfMWGWdSS_dAp-R6GCdCOg/o.jpg", "is_closed": false, "url": "https://www.yelp.com/biz/il-passatore-brooklyn?adjust_creative=9gNmiWYX8uTbFBeTTvJMdA&utm_campaign=yelp_api_v3&utm_medium=api_v3_business_search&utm_source=9gNmiWYX8uTbFBeTTvJMdA", "review_count": 397, "categories": [{"alias": "italian", "title": "Italian"}], "rating": 4.0, "coordinates": {"latitude": 40.71431, "longitude": -73.94217}, "transactions": ["delivery", "pickup", "restaurant_reservation"], "price": "$$", "location": {"address1": "14 Bushwick Ave", "address2": "", "address3": "", "city": "Brooklyn", "zip_code": "11211", "country": "US", "state": "NY", "display_address": ["14 Bushwick Ave", "Brooklyn, NY 11211"]}, "phone": "+17189633100", "display_phone": "(718) 963-3100", "distance": 5496.2988540172255}, {"id": "KgxzEspPDlfZ-6_HX70mfg", "alias": "ninos-aq-astoria", "name": "Ninos Aq", "image_url": "https://s3-media1.fl.yelpcdn.com/bphoto/ScAu7D0JVpCw-M0Hy1fQRA/o.jpg", "is_closed": false, "url": "https://www.yelp.com/biz/ninos-aq-astoria?adjust_creative=9gNmiWYX8uTbFBeTTvJMdA&utm_campaign=yelp_api_v3&utm_medium=api_v3_business_search&utm_source=9gNmiWYX8uTbFBeTTvJMdA", "review_count": 229, "categories": [{"alias": "cocktailbars", "title": "Cocktail Bars"}, {"alias": "italian", "title": "Italian"}, {"alias": "breakfast_brunch", "title": "Breakfast & Brunch"}], "rating": 4.0, "coordinates": {"latitude": 40.774944, "longitude": -73.908585}, "transactions": ["delivery", "pickup"], "price": "$$", "location": {"address1": "35-01 Ditmars Blvd", "address2": "", "address3": null, "city": "Astoria", "zip_code": "11105", "country": "US", "state": "NY", "display_address": ["35-01 Ditmars Blvd", "Astoria, NY 11105"]}, "phone": "+17187770010", "display_phone": "(718) 777-0010", "distance": 5427.2891061345135}, {"id": "GqTgQEqwf3k5JyE7DHDhjw", "alias": "numero-28-ristorante-pizzeria-bar-new-york", "name": "Numero 28 Ristorante Pizzeria Bar", "image_url": "https://s3-media3.fl.yelpcdn.com/bphoto/yNVndKgqxRKycj-5c1CTww/o.jpg", "is_closed": false, "url": "https://www.yelp.com/biz/numero-28-ristorante-pizzeria-bar-new-york?adjust_creative=9gNmiWYX8uTbFBeTTvJMdA&utm_campaign=yelp_api_v3&utm_medium=api_v3_business_search&utm_source=9gNmiWYX8uTbFBeTTvJMdA", "review_count": 577, "categories": [{"alias": "pizza", "title": "Pizza"}, {"alias": "italian", "title": "Italian"}, {"alias": "wine_bars", "title": "Wine Bars"}], "rating": 4.0, "coordinates": {"latitude": 40.73041, "longitude": -73.98595}, "transactions": ["delivery", "pickup"], "price": "$$", "location": {"address1": "176 2nd Ave", "address2": "", "address3": "", "city": "New York", "zip_code": "10003", "country": "US", "state": "NY", "display_address": ["176 2nd Ave", "New York, NY 10003"]}, "phone": "+12127771555", "display_phone": "(212) 777-1555", "distance": 3484.067681737271}, {"id": "BQSPAXJcPw-7Gt2CCrH2Yw", "alias": "ita-italian-kitchen-jersey-city-2", "name": "Ita Italian Kitchen", "image_url": "https://s3-media1.fl.yelpcdn.com/bphoto/Lo_JyWhgdzeO1YfnJYfZjg/o.jpg", "is_closed": false, "url": "https://www.yelp.com/biz/ita-italian-kitchen-jersey-city-2?adjust_creative=9gNmiWYX8uTbFBeTTvJMdA&utm_campaign=yelp_api_v3&utm_medium=api_v3_business_search&utm_source=9gNmiWYX8uTbFBeTTvJMdA", "review_count": 239, "categories": [{"alias": "pizza", "title": "Pizza"}, {"alias": "italian", "title": "Italian"}, {"alias": "wine_bars", "title": "Wine Bars"}], "rating": 4.5, "coordinates": {"latitude": 40.7234748594999, "longitude": -74.0703173}, "transactions": ["delivery", "pickup"], "price": "$$", "location": {"address1": "682 Bergen Ave", "address2": "", "address3": null, "city": "Jersey City", "zip_code": "07304", "country": "US", "state": "NJ", "display_address": ["682 Bergen Ave", "Jersey City, NJ 07304"]}, "phone": "+12014358380", "display_phone": "(201) 435-8380", "distance": 9369.890223038637}, {"id": "35TekDVXNNnWWz4tDvg-_w", "alias": "rosticeria-da-gigi-hoboken", "name": "Rosticeria Da Gigi", "image_url": "https://s3-media1.fl.yelpcdn.com/bphoto/_Ll50_4WdtxQUGvrk7NQLw/o.jpg", "is_closed": false, "url": "https://www.yelp.com/biz/rosticeria-da-gigi-hoboken?adjust_creative=9gNmiWYX8uTbFBeTTvJMdA&utm_campaign=yelp_api_v3&utm_medium=api_v3_business_search&utm_source=9gNmiWYX8uTbFBeTTvJMdA", "review_count": 242, "categories": [{"alias": "italian", "title": "Italian"}, {"alias": "sandwiches", "title": "Sandwiches"}, {"alias": "breakfast_brunch", "title": "Breakfast & Brunch"}], "rating": 4.0, "coordinates": {"latitude": 40.7478555804946, "longitude": -74.0280557568127}, "transactions": ["delivery", "pickup"], "price": "$$", "location": {"address1": "916 Washington St", "address2": "", "address3": "", "city": "Hoboken", "zip_code": "07030", "country": "US", "state": "NJ", "display_address": ["916 Washington St", "Hoboken, NJ 07030"]}, "phone": "+12017105850", "display_phone": "(201) 710-5850", "distance": 5084.335772438371}, {"id": "1ocm2YeYQJ3KveEBDcXAqg", "alias": "nonnas-pizza-new-york-6", "name": "Nonna's Pizza", "image_url": "https://s3-media3.fl.yelpcdn.com/bphoto/piSyq2J3P5ZUxtHofubYUA/o.jpg", "is_closed": false, "url": "https://www.yelp.com/biz/nonnas-pizza-new-york-6?adjust_creative=9gNmiWYX8uTbFBeTTvJMdA&utm_campaign=yelp_api_v3&utm_medium=api_v3_business_search&utm_source=9gNmiWYX8uTbFBeTTvJMdA", "review_count": 13, "categories": [{"alias": "pizza", "title": "Pizza"}], "rating": 4.0, "coordinates": {"latitude": 40.73891, "longitude": -73.99298}, "transactions": ["delivery"], "location": {"address1": "12 W 18th St", "address2": "", "address3": null, "city": "New York", "zip_code": "10011", "country": "US", "state": "NY", "display_address": ["12 W 18th St", "New York, NY 10011"]}, "phone": "+12122060500", "display_phone": "(212) 206-0500", "distance": 2995.969143004837}, {"id": "5V4cUVikPN8ALWXBVdjltw", "alias": "mariella-brooklyn", "name": "Mariella", "image_url": "https://s3-media4.fl.yelpcdn.com/bphoto/8x2azc9SIC17czm8LjgKnA/o.jpg", "is_closed": false, "url": "https://www.yelp.com/biz/mariella-brooklyn?adjust_creative=9gNmiWYX8uTbFBeTTvJMdA&utm_campaign=yelp_api_v3&utm_medium=api_v3_business_search&utm_source=9gNmiWYX8uTbFBeTTvJMdA", "review_count": 378, "categories": [{"alias": "italian", "title": "Italian"}, {"alias": "gluten_free", "title": "Gluten-Free"}, {"alias": "salad", "title": "Salad"}], "rating": 4.5, "coordinates": {"latitude": 40.6662419, "longitude": -73.985749}, "transactions": ["pickup"], "price": "$$", "location": {"address1": "492 6th Ave", "address2": "", "address3": "", "city": "Brooklyn", "zip_code": "11215", "country": "US", "state": "NY", "display_address": ["492 6th Ave", "Brooklyn, NY 11215"]}, "phone": "+17184992132", "display_phone": "(718) 499-2132", "distance": 10423.186568369823}, {"id": "lTa_the-LGQxdwKhwfwVyw", "alias": "la-nonna-new-york-4", "name": "La Nonna", "image_url": "https://s3-media1.fl.yelpcdn.com/bphoto/M4KfbaQdTaKxlcU9P64nWA/o.jpg", "is_closed": false, "url": "https://www.yelp.com/biz/la-nonna-new-york-4?adjust_creative=9gNmiWYX8uTbFBeTTvJMdA&utm_campaign=yelp_api_v3&utm_medium=api_v3_business_search&utm_source=9gNmiWYX8uTbFBeTTvJMdA", "review_count": 307, "categories": [{"alias": "italian", "title": "Italian"}], "rating": 3.5, "coordinates": {"latitude": 40.718546780939, "longitude": -73.9975856825191}, "transactions": ["delivery"], "price": "$$", "location": {"address1": "134 Mulberry St", "address2": "", "address3": "", "city": "New York", "zip_code": "10013", "country": "US", "state": "NY", "display_address": ["134 Mulberry St", "New York, NY 10013"]}, "phone": "+12123346200", "display_phone": "(212) 334-6200", "distance": 5096.916492560061}, {"id": "R3zLNeyNbmPJ09URzXgGfA", "alias": "delizia-73-new-york", "name": "Delizia 73", "image_url": "https://s3-media2.fl.yelpcdn.com/bphoto/S_FfDHEq7IFQIw7mC4fCMw/o.jpg", "is_closed": false, "url": "https://www.yelp.com/biz/delizia-73-new-york?adjust_creative=9gNmiWYX8uTbFBeTTvJMdA&utm_campaign=yelp_api_v3&utm_medium=api_v3_business_search&utm_source=9gNmiWYX8uTbFBeTTvJMdA", "review_count": 314, "categories": [{"alias": "pizza", "title": "Pizza"}, {"alias": "italian", "title": "Italian"}], "rating": 3.5, "coordinates": {"latitude": 40.768589, "longitude": -73.955047}, "transactions": ["delivery", "pickup"], "price": "$$", "location": {"address1": "1374 1st Ave", "address2": "", "address3": "", "city": "New York", "zip_code": "10021", "country": "US", "state": "NY", "display_address": ["1374 1st Ave", "New York, NY 10021"]}, "phone": "+12125178888", "display_phone": "(212) 517-8888", "distance": 1611.5798249981651}, {"id": "OY70rYTi8Qtmb89IWRUOaQ", "alias": "ponti-rossi-brooklyn", "name": "Ponti Rossi", "image_url": "https://s3-media3.fl.yelpcdn.com/bphoto/IxdmnC-UyMdinNtf-smcoA/o.jpg", "is_closed": false, "url": "https://www.yelp.com/biz/ponti-rossi-brooklyn?adjust_creative=9gNmiWYX8uTbFBeTTvJMdA&utm_campaign=yelp_api_v3&utm_medium=api_v3_business_search&utm_source=9gNmiWYX8uTbFBeTTvJMdA", "review_count": 17, "categories": [{"alias": "italian", "title": "Italian"}, {"alias": "foodtrucks", "title": "Food Trucks"}], "rating": 4.0, "coordinates": {"latitude": 40.7299690246582, "longitude": -73.9524078369141}, "transactions": ["delivery", "pickup"], "price": "$$", "location": {"address1": null, "address2": null, "address3": null, "city": "Brooklyn", "zip_code": "11222", "country": "US", "state": "NY", "display_address": ["Brooklyn, NY 11222"]}, "phone": "+17026124837", "display_phone": "(702) 612-4837", "distance": 3787.2522029998013}, {"id": "nHMDOIX32dGbfpuNUwsLNQ", "alias": "almar-brooklyn-2", "name": "AlMar", "image_url": "https://s3-media2.fl.yelpcdn.com/bphoto/T55OZs46PGolthDw3ezdCA/o.jpg", "is_closed": false, "url": "https://www.yelp.com/biz/almar-brooklyn-2?adjust_creative=9gNmiWYX8uTbFBeTTvJMdA&utm_campaign=yelp_api_v3&utm_medium=api_v3_business_search&utm_source=9gNmiWYX8uTbFBeTTvJMdA", "review_count": 491, "categories": [{"alias": "italian", "title": "Italian"}, {"alias": "breakfast_brunch", "title": "Breakfast & Brunch"}, {"alias": "cocktailbars", "title": "Cocktail Bars"}], "rating": 4.0, "coordinates": {"latitude": 40.702662, "longitude": -73.989177}, "transactions": ["delivery", "pickup"], "price": "$$", "location": {"address1": "111 Front St", "address2": "", "address3": "", "city": "Brooklyn", "zip_code": "11201", "country": "US", "state": "NY", "display_address": ["111 Front St", "Brooklyn, NY 11201"]}, "phone": "+17188555288", "display_phone": "(718) 855-5288", "distance": 6497.385322619732}, {"id": "TN1dGAwvNevkzXfL0sU41A", "alias": "blvd-wine-bar-long-island-city", "name": "BLVD Wine Bar", "image_url": "https://s3-media4.fl.yelpcdn.com/bphoto/sJKPD28PpZuiUQO1n8HoHw/o.jpg", "is_closed": false, "url": "https://www.yelp.com/biz/blvd-wine-bar-long-island-city?adjust_creative=9gNmiWYX8uTbFBeTTvJMdA&utm_campaign=yelp_api_v3&utm_medium=api_v3_business_search&utm_source=9gNmiWYX8uTbFBeTTvJMdA", "review_count": 178, "categories": [{"alias": "wine_bars", "title": "Wine Bars"}, {"alias": "breakfast_brunch", "title": "Breakfast & Brunch"}, {"alias": "newamerican", "title": "American (New)"}], "rating": 4.0, "coordinates": {"latitude": 40.74596, "longitude": -73.9575}, "transactions": ["delivery", "pickup"], "price": "$$", "location": {"address1": "4720 Center Blvd", "address2": "", "address3": "", "city": "Long Island City", "zip_code": "11109", "country": "US", "state": "NY", "display_address": ["4720 Center Blvd", "Long Island City, NY 11109"]}, "phone": "+17184408520", "display_phone": "(718) 440-8520", "distance": 1798.9633684852736}, {"id": "JL_p-OHtSEYVfoeLQQgqDA", "alias": "casellula-new-york", "name": "Casellula", "image_url": "https://s3-media2.fl.yelpcdn.com/bphoto/GHbGQ8IgmYFfcaDqCzxFsA/o.jpg", "is_closed": false, "url": "https://www.yelp.com/biz/casellula-new-york?adjust_creative=9gNmiWYX8uTbFBeTTvJMdA&utm_campaign=yelp_api_v3&utm_medium=api_v3_business_search&utm_source=9gNmiWYX8uTbFBeTTvJMdA", "review_count": 951, "categories": [{"alias": "wine_bars", "title": "Wine Bars"}, {"alias": "newamerican", "title": "American (New)"}], "rating": 4.0, "coordinates": {"latitude": 40.76499, "longitude": -73.98835}, "transactions": ["delivery", "pickup"], "price": "$$$", "location": {"address1": "401 W 52nd St", "address2": "", "address3": "", "city": "New York", "zip_code": "10019", "country": "US", "state": "NY", "display_address": ["401 W 52nd St", "New York, NY 10019"]}, "phone": "+12122478137", "display_phone": "(212) 247-8137", "distance": 1699.5316172475868}, {"id": "emhxn-nnsBI5Zih-nTg15w", "alias": "luv-pizza-new-york", "name": "Luv pizza", "image_url": "https://s3-media3.fl.yelpcdn.com/bphoto/MSeZeH_L9puxJQxQ_oRG_g/o.jpg", "is_closed": false, "url": "https://www.yelp.com/biz/luv-pizza-new-york?adjust_creative=9gNmiWYX8uTbFBeTTvJMdA&utm_campaign=yelp_api_v3&utm_medium=api_v3_business_search&utm_source=9gNmiWYX8uTbFBeTTvJMdA", "review_count": 29, "categories": [{"alias": "pizza", "title": "Pizza"}], "rating": 4.5, "coordinates": {"latitude": 40.75238, "longitude": -73.98939}, "transactions": ["delivery", "pickup"], "price": "$", "location": {"address1": "485 7th Ave", "address2": "", "address3": null, "city": "New York", "zip_code": "10018", "country": "US", "state": "NY", "display_address": ["485 7th Ave", "New York, NY 10018"]}, "phone": "+16466924282", "display_phone": "(646) 692-4282", "distance": 1827.2901103069728}, {"id": "KpBfFpjzsGvvqAzCasVW0g", "alias": "extra-virgin-new-york", "name": "Extra Virgin", "image_url": "https://s3-media2.fl.yelpcdn.com/bphoto/_uua754M7G5t11l0pWfA1A/o.jpg", "is_closed": false, "url": "https://www.yelp.com/biz/extra-virgin-new-york?adjust_creative=9gNmiWYX8uTbFBeTTvJMdA&utm_campaign=yelp_api_v3&utm_medium=api_v3_business_search&utm_source=9gNmiWYX8uTbFBeTTvJMdA", "review_count": 1367, "categories": [{"alias": "seafood", "title": "Seafood"}, {"alias": "greek", "title": "Greek"}, {"alias": "italian", "title": "Italian"}], "rating": 3.5, "coordinates": {"latitude": 40.7353962496717, "longitude": -74.0031888223197}, "transactions": ["delivery", "pickup"], "price": "$$", "location": {"address1": "259 W 4th St", "address2": "", "address3": "", "city": "New York", "zip_code": "10014", "country": "US", "state": "NY", "display_address": ["259 W 4th St", "New York, NY 10014"]}, "phone": "+12126919359", "display_phone": "(212) 691-9359", "distance": 3874.235211786166}, {"id": "zj8Lq1T8KIC5zwFief15jg", "alias": "prince-street-pizza-new-york-2", "name": "Prince Street Pizza", "image_url": "https://s3-media2.fl.yelpcdn.com/bphoto/I4gm7i1zoamgAk1hmOKbKw/o.jpg", "is_closed": false, "url": "https://www.yelp.com/biz/prince-street-pizza-new-york-2?adjust_creative=9gNmiWYX8uTbFBeTTvJMdA&utm_campaign=yelp_api_v3&utm_medium=api_v3_business_search&utm_source=9gNmiWYX8uTbFBeTTvJMdA", "review_count": 4791, "categories": [{"alias": "pizza", "title": "Pizza"}, {"alias": "italian", "title": "Italian"}], "rating": 4.5, "coordinates": {"latitude": 40.72308755605564, "longitude": -73.99453001177575}, "transactions": ["delivery", "pickup"], "price": "$", "location": {"address1": "27 Prince St", "address2": null, "address3": "", "city": "New York", "zip_code": "10012", "country": "US", "state": "NY", "display_address": ["27 Prince St", "New York, NY 10012"]}, "phone": "+12129664100", "display_phone": "(212) 966-4100", "distance": 4530.158358332591}, {"id": "xtfKAP7X36CCZrJm_Ta6Cg", "alias": "the-consulate-new-york-2", "name": "The Consulate", "image_url": "https://s3-media4.fl.yelpcdn.com/bphoto/YXaImw-bOVSkrDIXk_FLlg/o.jpg", "is_closed": false, "url": "https://www.yelp.com/biz/the-consulate-new-york-2?adjust_creative=9gNmiWYX8uTbFBeTTvJMdA&utm_campaign=yelp_api_v3&utm_medium=api_v3_business_search&utm_source=9gNmiWYX8uTbFBeTTvJMdA", "review_count": 251, "categories": [{"alias": "french", "title": "French"}, {"alias": "newamerican", "title": "American (New)"}, {"alias": "cocktailbars", "title": "Cocktail Bars"}], "rating": 4.0, "coordinates": {"latitude": 40.78586, "longitude": -73.97242}, "transactions": ["delivery", "pickup"], "price": "$$$", "location": {"address1": "519 Columbus Ave", "address2": null, "address3": "", "city": "New York", "zip_code": "10024", "country": "US", "state": "NY", "display_address": ["519 Columbus Ave", "New York, NY 10024"]}, "phone": "+16467819288", "display_phone": "(646) 781-9288", "distance": 2975.3560117017155}, {"id": "srhEv1OqoK9W5JRdiMWDyw", "alias": "ayza-wine-and-chocolate-bar-new-york-6", "name": "Ayza Wine & Chocolate Bar", "image_url": "https://s3-media4.fl.yelpcdn.com/bphoto/NBmSmFpDQudnoawfw8pdrw/o.jpg", "is_closed": false, "url": "https://www.yelp.com/biz/ayza-wine-and-chocolate-bar-new-york-6?adjust_creative=9gNmiWYX8uTbFBeTTvJMdA&utm_campaign=yelp_api_v3&utm_medium=api_v3_business_search&utm_source=9gNmiWYX8uTbFBeTTvJMdA", "review_count": 2085, "categories": [{"alias": "wine_bars", "title": "Wine Bars"}, {"alias": "desserts", "title": "Desserts"}, {"alias": "newamerican", "title": "American (New)"}], "rating": 4.0, "coordinates": {"latitude": 40.7471774721074, "longitude": -73.987011312828}, "transactions": ["delivery", "pickup"], "price": "$$", "location": {"address1": "11 W 31st St", "address2": "", "address3": "", "city": "New York", "zip_code": "10001", "country": "US", "state": "NY", "display_address": ["11 W 31st St", "New York, NY 10001"]}, "phone": "+12127142992", "display_phone": "(212) 714-2992", "distance": 1984.1928545988621}, {"id": "MFviNrwOFxBYO8YoVvO2VA", "alias": "4-boys-99-cents-pizza-new-york", "name": "4 Boys 99 Cents Pizza", "image_url": "https://s3-media1.fl.yelpcdn.com/bphoto/0BBcuop03jC0ju6t8HDAVA/o.jpg", "is_closed": false, "url": "https://www.yelp.com/biz/4-boys-99-cents-pizza-new-york?adjust_creative=9gNmiWYX8uTbFBeTTvJMdA&utm_campaign=yelp_api_v3&utm_medium=api_v3_business_search&utm_source=9gNmiWYX8uTbFBeTTvJMdA", "review_count": 4, "categories": [{"alias": "pizza", "title": "Pizza"}, {"alias": "italian", "title": "Italian"}, {"alias": "breakfast_brunch", "title": "Breakfast & Brunch"}], "rating": 5.0, "coordinates": {"latitude": 40.74989247932951, "longitude": -73.99427517296239}, "transactions": ["delivery", "pickup"], "location": {"address1": "252 W 31st St", "address2": "", "address3": null, "city": "New York", "zip_code": "10001", "country": "US", "state": "NY", "display_address": ["252 W 31st St", "New York, NY 10001"]}, "phone": "+19172615088", "display_phone": "(917) 261-5088", "distance": 2322.5596915906385}, {"id": "Aazjxg21VH2cncWYBAv68Q", "alias": "sottocasa-pizzeria-brooklyn-3", "name": "Sottocasa Pizzeria", "image_url": "https://s3-media2.fl.yelpcdn.com/bphoto/MbBAMb3kb1VXtF9M5ptazA/o.jpg", "is_closed": false, "url": "https://www.yelp.com/biz/sottocasa-pizzeria-brooklyn-3?adjust_creative=9gNmiWYX8uTbFBeTTvJMdA&utm_campaign=yelp_api_v3&utm_medium=api_v3_business_search&utm_source=9gNmiWYX8uTbFBeTTvJMdA", "review_count": 704, "categories": [{"alias": "pizza", "title": "Pizza"}, {"alias": "italian", "title": "Italian"}], "rating": 4.5, "coordinates": {"latitude": 40.688285, "longitude": -73.989006}, "transactions": ["delivery"], "price": "$$", "location": {"address1": "298 Atlantic Ave", "address2": null, "address3": "", "city": "Brooklyn", "zip_code": "11201", "country": "US", "state": "NY", "display_address": ["298 Atlantic Ave", "Brooklyn, NY 11201"]}, "phone": "+17188528758", "display_phone": "(718) 852-8758", "distance": 8045.977916183729}, {"id": "HV5DMBmEpQ_Nu6NSekJquA", "alias": "harrys-italian-new-york", "name": "Harry's Italian", "image_url": "https://s3-media1.fl.yelpcdn.com/bphoto/-Ap6upQQMPpYk4g3vJz1DQ/o.jpg", "is_closed": false, "url": "https://www.yelp.com/biz/harrys-italian-new-york?adjust_creative=9gNmiWYX8uTbFBeTTvJMdA&utm_campaign=yelp_api_v3&utm_medium=api_v3_business_search&utm_source=9gNmiWYX8uTbFBeTTvJMdA", "review_count": 278, "categories": [{"alias": "pizza", "title": "Pizza"}, {"alias": "italian", "title": "Italian"}, {"alias": "breakfast_brunch", "title": "Breakfast & Brunch"}], "rating": 3.5, "coordinates": {"latitude": 40.7153762863468, "longitude": -74.0139836332683}, "transactions": ["delivery", "pickup"], "price": "$$", "location": {"address1": "225 Murray St", "address2": "", "address3": "", "city": "New York", "zip_code": "10282", "country": "US", "state": "NY", "display_address": ["225 Murray St", "New York, NY 10282"]}, "phone": "+12126081007", "display_phone": "(212) 608-1007", "distance": 6217.870920222579}, {"id": "j7K-Pevawo8PN3r0WyEE_g", "alias": "macoletta-astoria-2", "name": "Macoletta", "image_url": "https://s3-media4.fl.yelpcdn.com/bphoto/qfCkCgNawcDt9b6G6L6jzw/o.jpg", "is_closed": false, "url": "https://www.yelp.com/biz/macoletta-astoria-2?adjust_creative=9gNmiWYX8uTbFBeTTvJMdA&utm_campaign=yelp_api_v3&utm_medium=api_v3_business_search&utm_source=9gNmiWYX8uTbFBeTTvJMdA", "review_count": 204, "categories": [{"alias": "pizza", "title": "Pizza"}, {"alias": "italian", "title": "Italian"}], "rating": 4.5, "coordinates": {"latitude": 40.7732423, "longitude": -73.9164153}, "transactions": ["delivery", "pickup"], "price": "$$", "location": {"address1": "28-15 24th Ave", "address2": "", "address3": null, "city": "Astoria", "zip_code": "11102", "country": "US", "state": "NY", "display_address": ["28-15 24th Ave", "Astoria, NY 11102"]}, "phone": "+17187774992", "display_phone": "(718) 777-4992", "distance": 4742.262194941117}, {"id": "-neJTu9rpYM8-wjwA9WoIA", "alias": "lex-restaurant-new-york", "name": "Lex Restaurant", "image_url": "https://s3-media2.fl.yelpcdn.com/bphoto/GgPv-iX7gnLc3_lgK7SGWg/o.jpg", "is_closed": false, "url": "https://www.yelp.com/biz/lex-restaurant-new-york?adjust_creative=9gNmiWYX8uTbFBeTTvJMdA&utm_campaign=yelp_api_v3&utm_medium=api_v3_business_search&utm_source=9gNmiWYX8uTbFBeTTvJMdA", "review_count": 126, "categories": [{"alias": "italian", "title": "Italian"}, {"alias": "bars", "title": "Bars"}], "rating": 4.0, "coordinates": {"latitude": 40.7825297, "longitude": -73.9535605}, "transactions": ["delivery", "pickup"], "price": "$$", "location": {"address1": "1370 Lexington Ave", "address2": "", "address3": "", "city": "New York", "zip_code": "10128", "country": "US", "state": "NY", "display_address": ["1370 Lexington Ave", "New York, NY 10128"]}, "phone": "+12128605903", "display_phone": "(212) 860-5903", "distance": 2926.1997674714316}, {"id": "I8wk0uwL6R0RhSprSlPvNw", "alias": "roman-nose-jersey-city", "name": "Roman Nose", "image_url": "https://s3-media1.fl.yelpcdn.com/bphoto/LJy74cylu_B2uzs5pajNaA/o.jpg", "is_closed": false, "url": "https://www.yelp.com/biz/roman-nose-jersey-city?adjust_creative=9gNmiWYX8uTbFBeTTvJMdA&utm_campaign=yelp_api_v3&utm_medium=api_v3_business_search&utm_source=9gNmiWYX8uTbFBeTTvJMdA", "review_count": 801, "categories": [{"alias": "italian", "title": "Italian"}, {"alias": "pizza", "title": "Pizza"}], "rating": 3.5, "coordinates": {"latitude": 40.7200279, "longitude": -74.0433197}, "transactions": ["delivery", "pickup"], "price": "$$", "location": {"address1": "125 Newark Ave", "address2": "", "address3": "", "city": "Jersey City", "zip_code": "07302", "country": "US", "state": "NJ", "display_address": ["125 Newark Ave", "Jersey City, NJ 07302"]}, "phone": "+12013602176", "display_phone": "(201) 360-2176", "distance": 7601.076512430536}, {"id": "HH8DIHSfBTo2HFX0fFLoew", "alias": "saint-theos-new-york", "name": "Saint Theo's", "image_url": "https://s3-media1.fl.yelpcdn.com/bphoto/WTCqWskpTsuCRRdcTwdyhQ/o.jpg", "is_closed": false, "url": "https://www.yelp.com/biz/saint-theos-new-york?adjust_creative=9gNmiWYX8uTbFBeTTvJMdA&utm_campaign=yelp_api_v3&utm_medium=api_v3_business_search&utm_source=9gNmiWYX8uTbFBeTTvJMdA", "review_count": 94, "categories": [{"alias": "italian", "title": "Italian"}], "rating": 3.5, "coordinates": {"latitude": 40.73378, "longitude": -74.00468}, "transactions": ["delivery"], "location": {"address1": "340 Bleecker St", "address2": "", "address3": null, "city": "New York", "zip_code": "10014", "country": "US", "state": "NY", "display_address": ["340 Bleecker St", "New York, NY 10014"]}, "phone": "", "display_phone": "", "distance": 4093.5039968570404}, {"id": "81ATGBKh1Ke6EX_L3qHaIQ", "alias": "ferdinandos-focacceria-brooklyn-4", "name": "Ferdinando's Focacceria", "image_url": "https://s3-media1.fl.yelpcdn.com/bphoto/g3Lqd_6414Zh_9weDohaVw/o.jpg", "is_closed": false, "url": "https://www.yelp.com/biz/ferdinandos-focacceria-brooklyn-4?adjust_creative=9gNmiWYX8uTbFBeTTvJMdA&utm_campaign=yelp_api_v3&utm_medium=api_v3_business_search&utm_source=9gNmiWYX8uTbFBeTTvJMdA", "review_count": 213, "categories": [{"alias": "italian", "title": "Italian"}], "rating": 4.0, "coordinates": {"latitude": 40.68418116575449, "longitude": -74.0018677711487}, "transactions": ["delivery"], "price": "$$", "location": {"address1": "151 Union St", "address2": "", "address3": "", "city": "Brooklyn", "zip_code": "11231", "country": "US", "state": "NY", "display_address": ["151 Union St", "Brooklyn, NY 11231"]}, "phone": "+17188551545", "display_phone": "(718) 855-1545", "distance": 8771.754645030322}], "total": 4600, "region": {"center": {"longitude": -73.96957397460938, "latitude": 40.75917470627005}}}