{"businesses": [{"id": "4j_n7nPaZrp6_lEInZaA8Q", "alias": "aita-brooklyn", "name": "Aita", "image_url": "https://s3-media4.fl.yelpcdn.com/bphoto/6xQWah4xmn836n4rvJ5GEQ/o.jpg", "is_closed": false, "url": "https://www.yelp.com/biz/aita-brooklyn?adjust_creative=9gNmiWYX8uTbFBeTTvJMdA&utm_campaign=yelp_api_v3&utm_medium=api_v3_business_search&utm_source=9gNmiWYX8uTbFBeTTvJMdA", "review_count": 318, "categories": [{"alias": "italian", "title": "Italian"}], "rating": 4.0, "coordinates": {"latitude": 40.686412, "longitude": -73.966629}, "transactions": ["pickup", "delivery"], "price": "$$$", "location": {"address1": "132 Greene Ave", "address2": "", "address3": "", "city": "Brooklyn", "zip_code": "11238", "country": "US", "state": "NY", "display_address": ["132 Greene Ave", "Brooklyn, NY 11238"]}, "phone": "+17185763584", "display_phone": "(718) 576-3584", "distance": 8088.514589804963}, {"id": "1OZPOWZwJr-hpvMt6TD4ug", "alias": "milkflower-astoria", "name": "Milkflower", "image_url": "https://s3-media2.fl.yelpcdn.com/bphoto/jBhD5Fghxeo-Cxm42QMw0Q/o.jpg", "is_closed": false, "url": "https://www.yelp.com/biz/milkflower-astoria?adjust_creative=9gNmiWYX8uTbFBeTTvJMdA&utm_campaign=yelp_api_v3&utm_medium=api_v3_business_search&utm_source=9gNmiWYX8uTbFBeTTvJMdA", "review_count": 748, "categories": [{"alias": "pizza", "title": "Pizza"}], "rating": 4.5, "coordinates": {"latitude": 40.7628961, "longitude": -73.9207081}, "transactions": ["delivery", "pickup"], "price": "$$", "location": {"address1": "3412 31st Ave", "address2": "", "address3": "", "city": "Astoria", "zip_code": "11106", "country": "US", "state": "NY", "display_address": ["3412 31st Ave", "Astoria, NY 11106"]}, "phone": "+17182041300", "display_phone": "(718) 204-1300", "distance": 4136.39558761701}, {"id": "wOYqxqz5yhx3CrP2RsCXpw", "alias": "anthony-davids-hoboken", "name": "Anthony David's", "image_url": "https://s3-media2.fl.yelpcdn.com/bphoto/w0d0R9d26YsS9Ba2-Gz2qA/o.jpg", "is_closed": false, "url": "https://www.yelp.com/biz/anthony-davids-hoboken?adjust_creative=9gNmiWYX8uTbFBeTTvJMdA&utm_campaign=yelp_api_v3&utm_medium=api_v3_business_search&utm_source=9gNmiWYX8uTbFBeTTvJMdA", "review_count": 850, "categories": [{"alias": "breakfast_brunch", "title": "Breakfast & Brunch"}, {"alias": "newamerican", "title": "American (New)"}, {"alias": "italian", "title": "Italian"}], "rating": 4.0, "coordinates": {"latitude": 40.74859, "longitude": -74.02822}, "transactions": ["pickup", "delivery"], "price": "$$", "location": {"address1": "953 Bloomfield St", "address2": "", "address3": "", "city": "Hoboken", "zip_code": "07030", "country": "US", "state": "NJ", "display_address": ["953 Bloomfield St", "Hoboken, NJ 07030"]}, "phone": "+12012228399", "display_phone": "(201) 222-8399", "distance": 5074.410957147519}, {"id": "gvul1x9MMawVzStJpfGoLA", "alias": "san-pietro-new-york", "name": "San Pietro", "image_url": "https://s3-media3.fl.yelpcdn.com/bphoto/QfilWEznb1T1WXnYCjs4Nw/o.jpg", "is_closed": false, "url": "https://www.yelp.com/biz/san-pietro-new-york?adjust_creative=9gNmiWYX8uTbFBeTTvJMdA&utm_campaign=yelp_api_v3&utm_medium=api_v3_business_search&utm_source=9gNmiWYX8uTbFBeTTvJMdA", "review_count": 90, "categories": [{"alias": "italian", "title": "Italian"}, {"alias": "wine_bars", "title": "Wine Bars"}], "rating": 3.5, "coordinates": {"latitude": 40.760481, "longitude": -73.974455}, "transactions": ["pickup", "delivery"], "price": "$$$$", "location": {"address1": "18 E 54th St", "address2": "", "address3": "", "city": "New York", "zip_code": "10022", "country": "US", "state": "NY", "display_address": ["18 E 54th St", "New York, NY 10022"]}, "phone": "+12127539015", "display_phone": "(212) 753-9015", "distance": 435.10651031443064}, {"id": "8jxLF66U2ZOoPYHs26JK6A", "alias": "valdari-nyc-new-york", "name": "Valdari NYC", "image_url": "https://s3-media2.fl.yelpcdn.com/bphoto/cq6PbtTCJ3flug2nl49P1g/o.jpg", "is_closed": false, "url": "https://www.yelp.com/biz/valdari-nyc-new-york?adjust_creative=9gNmiWYX8uTbFBeTTvJMdA&utm_campaign=yelp_api_v3&utm_medium=api_v3_business_search&utm_source=9gNmiWYX8uTbFBeTTvJMdA", "review_count": 40, "categories": [{"alias": "italian", "title": "Italian"}, {"alias": "pizza", "title": "Pizza"}, {"alias": "cocktailbars", "title": "Cocktail Bars"}], "rating": 4.5, "coordinates": {"latitude": 40.7636094, "longitude": -73.7700076}, "transactions": ["pickup", "delivery"], "location": {"address1": "214-26 41st Ave", "address2": null, "address3": "", "city": "New York", "zip_code": "11361", "country": "US", "state": "NY", "display_address": ["214-26 41st Ave", "New York, NY 11361"]}, "phone": "+17182240397", "display_phone": "(718) 224-0397", "distance": 16823.4365222117}, {"id": "jMdziYLNYGDCegkFQ4lTQA", "alias": "serafina-italian-restaurant-tribeca-new-york", "name": "Serafina Italian Restaurant-Tribeca", "image_url": "https://s3-media2.fl.yelpcdn.com/bphoto/z6Ww_2BB4q9Su0u29VP3Tw/o.jpg", "is_closed": false, "url": "https://www.yelp.com/biz/serafina-italian-restaurant-tribeca-new-york?adjust_creative=9gNmiWYX8uTbFBeTTvJMdA&utm_campaign=yelp_api_v3&utm_medium=api_v3_business_search&utm_source=9gNmiWYX8uTbFBeTTvJMdA", "review_count": 214, "categories": [{"alias": "pizza", "title": "Pizza"}, {"alias": "italian", "title": "Italian"}], "rating": 3.5, "coordinates": {"latitude": 40.71566, "longitude": -74.0089}, "transactions": ["pickup", "delivery"], "price": "$$$", "location": {"address1": "95 W Broadway", "address2": "", "address3": null, "city": "New York", "zip_code": "10007", "country": "US", "state": "NY", "display_address": ["95 W Broadway", "New York, NY 10007"]}, "phone": "+12127662700", "display_phone": "(212) 766-2700", "distance": 5872.105142276035}, {"id": "HPvz-PHt2PYWV_X9eQSlnA", "alias": "il-cortile-restaurant-new-york", "name": "Il Cortile Restaurant", "image_url": "https://s3-media2.fl.yelpcdn.com/bphoto/Q66jL35rLYh2mvWXnp7rYw/o.jpg", "is_closed": false, "url": "https://www.yelp.com/biz/il-cortile-restaurant-new-york?adjust_creative=9gNmiWYX8uTbFBeTTvJMdA&utm_campaign=yelp_api_v3&utm_medium=api_v3_business_search&utm_source=9gNmiWYX8uTbFBeTTvJMdA", "review_count": 707, "categories": [{"alias": "italian", "title": "Italian"}], "rating": 3.5, "coordinates": {"latitude": 40.718005, "longitude": -73.998268}, "transactions": ["restaurant_reservation", "delivery", "pickup"], "price": "$$$", "location": {"address1": "125 Mulberry St", "address2": null, "address3": "", "city": "New York", "zip_code": "10013", "country": "US", "state": "NY", "display_address": ["125 Mulberry St", "New York, NY 10013"]}, "phone": "+12122266060", "display_phone": "(212) 226-6060", "distance": 5176.986409946673}, {"id": "FelC65I3j7s7mM2rnePN3Q", "alias": "savelli-new-york", "name": "Savelli", "image_url": "https://s3-media1.fl.yelpcdn.com/bphoto/00r7sdCowvoUa5-mH0FaGQ/o.jpg", "is_closed": false, "url": "https://www.yelp.com/biz/savelli-new-york?adjust_creative=9gNmiWYX8uTbFBeTTvJMdA&utm_campaign=yelp_api_v3&utm_medium=api_v3_business_search&utm_source=9gNmiWYX8uTbFBeTTvJMdA", "review_count": 64, "categories": [{"alias": "bars", "title": "Bars"}, {"alias": "italian", "title": "Italian"}, {"alias": "venues", "title": "Venues & Event Spaces"}], "rating": 4.5, "coordinates": {"latitude": 40.685074, "longitude": -73.991272}, "transactions": ["pickup", "delivery"], "location": {"address1": "195 Smith St", "address2": "", "address3": null, "city": "New York", "zip_code": "11201", "country": "US", "state": "NY", "display_address": ["195 Smith St", "New York, NY 11201"]}, "phone": "+13478897617", "display_phone": "(347) 889-7617", "distance": 8438.833850057832}, {"id": "c6FqHGf6DL300hIYYA9XCg", "alias": "campagna-ristorante-new-york", "name": "Campagna Ristorante", "image_url": "", "is_closed": false, "url": "https://www.yelp.com/biz/campagna-ristorante-new-york?adjust_creative=9gNmiWYX8uTbFBeTTvJMdA&utm_campaign=yelp_api_v3&utm_medium=api_v3_business_search&utm_source=9gNmiWYX8uTbFBeTTvJMdA", "review_count": 1, "categories": [{"alias": "italian", "title": "Italian"}], "rating": 5.0, "coordinates": {"latitude": 40.77552, "longitude": -73.95587}, "transactions": [], "location": {"address1": "205 E 81st St", "address2": "", "address3": null, "city": "New York", "zip_code": "10028", "country": "US", "state": "NY", "display_address": ["205 E 81st St", "New York, NY 10028"]}, "phone": "+12125701073", "display_phone": "(212) 570-1073", "distance": 2155.592484416905}, {"id": "t3WXZ8U6espLzY5YQ1Ocsg", "alias": "cello-wine-and-cocktail-bistro-new-york", "name": "Cello Wine & Cocktail Bistro", "image_url": "https://s3-media2.fl.yelpcdn.com/bphoto/b3ri24GZ6OmtcroOj5KEMg/o.jpg", "is_closed": false, "url": "https://www.yelp.com/biz/cello-wine-and-cocktail-bistro-new-york?adjust_creative=9gNmiWYX8uTbFBeTTvJMdA&utm_campaign=yelp_api_v3&utm_medium=api_v3_business_search&utm_source=9gNmiWYX8uTbFBeTTvJMdA", "review_count": 209, "categories": [{"alias": "wine_bars", "title": "Wine Bars"}, {"alias": "tapasmallplates", "title": "Tapas/Small Plates"}, {"alias": "mediterranean", "title": "Mediterranean"}], "rating": 4.0, "coordinates": {"latitude": 40.7570686, "longitude": -73.9684187}, "transactions": ["pickup", "delivery"], "price": "$$", "location": {"address1": "226 E 53rd St", "address2": "", "address3": "", "city": "New York", "zip_code": "10022", "country": "US", "state": "NY", "display_address": ["226 E 53rd St", "New York, NY 10022"]}, "phone": "+16469651786", "display_phone": "(646) 965-1786", "distance": 253.59885152876979}, {"id": "zTK8reqKrmV7U71YVHYYjg", "alias": "armani-ristorante-new-york", "name": "Armani Ristorante", "image_url": "https://s3-media4.fl.yelpcdn.com/bphoto/3NI3C9jX2Ul285V2LPzo1g/o.jpg", "is_closed": false, "url": "https://www.yelp.com/biz/armani-ristorante-new-york?adjust_creative=9gNmiWYX8uTbFBeTTvJMdA&utm_campaign=yelp_api_v3&utm_medium=api_v3_business_search&utm_source=9gNmiWYX8uTbFBeTTvJMdA", "review_count": 286, "categories": [{"alias": "italian", "title": "Italian"}], "rating": 4.0, "coordinates": {"latitude": 40.7618463161798, "longitude": -73.9742299834671}, "transactions": ["pickup", "delivery"], "price": "$$$", "location": {"address1": "717 5th Ave", "address2": "", "address3": "Giorgio Armani", "city": "New York", "zip_code": "10022", "country": "US", "state": "NY", "display_address": ["717 5th Ave", "Giorgio Armani", "New York, NY 10022"]}, "phone": "+12122071902", "display_phone": "(212) 207-1902", "distance": 491.96522785247026}, {"id": "DKLbMLQHvggfIKw2jj6rnA", "alias": "felice-83-new-york", "name": "Felice 83", "image_url": "https://s3-media4.fl.yelpcdn.com/bphoto/f9qgrks1V4jX5SAzqSOQ8w/o.jpg", "is_closed": false, "url": "https://www.yelp.com/biz/felice-83-new-york?adjust_creative=9gNmiWYX8uTbFBeTTvJMdA&utm_campaign=yelp_api_v3&utm_medium=api_v3_business_search&utm_source=9gNmiWYX8uTbFBeTTvJMdA", "review_count": 315, "categories": [{"alias": "wine_bars", "title": "Wine Bars"}, {"alias": "tuscan", "title": "Tuscan"}], "rating": 3.5, "coordinates": {"latitude": 40.775049, "longitude": -73.951078}, "transactions": ["pickup", "delivery"], "price": "$$$", "location": {"address1": "1593 1st Ave", "address2": "", "address3": "", "city": "New York", "zip_code": "10028", "country": "US", "state": "NY", "display_address": ["1593 1st Ave", "New York, NY 10028"]}, "phone": "+12122494080", "display_phone": "(212) 249-4080", "distance": 2354.14278625451}, {"id": "giJ4S1Px5K9xi4maxWajsw", "alias": "mcquaid-s-public-house-new-york", "name": "McQuaid\u2019s Public House", "image_url": "https://s3-media3.fl.yelpcdn.com/bphoto/rsxxLr0HRT78JEePVyWg-g/o.jpg", "is_closed": false, "url": "https://www.yelp.com/biz/mcquaid-s-public-house-new-york?adjust_creative=9gNmiWYX8uTbFBeTTvJMdA&utm_campaign=yelp_api_v3&utm_medium=api_v3_business_search&utm_source=9gNmiWYX8uTbFBeTTvJMdA", "review_count": 56, "categories": [{"alias": "pubs", "title": "Pubs"}], "rating": 4.5, "coordinates": {"latitude": 40.76235, "longitude": -73.9976}, "transactions": ["delivery"], "price": "$$", "location": {"address1": "589 11th Ave", "address2": "", "address3": "", "city": "New York", "zip_code": "10036", "country": "US", "state": "NY", "display_address": ["589 11th Ave", "New York, NY 10036"]}, "phone": "+16467918203", "display_phone": "(646) 791-8203", "distance": 2389.0709529843502}, {"id": "1o5dCnbY1Y9de7ZbdsxUsQ", "alias": "barbetta-new-york", "name": "Barbetta", "image_url": "https://s3-media1.fl.yelpcdn.com/bphoto/OqSS-ddQ_mtGza6NrkDoqA/o.jpg", "is_closed": false, "url": "https://www.yelp.com/biz/barbetta-new-york?adjust_creative=9gNmiWYX8uTbFBeTTvJMdA&utm_campaign=yelp_api_v3&utm_medium=api_v3_business_search&utm_source=9gNmiWYX8uTbFBeTTvJMdA", "review_count": 294, "categories": [{"alias": "italian", "title": "Italian"}, {"alias": "newamerican", "title": "American (New)"}], "rating": 3.5, "coordinates": {"latitude": 40.76031, "longitude": -73.98889}, "transactions": ["delivery"], "price": "$$$", "location": {"address1": "321 W 46th St", "address2": "", "address3": "", "city": "New York", "zip_code": "10036", "country": "US", "state": "NY", "display_address": ["321 W 46th St", "New York, NY 10036"]}, "phone": "+12122469171", "display_phone": "(212) 246-9171", "distance": 1639.9211877420255}, {"id": "aSflr1OB8i4cvd0jzMJfig", "alias": "brooklyn-roots-italian-brooklyn", "name": "Brooklyn Roots Italian", "image_url": "https://s3-media1.fl.yelpcdn.com/bphoto/BGLwFyNG3Oc-bUPo_Lwdzg/o.jpg", "is_closed": false, "url": "https://www.yelp.com/biz/brooklyn-roots-italian-brooklyn?adjust_creative=9gNmiWYX8uTbFBeTTvJMdA&utm_campaign=yelp_api_v3&utm_medium=api_v3_business_search&utm_source=9gNmiWYX8uTbFBeTTvJMdA", "review_count": 61, "categories": [{"alias": "italian", "title": "Italian"}], "rating": 4.5, "coordinates": {"latitude": 40.622950474895696, "longitude": -74.03151550202998}, "transactions": [], "price": "$$$", "location": {"address1": "8620 3rd Ave", "address2": "", "address3": null, "city": "Brooklyn", "zip_code": "11209", "country": "US", "state": "NY", "display_address": ["8620 3rd Ave", "Brooklyn, NY 11209"]}, "phone": "+17183335122", "display_phone": "(718) 333-5122", "distance": 16022.423027483213}, {"id": "UgFYHin4rCb6XiGAEQ9EhQ", "alias": "song-e-napule-rutherford", "name": "Song E Napule", "image_url": "https://s3-media4.fl.yelpcdn.com/bphoto/Tyie46QdfBIy6TJMWZCUUw/o.jpg", "is_closed": false, "url": "https://www.yelp.com/biz/song-e-napule-rutherford?adjust_creative=9gNmiWYX8uTbFBeTTvJMdA&utm_campaign=yelp_api_v3&utm_medium=api_v3_business_search&utm_source=9gNmiWYX8uTbFBeTTvJMdA", "review_count": 91, "categories": [{"alias": "pizza", "title": "Pizza"}, {"alias": "italian", "title": "Italian"}], "rating": 4.0, "coordinates": {"latitude": 40.82718, "longitude": -74.10546}, "transactions": ["pickup", "delivery"], "price": "$$", "location": {"address1": "106 Park Ave", "address2": "", "address3": null, "city": "Rutherford", "zip_code": "07070", "country": "US", "state": "NJ", "display_address": ["106 Park Ave", "Rutherford, NJ 07070"]}, "phone": "+12013479339", "display_phone": "(201) 347-9339", "distance": 13690.368879861007}, {"id": "1hZo1zfvLVN687_D7latyg", "alias": "daniela-trattoria-new-york", "name": "Daniela Trattoria", "image_url": "https://s3-media2.fl.yelpcdn.com/bphoto/Tt1_1GdQGTkibYj4jMonhw/o.jpg", "is_closed": false, "url": "https://www.yelp.com/biz/daniela-trattoria-new-york?adjust_creative=9gNmiWYX8uTbFBeTTvJMdA&utm_campaign=yelp_api_v3&utm_medium=api_v3_business_search&utm_source=9gNmiWYX8uTbFBeTTvJMdA", "review_count": 562, "categories": [{"alias": "italian", "title": "Italian"}, {"alias": "breakfast_brunch", "title": "Breakfast & Brunch"}], "rating": 3.5, "coordinates": {"latitude": 40.75927, "longitude": -73.98809}, "transactions": ["restaurant_reservation", "pickup", "delivery"], "price": "$$", "location": {"address1": "728 8th Ave", "address2": "", "address3": "", "city": "New York", "zip_code": "10036", "country": "US", "state": "NY", "display_address": ["728 8th Ave", "New York, NY 10036"]}, "phone": "+12128693585", "display_phone": "(212) 869-3585", "distance": 1558.4068530432125}, {"id": "MlboKouxmGPxV2swgCh2AQ", "alias": "nicolas-restaurant-new-york", "name": "Nicola's Restaurant", "image_url": "https://s3-media2.fl.yelpcdn.com/bphoto/RTCVekqjWloXWlL6rYG0mA/o.jpg", "is_closed": false, "url": "https://www.yelp.com/biz/nicolas-restaurant-new-york?adjust_creative=9gNmiWYX8uTbFBeTTvJMdA&utm_campaign=yelp_api_v3&utm_medium=api_v3_business_search&utm_source=9gNmiWYX8uTbFBeTTvJMdA", "review_count": 99, "categories": [{"alias": "italian", "title": "Italian"}], "rating": 3.0, "coordinates": {"latitude": 40.77781, "longitude": -73.95625}, "transactions": ["delivery"], "price": "$$$", "location": {"address1": "146 E 84th St", "address2": "", "address3": "", "city": "New York", "zip_code": "10028", "country": "US", "state": "NY", "display_address": ["146 E 84th St", "New York, NY 10028"]}, "phone": "+12122499850", "display_phone": "(212) 249-9850", "distance": 2353.749429436408}, {"id": "mvAjuaS1Jp6dsN4a-i_Fyw", "alias": "pocket-bar-nyc-new-york", "name": "Pocket Bar NYC", "image_url": "https://s3-media1.fl.yelpcdn.com/bphoto/qElvrMC2IgMBuAszyQb_kg/o.jpg", "is_closed": false, "url": "https://www.yelp.com/biz/pocket-bar-nyc-new-york?adjust_creative=9gNmiWYX8uTbFBeTTvJMdA&utm_campaign=yelp_api_v3&utm_medium=api_v3_business_search&utm_source=9gNmiWYX8uTbFBeTTvJMdA", "review_count": 310, "categories": [{"alias": "wine_bars", "title": "Wine Bars"}], "rating": 4.5, "coordinates": {"latitude": 40.7633645, "longitude": -73.9922985}, "transactions": ["delivery"], "price": "$$", "location": {"address1": "455 W 48th St", "address2": "", "address3": "", "city": "New York", "zip_code": "10019", "country": "US", "state": "NY", "display_address": ["455 W 48th St", "New York, NY 10019"]}, "phone": "+16466829062", "display_phone": "(646) 682-9062", "distance": 1969.8140623208437}, {"id": "4N-M8lplRLSTGveJO6OB2A", "alias": "gina-la-fornarina-lexington-ave-new-york", "name": "Gina la Fornarina - Lexington Ave", "image_url": "https://s3-media3.fl.yelpcdn.com/bphoto/IMwP2zlbuPqfyd12olGiWg/o.jpg", "is_closed": false, "url": "https://www.yelp.com/biz/gina-la-fornarina-lexington-ave-new-york?adjust_creative=9gNmiWYX8uTbFBeTTvJMdA&utm_campaign=yelp_api_v3&utm_medium=api_v3_business_search&utm_source=9gNmiWYX8uTbFBeTTvJMdA", "review_count": 45, "categories": [{"alias": "italian", "title": "Italian"}], "rating": 3.0, "coordinates": {"latitude": 40.7709824410244, "longitude": -73.9618975232646}, "transactions": ["pickup", "delivery"], "price": "$$", "location": {"address1": "1016 Lexington Ave", "address2": "", "address3": "", "city": "New York", "zip_code": "10021", "country": "US", "state": "NY", "display_address": ["1016 Lexington Ave", "New York, NY 10021"]}, "phone": "+12127342200", "display_phone": "(212) 734-2200", "distance": 1463.4953932108688}, {"id": "DLRbxg74oWNPQJdbSkTDxQ", "alias": "suprema-provisions-new-york", "name": "Suprema Provisions", "image_url": "https://s3-media3.fl.yelpcdn.com/bphoto/qFEmM5IDcl0qMzLhAMohKQ/o.jpg", "is_closed": false, "url": "https://www.yelp.com/biz/suprema-provisions-new-york?adjust_creative=9gNmiWYX8uTbFBeTTvJMdA&utm_campaign=yelp_api_v3&utm_medium=api_v3_business_search&utm_source=9gNmiWYX8uTbFBeTTvJMdA", "review_count": 354, "categories": [{"alias": "italian", "title": "Italian"}, {"alias": "breakfast_brunch", "title": "Breakfast & Brunch"}, {"alias": "tapas", "title": "Tapas Bars"}], "rating": 4.0, "coordinates": {"latitude": 40.7326925, "longitude": -74.0036155}, "transactions": ["delivery"], "price": "$$", "location": {"address1": "305 Bleecker St", "address2": null, "address3": "", "city": "New York", "zip_code": "10014", "country": "US", "state": "NY", "display_address": ["305 Bleecker St", "New York, NY 10014"]}, "phone": "+16469644994", "display_phone": "(646) 964-4994", "distance": 4110.365081749878}, {"id": "2-GsvFaQpVpbaIdwb9lSeQ", "alias": "andiamo-pizza-new-york-2", "name": "Andiamo Pizza", "image_url": "https://s3-media2.fl.yelpcdn.com/bphoto/0SPjEd6UA3mn5ZJqLMt7LA/o.jpg", "is_closed": false, "url": "https://www.yelp.com/biz/andiamo-pizza-new-york-2?adjust_creative=9gNmiWYX8uTbFBeTTvJMdA&utm_campaign=yelp_api_v3&utm_medium=api_v3_business_search&utm_source=9gNmiWYX8uTbFBeTTvJMdA", "review_count": 59, "categories": [{"alias": "pizza", "title": "Pizza"}, {"alias": "italian", "title": "Italian"}, {"alias": "salad", "title": "Salad"}], "rating": 4.5, "coordinates": {"latitude": 40.74613, "longitude": -73.99015}, "transactions": ["pickup", "delivery"], "location": {"address1": "818 6th Ave", "address2": null, "address3": "", "city": "New York", "zip_code": "10001", "country": "US", "state": "NY", "display_address": ["818 6th Ave", "New York, NY 10001"]}, "phone": "+12122542860", "display_phone": "(212) 254-2860", "distance": 2263.1122742182406}, {"id": "76y4aMBY0lT6zfJLy2EH-Q", "alias": "le-zie-new-york", "name": "Le Zie", "image_url": "https://s3-media1.fl.yelpcdn.com/bphoto/RSuclGjQuYXKbO8YDik7fA/o.jpg", "is_closed": false, "url": "https://www.yelp.com/biz/le-zie-new-york?adjust_creative=9gNmiWYX8uTbFBeTTvJMdA&utm_campaign=yelp_api_v3&utm_medium=api_v3_business_search&utm_source=9gNmiWYX8uTbFBeTTvJMdA", "review_count": 344, "categories": [{"alias": "lounges", "title": "Lounges"}, {"alias": "diners", "title": "Diners"}, {"alias": "breakfast_brunch", "title": "Breakfast & Brunch"}], "rating": 3.5, "coordinates": {"latitude": 40.74246, "longitude": -73.9970699}, "transactions": ["pickup", "delivery"], "price": "$$", "location": {"address1": "172 7th Ave", "address2": "", "address3": "", "city": "New York", "zip_code": "10011", "country": "US", "state": "NY", "display_address": ["172 7th Ave", "New York, NY 10011"]}, "phone": "+12122068686", "display_phone": "(212) 206-8686", "distance": 2965.5879622218285}, {"id": "6KcS6hc2j4kJi2XTGxC1eg", "alias": "bodrum-mediterranean-restaurant-new-york", "name": "Bodrum", "image_url": "https://s3-media3.fl.yelpcdn.com/bphoto/_fGr8EYBYVqDVQMKokNU6Q/o.jpg", "is_closed": false, "url": "https://www.yelp.com/biz/bodrum-mediterranean-restaurant-new-york?adjust_creative=9gNmiWYX8uTbFBeTTvJMdA&utm_campaign=yelp_api_v3&utm_medium=api_v3_business_search&utm_source=9gNmiWYX8uTbFBeTTvJMdA", "review_count": 473, "categories": [{"alias": "mediterranean", "title": "Mediterranean"}, {"alias": "pizza", "title": "Pizza"}, {"alias": "breakfast_brunch", "title": "Breakfast & Brunch"}], "rating": 4.0, "coordinates": {"latitude": 40.78935, "longitude": -73.97411}, "transactions": ["pickup", "delivery"], "price": "$$", "location": {"address1": "584 Amsterdam Ave", "address2": "", "address3": "", "city": "New York", "zip_code": "10024", "country": "US", "state": "NY", "display_address": ["584 Amsterdam Ave", "New York, NY 10024"]}, "phone": "+12127992806", "display_phone": "(212) 799-2806", "distance": 3375.204431917669}, {"id": "WaMNST6iZDXhiE2ks5FIgA", "alias": "little-italy-pizza-new-york-7", "name": "Little Italy Pizza", "image_url": "https://s3-media2.fl.yelpcdn.com/bphoto/fuEHLtWHFA0hTkIiNQvtEA/o.jpg", "is_closed": false, "url": "https://www.yelp.com/biz/little-italy-pizza-new-york-7?adjust_creative=9gNmiWYX8uTbFBeTTvJMdA&utm_campaign=yelp_api_v3&utm_medium=api_v3_business_search&utm_source=9gNmiWYX8uTbFBeTTvJMdA", "review_count": 455, "categories": [{"alias": "pizza", "title": "Pizza"}, {"alias": "italian", "title": "Italian"}], "rating": 3.5, "coordinates": {"latitude": 40.74766471982, "longitude": -73.9849202334881}, "transactions": ["pickup", "delivery"], "price": "$", "location": {"address1": "2 E 33rd St", "address2": "", "address3": "", "city": "New York", "zip_code": "10016", "country": "US", "state": "NY", "display_address": ["2 E 33rd St", "New York, NY 10016"]}, "phone": "+12124815200", "display_phone": "(212) 481-5200", "distance": 1825.005241544262}, {"id": "Aegr9GrDHLQekjaEkWL21g", "alias": "caput-mundi-new-york-3", "name": "Caput Mundi", "image_url": "https://s3-media1.fl.yelpcdn.com/bphoto/NtDt-_mroM482dktWuZ3gg/o.jpg", "is_closed": false, "url": "https://www.yelp.com/biz/caput-mundi-new-york-3?adjust_creative=9gNmiWYX8uTbFBeTTvJMdA&utm_campaign=yelp_api_v3&utm_medium=api_v3_business_search&utm_source=9gNmiWYX8uTbFBeTTvJMdA", "review_count": 5, "categories": [{"alias": "italian", "title": "Italian"}], "rating": 4.0, "coordinates": {"latitude": 40.72216, "longitude": -74.00351}, "transactions": [], "location": {"address1": "59 Grand St", "address2": null, "address3": "", "city": "New York", "zip_code": "10013", "country": "US", "state": "NY", "display_address": ["59 Grand St", "New York, NY 10013"]}, "phone": "", "display_phone": "", "distance": 5011.43699389517}, {"id": "DZaN3bNWfwcm__sNw5bvDg", "alias": "daniel-new-york-4", "name": "Daniel", "image_url": "https://s3-media2.fl.yelpcdn.com/bphoto/fI-uXKW8Q-mkcSzuHyTd2A/o.jpg", "is_closed": false, "url": "https://www.yelp.com/biz/daniel-new-york-4?adjust_creative=9gNmiWYX8uTbFBeTTvJMdA&utm_campaign=yelp_api_v3&utm_medium=api_v3_business_search&utm_source=9gNmiWYX8uTbFBeTTvJMdA", "review_count": 1842, "categories": [{"alias": "french", "title": "French"}, {"alias": "bars", "title": "Bars"}, {"alias": "newamerican", "title": "American (New)"}], "rating": 4.5, "coordinates": {"latitude": 40.7667736797858, "longitude": -73.967607}, "transactions": [], "price": "$$$$", "location": {"address1": "60 E 65th St", "address2": "", "address3": "", "city": "New York", "zip_code": "10065", "country": "US", "state": "NY", "display_address": ["60 E 65th St", "New York, NY 10065"]}, "phone": "+12122880033", "display_phone": "(212) 288-0033", "distance": 861.0525453043906}, {"id": "mWS4umRg2AyykyAClMrIRw", "alias": "the-penrose-new-york", "name": "The Penrose", "image_url": "https://s3-media4.fl.yelpcdn.com/bphoto/qNLV1pybDp4Elzp3Ci_gzQ/o.jpg", "is_closed": false, "url": "https://www.yelp.com/biz/the-penrose-new-york?adjust_creative=9gNmiWYX8uTbFBeTTvJMdA&utm_campaign=yelp_api_v3&utm_medium=api_v3_business_search&utm_source=9gNmiWYX8uTbFBeTTvJMdA", "review_count": 1421, "categories": [{"alias": "newamerican", "title": "American (New)"}, {"alias": "bars", "title": "Bars"}, {"alias": "breakfast_brunch", "title": "Breakfast & Brunch"}], "rating": 4.0, "coordinates": {"latitude": 40.775427, "longitude": -73.953115}, "transactions": ["pickup", "delivery"], "price": "$$", "location": {"address1": "1590 2nd Ave", "address2": "", "address3": "", "city": "New York", "zip_code": "10028", "country": "US", "state": "NY", "display_address": ["1590 2nd Ave", "New York, NY 10028"]}, "phone": "+12122032751", "display_phone": "(212) 203-2751", "distance": 2276.8878018201262}, {"id": "c4PIUs7uwg9lA4ObzJ4V5Q", "alias": "barosa-rego-park", "name": "Barosa", "image_url": "https://s3-media2.fl.yelpcdn.com/bphoto/A6sRMh4z-E5fouDZUkKbVg/o.jpg", "is_closed": false, "url": "https://www.yelp.com/biz/barosa-rego-park?adjust_creative=9gNmiWYX8uTbFBeTTvJMdA&utm_campaign=yelp_api_v3&utm_medium=api_v3_business_search&utm_source=9gNmiWYX8uTbFBeTTvJMdA", "review_count": 414, "categories": [{"alias": "italian", "title": "Italian"}, {"alias": "seafood", "title": "Seafood"}, {"alias": "pizza", "title": "Pizza"}], "rating": 3.5, "coordinates": {"latitude": 40.726197, "longitude": -73.869795}, "transactions": ["pickup", "delivery"], "price": "$$", "location": {"address1": "62-29 Woodhaven Blvd", "address2": "", "address3": "", "city": "Rego Park", "zip_code": "11374", "country": "US", "state": "NY", "display_address": ["62-29 Woodhaven Blvd", "Rego Park, NY 11374"]}, "phone": "+17184241455", "display_phone": "(718) 424-1455", "distance": 9171.03737721619}, {"id": "zv29TbzPs9-rD5ql0qWw5A", "alias": "the-shadmoor-new-york", "name": "The Shadmoor", "image_url": "https://s3-media3.fl.yelpcdn.com/bphoto/e70IUTFr5bK6JffORQXgPA/o.jpg", "is_closed": false, "url": "https://www.yelp.com/biz/the-shadmoor-new-york?adjust_creative=9gNmiWYX8uTbFBeTTvJMdA&utm_campaign=yelp_api_v3&utm_medium=api_v3_business_search&utm_source=9gNmiWYX8uTbFBeTTvJMdA", "review_count": 428, "categories": [{"alias": "seafood", "title": "Seafood"}, {"alias": "cocktailbars", "title": "Cocktail Bars"}, {"alias": "newamerican", "title": "American (New)"}], "rating": 4.0, "coordinates": {"latitude": 40.75866, "longitude": -73.9655499}, "transactions": ["pickup", "delivery"], "price": "$$$", "location": {"address1": "1066 2nd Ave", "address2": "", "address3": null, "city": "New York", "zip_code": "10022", "country": "US", "state": "NY", "display_address": ["1066 2nd Ave", "New York, NY 10022"]}, "phone": "+12123859195", "display_phone": "(212) 385-9195", "distance": 350.7548437038055}, {"id": "v0MZ0nONPh1b-9IC4M0weg", "alias": "the-vine-eventi-hotel-new-york", "name": "The Vine - Eventi Hotel", "image_url": "https://s3-media1.fl.yelpcdn.com/bphoto/MhtEhbaP02jbtP9aX7eAhw/o.jpg", "is_closed": false, "url": "https://www.yelp.com/biz/the-vine-eventi-hotel-new-york?adjust_creative=9gNmiWYX8uTbFBeTTvJMdA&utm_campaign=yelp_api_v3&utm_medium=api_v3_business_search&utm_source=9gNmiWYX8uTbFBeTTvJMdA", "review_count": 149, "categories": [{"alias": "newamerican", "title": "American (New)"}, {"alias": "lounges", "title": "Lounges"}, {"alias": "cafes", "title": "Cafes"}], "rating": 3.5, "coordinates": {"latitude": 40.7470966060545, "longitude": -73.9898588913998}, "transactions": ["pickup", "delivery"], "price": "$$", "location": {"address1": "851 Avenue Of The Americas", "address2": "", "address3": "", "city": "New York", "zip_code": "10001", "country": "US", "state": "NY", "display_address": ["851 Avenue Of The Americas", "New York, NY 10001"]}, "phone": "+12122014065", "display_phone": "(212) 201-4065", "distance": 2173.3032211917766}, {"id": "mmO9muETmuX4Noyitqw8xQ", "alias": "cert\u00e9-new-york-4", "name": "cert\u00e9", "image_url": "https://s3-media2.fl.yelpcdn.com/bphoto/xYcPTG4ioz2SItaCyagwVg/o.jpg", "is_closed": false, "url": "https://www.yelp.com/biz/cert%C3%A9-new-york-4?adjust_creative=9gNmiWYX8uTbFBeTTvJMdA&utm_campaign=yelp_api_v3&utm_medium=api_v3_business_search&utm_source=9gNmiWYX8uTbFBeTTvJMdA", "review_count": 186, "categories": [{"alias": "catering", "title": "Caterers"}, {"alias": "fooddeliveryservices", "title": "Food Delivery Services"}, {"alias": "pizza", "title": "Pizza"}], "rating": 4.0, "coordinates": {"latitude": 40.761965, "longitude": -73.97617}, "transactions": ["delivery"], "price": "$$", "location": {"address1": "20 W 55th St", "address2": "", "address3": "", "city": "New York", "zip_code": "10019", "country": "US", "state": "NY", "display_address": ["20 W 55th St", "New York, NY 10019"]}, "phone": "+12123972020", "display_phone": "(212) 397-2020", "distance": 636.3120945494002}, {"id": "kctef59qqlzJNqAc1ZGEvg", "alias": "the-capital-grille-new-york-6", "name": "The Capital Grille", "image_url": "https://s3-media2.fl.yelpcdn.com/bphoto/WhjAwizhJTi53FuuoszR9Q/o.jpg", "is_closed": false, "url": "https://www.yelp.com/biz/the-capital-grille-new-york-6?adjust_creative=9gNmiWYX8uTbFBeTTvJMdA&utm_campaign=yelp_api_v3&utm_medium=api_v3_business_search&utm_source=9gNmiWYX8uTbFBeTTvJMdA", "review_count": 895, "categories": [{"alias": "steak", "title": "Steakhouses"}, {"alias": "seafood", "title": "Seafood"}, {"alias": "wine_bars", "title": "Wine Bars"}], "rating": 4.0, "coordinates": {"latitude": 40.75125579843528, "longitude": -73.9748856}, "transactions": ["pickup", "delivery"], "price": "$$$", "location": {"address1": "155 E 42nd St", "address2": null, "address3": "", "city": "New York", "zip_code": "10017", "country": "US", "state": "NY", "display_address": ["155 E 42nd St", "New York, NY 10017"]}, "phone": "+12129532000", "display_phone": "(212) 953-2000", "distance": 987.6849461051326}, {"id": "4aF0F8w7yXX9o5_QFky_ig", "alias": "celestine-brooklyn", "name": "Celestine", "image_url": "https://s3-media3.fl.yelpcdn.com/bphoto/p98BTWB9IIb4RQyDQw13ZQ/o.jpg", "is_closed": false, "url": "https://www.yelp.com/biz/celestine-brooklyn?adjust_creative=9gNmiWYX8uTbFBeTTvJMdA&utm_campaign=yelp_api_v3&utm_medium=api_v3_business_search&utm_source=9gNmiWYX8uTbFBeTTvJMdA", "review_count": 273, "categories": [{"alias": "mediterranean", "title": "Mediterranean"}, {"alias": "bars", "title": "Bars"}], "rating": 4.0, "coordinates": {"latitude": 40.704676, "longitude": -73.987975}, "transactions": ["delivery"], "price": "$$$", "location": {"address1": "1 John St", "address2": "", "address3": null, "city": "Brooklyn", "zip_code": "11201", "country": "US", "state": "NY", "display_address": ["1 John St", "Brooklyn, NY 11201"]}, "phone": "+17185225356", "display_phone": "(718) 522-5356", "distance": 6255.177066565077}, {"id": "pGr5QuQU7Ur5GHLvXbT8bw", "alias": "paulie-gees-brooklyn", "name": "Paulie Gee's", "image_url": "https://s3-media4.fl.yelpcdn.com/bphoto/RCrEpYm1HSV3McDJIwq5Uw/o.jpg", "is_closed": false, "url": "https://www.yelp.com/biz/paulie-gees-brooklyn?adjust_creative=9gNmiWYX8uTbFBeTTvJMdA&utm_campaign=yelp_api_v3&utm_medium=api_v3_business_search&utm_source=9gNmiWYX8uTbFBeTTvJMdA", "review_count": 1335, "categories": [{"alias": "pizza", "title": "Pizza"}], "rating": 4.5, "coordinates": {"latitude": 40.729546, "longitude": -73.958568}, "transactions": ["delivery"], "price": "$$", "location": {"address1": "60 Greenpoint Ave", "address2": "", "address3": "", "city": "Brooklyn", "zip_code": "11222", "country": "US", "state": "NY", "display_address": ["60 Greenpoint Ave", "Brooklyn, NY 11222"]}, "phone": "+13479873747", "display_phone": "(347) 987-3747", "distance": 3428.34514310322}, {"id": "5Ucd5yN_VFlMkhG3QYV2Ng", "alias": "piu-bella-east-elmhurst-2", "name": "Piu Bella", "image_url": "https://s3-media2.fl.yelpcdn.com/bphoto/bWEsuQ4cXc2eU3Lazwkj8A/o.jpg", "is_closed": false, "url": "https://www.yelp.com/biz/piu-bella-east-elmhurst-2?adjust_creative=9gNmiWYX8uTbFBeTTvJMdA&utm_campaign=yelp_api_v3&utm_medium=api_v3_business_search&utm_source=9gNmiWYX8uTbFBeTTvJMdA", "review_count": 76, "categories": [{"alias": "italian", "title": "Italian"}], "rating": 4.5, "coordinates": {"latitude": 40.770577, "longitude": -73.890185}, "transactions": ["delivery", "pickup"], "price": "$$", "location": {"address1": "79-16 21st Ave", "address2": null, "address3": "", "city": "East Elmhurst", "zip_code": "11370", "country": "US", "state": "NY", "display_address": ["79-16 21st Ave", "East Elmhurst, NY 11370"]}, "phone": "+17187216500", "display_phone": "(718) 721-6500", "distance": 6804.336586939363}, {"id": "GOLFLlO4bpndDkavbgrx9w", "alias": "paisanos-restaurant-rutherford", "name": "Paisano's Restaurant", "image_url": "https://s3-media3.fl.yelpcdn.com/bphoto/1OILMblVea5VqRmfk42iVQ/o.jpg", "is_closed": false, "url": "https://www.yelp.com/biz/paisanos-restaurant-rutherford?adjust_creative=9gNmiWYX8uTbFBeTTvJMdA&utm_campaign=yelp_api_v3&utm_medium=api_v3_business_search&utm_source=9gNmiWYX8uTbFBeTTvJMdA", "review_count": 821, "categories": [{"alias": "italian", "title": "Italian"}], "rating": 4.0, "coordinates": {"latitude": 40.8268255, "longitude": -74.1061557}, "transactions": ["restaurant_reservation", "delivery"], "price": "$$", "location": {"address1": "132 Park Ave", "address2": null, "address3": "", "city": "Rutherford", "zip_code": "07070", "country": "US", "state": "NJ", "display_address": ["132 Park Ave", "Rutherford, NJ 07070"]}, "phone": "+12019355755", "display_phone": "(201) 935-5755", "distance": 13739.97069909731}, {"id": "7Oq1UdUHUGZGH_QI6N-0LQ", "alias": "hearth-new-york", "name": "Hearth", "image_url": "https://s3-media3.fl.yelpcdn.com/bphoto/uBetT67KpkaLaET-RlCHrA/o.jpg", "is_closed": false, "url": "https://www.yelp.com/biz/hearth-new-york?adjust_creative=9gNmiWYX8uTbFBeTTvJMdA&utm_campaign=yelp_api_v3&utm_medium=api_v3_business_search&utm_source=9gNmiWYX8uTbFBeTTvJMdA", "review_count": 787, "categories": [{"alias": "newamerican", "title": "American (New)"}, {"alias": "italian", "title": "Italian"}, {"alias": "breakfast_brunch", "title": "Breakfast & Brunch"}], "rating": 4.0, "coordinates": {"latitude": 40.730006, "longitude": -73.983225}, "transactions": ["pickup", "delivery"], "price": "$$$", "location": {"address1": "403 East 12th St", "address2": "", "address3": "", "city": "New York", "zip_code": "10009", "country": "US", "state": "NY", "display_address": ["403 East 12th St", "New York, NY 10009"]}, "phone": "+16466021300", "display_phone": "(646) 602-1300", "distance": 3441.2559472582197}, {"id": "XWNamjD2mSpk56B6z1HT9w", "alias": "laicos-jersey-city", "name": "Laico's", "image_url": "https://s3-media1.fl.yelpcdn.com/bphoto/S8CNT7zMtpLDENd1m_zxyw/o.jpg", "is_closed": false, "url": "https://www.yelp.com/biz/laicos-jersey-city?adjust_creative=9gNmiWYX8uTbFBeTTvJMdA&utm_campaign=yelp_api_v3&utm_medium=api_v3_business_search&utm_source=9gNmiWYX8uTbFBeTTvJMdA", "review_count": 259, "categories": [{"alias": "italian", "title": "Italian"}], "rating": 4.0, "coordinates": {"latitude": 40.703212, "longitude": -74.095046}, "transactions": ["delivery"], "price": "$$", "location": {"address1": "67 Terhune Ave", "address2": "", "address3": "", "city": "Jersey City", "zip_code": "07305", "country": "US", "state": "NJ", "display_address": ["67 Terhune Ave", "Jersey City, NJ 07305"]}, "phone": "+12014344115", "display_phone": "(201) 434-4115", "distance": 12268.121941110721}, {"id": "DF7PV0DE9z0LM4ae6XYeYg", "alias": "harrys-italian-new-york-2", "name": "Harry's Italian", "image_url": "https://s3-media2.fl.yelpcdn.com/bphoto/ACM3K-WIFxk91BehR7E_LA/o.jpg", "is_closed": false, "url": "https://www.yelp.com/biz/harrys-italian-new-york-2?adjust_creative=9gNmiWYX8uTbFBeTTvJMdA&utm_campaign=yelp_api_v3&utm_medium=api_v3_business_search&utm_source=9gNmiWYX8uTbFBeTTvJMdA", "review_count": 629, "categories": [{"alias": "pizza", "title": "Pizza"}, {"alias": "italian", "title": "Italian"}, {"alias": "breakfast_brunch", "title": "Breakfast & Brunch"}], "rating": 3.5, "coordinates": {"latitude": 40.707555318913, "longitude": -74.006898168681}, "transactions": ["pickup", "delivery"], "price": "$$", "location": {"address1": "2 Gold St", "address2": "", "address3": "", "city": "New York", "zip_code": "10038", "country": "US", "state": "NY", "display_address": ["2 Gold St", "New York, NY 10038"]}, "phone": "+12127470797", "display_phone": "(212) 747-0797", "distance": 6544.893451381948}, {"id": "qH90aP7-LCYFwVs5Oz-QbQ", "alias": "spritz-times-square-new-york", "name": "Spritz Times Square", "image_url": "https://s3-media3.fl.yelpcdn.com/bphoto/YWxrL6k13c7ikfK7_5ZXkw/o.jpg", "is_closed": false, "url": "https://www.yelp.com/biz/spritz-times-square-new-york?adjust_creative=9gNmiWYX8uTbFBeTTvJMdA&utm_campaign=yelp_api_v3&utm_medium=api_v3_business_search&utm_source=9gNmiWYX8uTbFBeTTvJMdA", "review_count": 21, "categories": [{"alias": "pizza", "title": "Pizza"}, {"alias": "italian", "title": "Italian"}, {"alias": "cocktailbars", "title": "Cocktail Bars"}], "rating": 4.5, "coordinates": {"latitude": 40.75993, "longitude": -73.98655}, "transactions": ["pickup", "delivery"], "location": {"address1": "250 W 47th St", "address2": null, "address3": "", "city": "New York", "zip_code": "10036", "country": "US", "state": "NY", "display_address": ["250 W 47th St", "New York, NY 10036"]}, "phone": "+16466698261", "display_phone": "(646) 669-8261", "distance": 1444.5268758993689}, {"id": "fvf07pvTuVv-0aF5ZlQBwA", "alias": "bv-tuscany-italian-restaurant-teaneck", "name": "BV Tuscany Italian Restaurant", "image_url": "https://s3-media3.fl.yelpcdn.com/bphoto/ARntTFMQEUUuk8lnu2IGmw/o.jpg", "is_closed": false, "url": "https://www.yelp.com/biz/bv-tuscany-italian-restaurant-teaneck?adjust_creative=9gNmiWYX8uTbFBeTTvJMdA&utm_campaign=yelp_api_v3&utm_medium=api_v3_business_search&utm_source=9gNmiWYX8uTbFBeTTvJMdA", "review_count": 222, "categories": [{"alias": "italian", "title": "Italian"}, {"alias": "wine_bars", "title": "Wine Bars"}], "rating": 4.5, "coordinates": {"latitude": 40.8883094480635, "longitude": -74.0195857227539}, "transactions": ["pickup", "delivery"], "price": "$$", "location": {"address1": "368 Cedar Ln", "address2": "", "address3": "", "city": "Teaneck", "zip_code": "07666", "country": "US", "state": "NJ", "display_address": ["368 Cedar Ln", "Teaneck, NJ 07666"]}, "phone": "+12012870404", "display_phone": "(201) 287-0404", "distance": 14963.049359384539}, {"id": "1To57srDy-cVko5QWGcogA", "alias": "sacco-pizza-new-york", "name": "Sacco Pizza", "image_url": "https://s3-media2.fl.yelpcdn.com/bphoto/jM1h1TJd-MS7jnui5y1EBw/o.jpg", "is_closed": false, "url": "https://www.yelp.com/biz/sacco-pizza-new-york?adjust_creative=9gNmiWYX8uTbFBeTTvJMdA&utm_campaign=yelp_api_v3&utm_medium=api_v3_business_search&utm_source=9gNmiWYX8uTbFBeTTvJMdA", "review_count": 449, "categories": [{"alias": "pizza", "title": "Pizza"}], "rating": 4.0, "coordinates": {"latitude": 40.7662658691406, "longitude": -73.9872665405273}, "transactions": ["pickup", "delivery"], "price": "$", "location": {"address1": "819 9th Ave", "address2": "", "address3": "", "city": "New York", "zip_code": "10019", "country": "US", "state": "NY", "display_address": ["819 9th Ave", "New York, NY 10019"]}, "phone": "+12125827765", "display_phone": "(212) 582-7765", "distance": 1684.9078132132602}, {"id": "6gzQLjzJk25ePm_JS7ZAug", "alias": "esme-brooklyn-2", "name": "Esme", "image_url": "https://s3-media4.fl.yelpcdn.com/bphoto/n_eAnKW_pO7q7OnvfSRNdg/o.jpg", "is_closed": false, "url": "https://www.yelp.com/biz/esme-brooklyn-2?adjust_creative=9gNmiWYX8uTbFBeTTvJMdA&utm_campaign=yelp_api_v3&utm_medium=api_v3_business_search&utm_source=9gNmiWYX8uTbFBeTTvJMdA", "review_count": 393, "categories": [{"alias": "newamerican", "title": "American (New)"}, {"alias": "cocktailbars", "title": "Cocktail Bars"}], "rating": 4.5, "coordinates": {"latitude": 40.73322607409529, "longitude": -73.95492695812946}, "transactions": ["pickup", "delivery"], "price": "$$", "location": {"address1": "999 Manhattan Ave", "address2": null, "address3": "", "city": "Brooklyn", "zip_code": "11222", "country": "US", "state": "NY", "display_address": ["999 Manhattan Ave", "Brooklyn, NY 11222"]}, "phone": "+13476893071", "display_phone": "(347) 689-3071", "distance": 3138.1141093534343}, {"id": "UF9F0A4e7AJHzNPG5zrHUQ", "alias": "the-beast-next-door-long-island-city-2", "name": "The Beast Next Door", "image_url": "https://s3-media1.fl.yelpcdn.com/bphoto/tpdjRq4-4mat2Jbg7kuP-A/o.jpg", "is_closed": false, "url": "https://www.yelp.com/biz/the-beast-next-door-long-island-city-2?adjust_creative=9gNmiWYX8uTbFBeTTvJMdA&utm_campaign=yelp_api_v3&utm_medium=api_v3_business_search&utm_source=9gNmiWYX8uTbFBeTTvJMdA", "review_count": 250, "categories": [{"alias": "newamerican", "title": "American (New)"}, {"alias": "tapasmallplates", "title": "Tapas/Small Plates"}, {"alias": "wine_bars", "title": "Wine Bars"}], "rating": 4.5, "coordinates": {"latitude": 40.74881, "longitude": -73.94073}, "transactions": ["pickup", "delivery"], "price": "$$", "location": {"address1": "42-51 27th St", "address2": "", "address3": "", "city": "Long Island City", "zip_code": "11101", "country": "US", "state": "NY", "display_address": ["42-51 27th St", "Long Island City, NY 11101"]}, "phone": "+17182551612", "display_phone": "(718) 255-1612", "distance": 2687.419554947262}, {"id": "-WdZvgWBMYg5fSuav78ZRA", "alias": "il-miglio-brick-oven-and-italian-restaurant-long-island-city", "name": "Il Miglio Brick Oven & Italian Restaurant", "image_url": "https://s3-media1.fl.yelpcdn.com/bphoto/O5M2FnhDu6ZuxTvz7X9VuA/o.jpg", "is_closed": false, "url": "https://www.yelp.com/biz/il-miglio-brick-oven-and-italian-restaurant-long-island-city?adjust_creative=9gNmiWYX8uTbFBeTTvJMdA&utm_campaign=yelp_api_v3&utm_medium=api_v3_business_search&utm_source=9gNmiWYX8uTbFBeTTvJMdA", "review_count": 35, "categories": [{"alias": "italian", "title": "Italian"}, {"alias": "pizza", "title": "Pizza"}], "rating": 4.0, "coordinates": {"latitude": 40.761189, "longitude": -73.93967}, "transactions": ["pickup", "delivery"], "location": {"address1": "11-03 36th Ave", "address2": null, "address3": null, "city": "Long Island City", "zip_code": "11106", "country": "US", "state": "NY", "display_address": ["11-03 36th Ave", "Long Island City, NY 11106"]}, "phone": "+17187777676", "display_phone": "(718) 777-7676", "distance": 2528.179488279905}, {"id": "St8a2de1vfyCxwIySBUWbA", "alias": "graziellas-brooklyn-11", "name": "Graziella's", "image_url": "https://s3-media1.fl.yelpcdn.com/bphoto/GV0d871fK5Ys0lQRdaHBaA/o.jpg", "is_closed": false, "url": "https://www.yelp.com/biz/graziellas-brooklyn-11?adjust_creative=9gNmiWYX8uTbFBeTTvJMdA&utm_campaign=yelp_api_v3&utm_medium=api_v3_business_search&utm_source=9gNmiWYX8uTbFBeTTvJMdA", "review_count": 491, "categories": [{"alias": "italian", "title": "Italian"}, {"alias": "pizza", "title": "Pizza"}, {"alias": "bars", "title": "Bars"}], "rating": 4.0, "coordinates": {"latitude": 40.6904563903809, "longitude": -73.9696273803711}, "transactions": ["pickup", "delivery"], "price": "$$", "location": {"address1": "232 Vanderbilt Ave", "address2": null, "address3": "", "city": "Brooklyn", "zip_code": "11205", "country": "US", "state": "NY", "display_address": ["232 Vanderbilt Ave", "Brooklyn, NY 11205"]}, "phone": "+17187895663", "display_phone": "(718) 789-5663", "distance": 7640.506979177861}, {"id": "7dYie1rBWQVxfcGbYYTYCw", "alias": "mondani-manhattan", "name": "Mondani", "image_url": "", "is_closed": false, "url": "https://www.yelp.com/biz/mondani-manhattan?adjust_creative=9gNmiWYX8uTbFBeTTvJMdA&utm_campaign=yelp_api_v3&utm_medium=api_v3_business_search&utm_source=9gNmiWYX8uTbFBeTTvJMdA", "review_count": 1, "categories": [{"alias": "italian", "title": "Italian"}], "rating": 5.0, "coordinates": {"latitude": 40.7622838521832, "longitude": -73.9810564676794}, "transactions": [], "location": {"address1": "7TH Ave", "address2": "", "address3": "", "city": "Manhattan", "zip_code": "10019", "country": "US", "state": "NY", "display_address": ["7TH Ave", "Manhattan, NY 10019"]}, "phone": "", "display_phone": "", "distance": 1027.0352801769181}, {"id": "H5d3Lgkk8onZ6tq0mUyvig", "alias": "panello-hoboken", "name": "Panello", "image_url": "https://s3-media4.fl.yelpcdn.com/bphoto/-9Gr1yfNTlMh1an2L6mBHg/o.jpg", "is_closed": false, "url": "https://www.yelp.com/biz/panello-hoboken?adjust_creative=9gNmiWYX8uTbFBeTTvJMdA&utm_campaign=yelp_api_v3&utm_medium=api_v3_business_search&utm_source=9gNmiWYX8uTbFBeTTvJMdA", "review_count": 217, "categories": [{"alias": "pizza", "title": "Pizza"}, {"alias": "italian", "title": "Italian"}], "rating": 4.0, "coordinates": {"latitude": 40.747536, "longitude": -74.037906}, "transactions": ["pickup"], "price": "$$", "location": {"address1": "720 Monroe St", "address2": "Ste C105", "address3": "", "city": "Hoboken", "zip_code": "07030", "country": "US", "state": "NJ", "display_address": ["720 Monroe St", "Ste C105", "Hoboken, NJ 07030"]}, "phone": "+12016834734", "display_phone": "(201) 683-4734", "distance": 5899.513022245315}, {"id": "R86cJxXMiXRyqzlF24esgg", "alias": "lexington-pizza-parlour-new-york", "name": "Lexington Pizza Parlour", "image_url": "https://s3-media2.fl.yelpcdn.com/bphoto/Efk9lZZ9iKpSLuoxM1ylfg/o.jpg", "is_closed": false, "url": "https://www.yelp.com/biz/lexington-pizza-parlour-new-york?adjust_creative=9gNmiWYX8uTbFBeTTvJMdA&utm_campaign=yelp_api_v3&utm_medium=api_v3_business_search&utm_source=9gNmiWYX8uTbFBeTTvJMdA", "review_count": 256, "categories": [{"alias": "italian", "title": "Italian"}, {"alias": "pizza", "title": "Pizza"}], "rating": 4.0, "coordinates": {"latitude": 40.789283, "longitude": -73.9487429}, "transactions": ["pickup", "delivery"], "price": "$$", "location": {"address1": "1590 Lexington Ave", "address2": null, "address3": "", "city": "New York", "zip_code": "10029", "country": "US", "state": "NY", "display_address": ["1590 Lexington Ave", "New York, NY 10029"]}, "phone": "+12127227850", "display_phone": "(212) 722-7850", "distance": 3779.5838445226436}], "total": 4600, "region": {"center": {"longitude": -73.96957397460938, "latitude": 40.75917470627005}}}