{"businesses": [{"id": "wp5BpfUi9Aa4T0Gk0bnhag", "alias": "altesi-downtown-new-york", "name": "Altesi Downtown", "image_url": "https://s3-media4.fl.yelpcdn.com/bphoto/g-rm0Efedsjf5O7JtzhkVw/o.jpg", "is_closed": false, "url": "https://www.yelp.com/biz/altesi-downtown-new-york?adjust_creative=9gNmiWYX8uTbFBeTTvJMdA&utm_campaign=yelp_api_v3&utm_medium=api_v3_business_search&utm_source=9gNmiWYX8uTbFBeTTvJMdA", "review_count": 119, "categories": [{"alias": "italian", "title": "Italian"}], "rating": 4.0, "coordinates": {"latitude": 40.72511, "longitude": -74.00333}, "transactions": ["delivery", "pickup"], "price": "$$", "location": {"address1": "200 Spring St", "address2": "", "address3": null, "city": "New York", "zip_code": "10012", "country": "US", "state": "NY", "display_address": ["200 Spring St", "New York, NY 10012"]}, "phone": "+12124311212", "display_phone": "(212) 431-1212", "distance": 4736.867527042796}, {"id": "hjr2ymrX1L7eGFvCmp8eTQ", "alias": "fiorentini-rutherford", "name": "Fiorentini", "image_url": "https://s3-media4.fl.yelpcdn.com/bphoto/L9DoZ6FohC46wdnUyI7G-A/o.jpg", "is_closed": false, "url": "https://www.yelp.com/biz/fiorentini-rutherford?adjust_creative=9gNmiWYX8uTbFBeTTvJMdA&utm_campaign=yelp_api_v3&utm_medium=api_v3_business_search&utm_source=9gNmiWYX8uTbFBeTTvJMdA", "review_count": 62, "categories": [{"alias": "italian", "title": "Italian"}], "rating": 4.5, "coordinates": {"latitude": 40.827262809637894, "longitude": -74.10504665225744}, "transactions": [], "location": {"address1": "98 Park Ave", "address2": "", "address3": null, "city": "Rutherford", "zip_code": "07070", "country": "US", "state": "NJ", "display_address": ["98 Park Ave", "Rutherford, NJ 07070"]}, "phone": "+19737213404", "display_phone": "(973) 721-3404", "distance": 13688.742122029862}, {"id": "nCH7SR7qXu0asO1GU3iqHw", "alias": "the-press-lounge-new-york-3", "name": "The Press Lounge", "image_url": "https://s3-media3.fl.yelpcdn.com/bphoto/dMduwCNuPjcPN5K-xMA7Uw/o.jpg", "is_closed": false, "url": "https://www.yelp.com/biz/the-press-lounge-new-york-3?adjust_creative=9gNmiWYX8uTbFBeTTvJMdA&utm_campaign=yelp_api_v3&utm_medium=api_v3_business_search&utm_source=9gNmiWYX8uTbFBeTTvJMdA", "review_count": 1169, "categories": [{"alias": "lounges", "title": "Lounges"}, {"alias": "venues", "title": "Venues & Event Spaces"}, {"alias": "cocktailbars", "title": "Cocktail Bars"}], "rating": 4.0, "coordinates": {"latitude": 40.76452, "longitude": -73.99586}, "transactions": [], "price": "$$$", "location": {"address1": "653 11th Ave", "address2": "Fl 16", "address3": "", "city": "New York", "zip_code": "10036", "country": "US", "state": "NY", "display_address": ["653 11th Ave", "Fl 16", "New York, NY 10036"]}, "phone": "+12127572224", "display_phone": "(212) 757-2224", "distance": 2301.199675350128}, {"id": "mE4C04NeTKmr3GwRQwM3Wg", "alias": "soho-cigar-bar-new-york-2", "name": "SoHo Cigar Bar", "image_url": "https://s3-media3.fl.yelpcdn.com/bphoto/y782yzQihabfEw7Bi9Ylwg/o.jpg", "is_closed": false, "url": "https://www.yelp.com/biz/soho-cigar-bar-new-york-2?adjust_creative=9gNmiWYX8uTbFBeTTvJMdA&utm_campaign=yelp_api_v3&utm_medium=api_v3_business_search&utm_source=9gNmiWYX8uTbFBeTTvJMdA", "review_count": 273, "categories": [{"alias": "lounges", "title": "Lounges"}, {"alias": "cocktailbars", "title": "Cocktail Bars"}, {"alias": "tobaccoshops", "title": "Tobacco Shops"}], "rating": 4.5, "coordinates": {"latitude": 40.72351200846534, "longitude": -74.00345690012885}, "transactions": ["delivery"], "price": "$$", "location": {"address1": "32 Watts St", "address2": "", "address3": "", "city": "New York", "zip_code": "10013", "country": "US", "state": "NY", "display_address": ["32 Watts St", "New York, NY 10013"]}, "phone": "+12129411781", "display_phone": "(212) 941-1781", "distance": 4886.087801944003}, {"id": "qQG5eTaJlYVeOqtGiFdMRw", "alias": "the-porch-new-york-2", "name": "The Porch", "image_url": "https://s3-media3.fl.yelpcdn.com/bphoto/6f7oG6PAL-he7-5I6BuV8A/o.jpg", "is_closed": false, "url": "https://www.yelp.com/biz/the-porch-new-york-2?adjust_creative=9gNmiWYX8uTbFBeTTvJMdA&utm_campaign=yelp_api_v3&utm_medium=api_v3_business_search&utm_source=9gNmiWYX8uTbFBeTTvJMdA", "review_count": 23, "categories": [{"alias": "musicvenues", "title": "Music Venues"}, {"alias": "bars", "title": "Bars"}, {"alias": "smokehouse", "title": "Smokehouse"}], "rating": 4.5, "coordinates": {"latitude": 40.825524560882975, "longitude": -73.94337924263158}, "transactions": ["delivery", "pickup"], "price": "$$", "location": {"address1": "750A St Nicholas Ave", "address2": null, "address3": "", "city": "New York", "zip_code": "10031", "country": "US", "state": "NY", "display_address": ["750A St Nicholas Ave", "New York, NY 10031"]}, "phone": "", "display_phone": "", "distance": 7700.26553590793}, {"id": "JaD3WhM5pFGTwC5e7cHaKQ", "alias": "riviera-ristorante-whitestone", "name": "Riviera Ristorante", "image_url": "https://s3-media2.fl.yelpcdn.com/bphoto/LAyOFxqBedhjorUsDUHXvQ/o.jpg", "is_closed": false, "url": "https://www.yelp.com/biz/riviera-ristorante-whitestone?adjust_creative=9gNmiWYX8uTbFBeTTvJMdA&utm_campaign=yelp_api_v3&utm_medium=api_v3_business_search&utm_source=9gNmiWYX8uTbFBeTTvJMdA", "review_count": 171, "categories": [{"alias": "italian", "title": "Italian"}], "rating": 4.5, "coordinates": {"latitude": 40.78226530125296, "longitude": -73.79472788220775}, "transactions": ["delivery"], "price": "$$", "location": {"address1": "17-12 Utopia Pkwy", "address2": "", "address3": "", "city": "Whitestone", "zip_code": "11357", "country": "US", "state": "NY", "display_address": ["17-12 Utopia Pkwy", "Whitestone, NY 11357"]}, "phone": "+17183522225", "display_phone": "(718) 352-2225", "distance": 14946.155350623394}, {"id": "m5Whyz8O8jM4DrE808h71g", "alias": "darbar-grill-new-york", "name": "Darbar Grill", "image_url": "https://s3-media2.fl.yelpcdn.com/bphoto/9rN41wJJx8ic1fxNMnaslA/o.jpg", "is_closed": false, "url": "https://www.yelp.com/biz/darbar-grill-new-york?adjust_creative=9gNmiWYX8uTbFBeTTvJMdA&utm_campaign=yelp_api_v3&utm_medium=api_v3_business_search&utm_source=9gNmiWYX8uTbFBeTTvJMdA", "review_count": 578, "categories": [{"alias": "indpak", "title": "Indian"}, {"alias": "wine_bars", "title": "Wine Bars"}, {"alias": "catering", "title": "Caterers"}], "rating": 4.0, "coordinates": {"latitude": 40.759357, "longitude": -73.968826}, "transactions": ["delivery", "restaurant_reservation", "pickup"], "price": "$$", "location": {"address1": "157 E 55th St", "address2": "", "address3": "", "city": "New York", "zip_code": "10022", "country": "US", "state": "NY", "display_address": ["157 E 55th St", "New York, NY 10022"]}, "phone": "+12127514600", "display_phone": "(212) 751-4600", "distance": 66.17928511151273}, {"id": "7rc7e_mw5DefMCSBsuZYhg", "alias": "don-giovanni-ristorante-new-york", "name": "Don Giovanni Ristorante", "image_url": "https://s3-media1.fl.yelpcdn.com/bphoto/chJ88jP2Bxbbo7zFdE56Jg/o.jpg", "is_closed": false, "url": "https://www.yelp.com/biz/don-giovanni-ristorante-new-york?adjust_creative=9gNmiWYX8uTbFBeTTvJMdA&utm_campaign=yelp_api_v3&utm_medium=api_v3_business_search&utm_source=9gNmiWYX8uTbFBeTTvJMdA", "review_count": 577, "categories": [{"alias": "italian", "title": "Italian"}, {"alias": "pizza", "title": "Pizza"}, {"alias": "sandwiches", "title": "Sandwiches"}], "rating": 3.5, "coordinates": {"latitude": 40.75955, "longitude": -73.9915}, "transactions": ["delivery", "pickup"], "price": "$$", "location": {"address1": "358 W 44th St", "address2": null, "address3": "", "city": "New York", "zip_code": "10036", "country": "US", "state": "NY", "display_address": ["358 W 44th St", "New York, NY 10036"]}, "phone": "+12125814939", "display_phone": "(212) 581-4939", "distance": 1837.0062718966926}, {"id": "olMUqifw-QlikZ9OC2aN6Q", "alias": "piccolinos-bayonne", "name": "Piccolino's", "image_url": "https://s3-media4.fl.yelpcdn.com/bphoto/8M-kensSIw-N8gWGu300Cw/o.jpg", "is_closed": false, "url": "https://www.yelp.com/biz/piccolinos-bayonne?adjust_creative=9gNmiWYX8uTbFBeTTvJMdA&utm_campaign=yelp_api_v3&utm_medium=api_v3_business_search&utm_source=9gNmiWYX8uTbFBeTTvJMdA", "review_count": 55, "categories": [{"alias": "italian", "title": "Italian"}], "rating": 4.0, "coordinates": {"latitude": 40.66577, "longitude": -74.1163399}, "transactions": ["delivery", "pickup"], "price": "$$", "location": {"address1": "552 Broadway", "address2": "", "address3": "", "city": "Bayonne", "zip_code": "07002", "country": "US", "state": "NJ", "display_address": ["552 Broadway", "Bayonne, NJ 07002"]}, "phone": "+12014368800", "display_phone": "(201) 436-8800", "distance": 16154.097049824351}, {"id": "nvisU3jrXgA7xL5nEt3iXA", "alias": "don-giovanni-ristorante-new-york-2", "name": "Don Giovanni Ristorante", "image_url": "https://s3-media4.fl.yelpcdn.com/bphoto/dIEKBkg8WlHyFhGj6vY0Pw/o.jpg", "is_closed": false, "url": "https://www.yelp.com/biz/don-giovanni-ristorante-new-york-2?adjust_creative=9gNmiWYX8uTbFBeTTvJMdA&utm_campaign=yelp_api_v3&utm_medium=api_v3_business_search&utm_source=9gNmiWYX8uTbFBeTTvJMdA", "review_count": 369, "categories": [{"alias": "italian", "title": "Italian"}, {"alias": "pizza", "title": "Pizza"}], "rating": 3.5, "coordinates": {"latitude": 40.7472138000271, "longitude": -74.0042828600478}, "transactions": ["delivery", "pickup"], "price": "$$", "location": {"address1": "214 10th Ave", "address2": null, "address3": "", "city": "New York", "zip_code": "10011", "country": "US", "state": "NY", "display_address": ["214 10th Ave", "New York, NY 10011"]}, "phone": "+12122429054", "display_phone": "(212) 242-9054", "distance": 3211.939790412796}, {"id": "6TCMYUyT45aj-89fYJOiyw", "alias": "porta-jersey-city-2", "name": "Porta", "image_url": "https://s3-media4.fl.yelpcdn.com/bphoto/VNke-uzHOzLqzDCKN9SPjA/o.jpg", "is_closed": false, "url": "https://www.yelp.com/biz/porta-jersey-city-2?adjust_creative=9gNmiWYX8uTbFBeTTvJMdA&utm_campaign=yelp_api_v3&utm_medium=api_v3_business_search&utm_source=9gNmiWYX8uTbFBeTTvJMdA", "review_count": 1211, "categories": [{"alias": "pizza", "title": "Pizza"}], "rating": 3.0, "coordinates": {"latitude": 40.7200699, "longitude": -74.0437622}, "transactions": ["delivery"], "price": "$$", "location": {"address1": "135 Newark Ave", "address2": "", "address3": "", "city": "Jersey City", "zip_code": "07302", "country": "US", "state": "NJ", "display_address": ["135 Newark Ave", "Jersey City, NJ 07302"]}, "phone": "+12015445199", "display_phone": "(201) 544-5199", "distance": 7600.841053011176}, {"id": "XghOzJn16M-nvaKMOdC5og", "alias": "verlaine-new-york-2", "name": "Verlaine", "image_url": "https://s3-media1.fl.yelpcdn.com/bphoto/nhYw6SOnjsiqJfw7r4eEng/o.jpg", "is_closed": false, "url": "https://www.yelp.com/biz/verlaine-new-york-2?adjust_creative=9gNmiWYX8uTbFBeTTvJMdA&utm_campaign=yelp_api_v3&utm_medium=api_v3_business_search&utm_source=9gNmiWYX8uTbFBeTTvJMdA", "review_count": 1496, "categories": [{"alias": "tapasmallplates", "title": "Tapas/Small Plates"}, {"alias": "cocktailbars", "title": "Cocktail Bars"}, {"alias": "vietnamese", "title": "Vietnamese"}], "rating": 4.0, "coordinates": {"latitude": 40.720079, "longitude": -73.987785}, "transactions": ["pickup"], "price": "$$", "location": {"address1": "110 Rivington St", "address2": "", "address3": "", "city": "New York", "zip_code": "10002", "country": "US", "state": "NY", "display_address": ["110 Rivington St", "New York, NY 10002"]}, "phone": "+12126142493", "display_phone": "(212) 614-2493", "distance": 4610.046150806455}, {"id": "5WMGy-lEcQPfLb3q7erS-Q", "alias": "acquista-trattoria-flushing-2", "name": "Acquista Trattoria", "image_url": "https://s3-media3.fl.yelpcdn.com/bphoto/I0HaTINkrmjHNMCtcMmxdg/o.jpg", "is_closed": false, "url": "https://www.yelp.com/biz/acquista-trattoria-flushing-2?adjust_creative=9gNmiWYX8uTbFBeTTvJMdA&utm_campaign=yelp_api_v3&utm_medium=api_v3_business_search&utm_source=9gNmiWYX8uTbFBeTTvJMdA", "review_count": 416, "categories": [{"alias": "pizza", "title": "Pizza"}, {"alias": "italian", "title": "Italian"}], "rating": 4.0, "coordinates": {"latitude": 40.7265391, "longitude": -73.7898816}, "transactions": ["delivery", "pickup"], "price": "$$", "location": {"address1": "178-01 Union Tpke", "address2": "", "address3": "", "city": "Flushing", "zip_code": "11366", "country": "US", "state": "NY", "display_address": ["178-01 Union Tpke", "Flushing, NY 11366"]}, "phone": "+17189691411", "display_phone": "(718) 969-1411", "distance": 15561.233229307434}, {"id": "wpye6v-2fIx7Z2Sz12XubA", "alias": "barawine-new-york", "name": "Barawine", "image_url": "https://s3-media3.fl.yelpcdn.com/bphoto/diCQU4GJfvXKs822ore0Yg/o.jpg", "is_closed": false, "url": "https://www.yelp.com/biz/barawine-new-york?adjust_creative=9gNmiWYX8uTbFBeTTvJMdA&utm_campaign=yelp_api_v3&utm_medium=api_v3_business_search&utm_source=9gNmiWYX8uTbFBeTTvJMdA", "review_count": 374, "categories": [{"alias": "wine_bars", "title": "Wine Bars"}], "rating": 3.5, "coordinates": {"latitude": 40.8045311, "longitude": -73.9473801}, "transactions": ["delivery", "pickup"], "price": "$$", "location": {"address1": "200 Lenox Ave", "address2": "", "address3": "", "city": "New York", "zip_code": "10027", "country": "US", "state": "NY", "display_address": ["200 Lenox Ave", "New York, NY 10027"]}, "phone": "+16467564154", "display_phone": "(646) 756-4154", "distance": 5381.490006763977}, {"id": "V1rmM4BBLKTqzgOs1xDgvQ", "alias": "pasta-pasta-new-york", "name": "Pasta Pasta", "image_url": "", "is_closed": false, "url": "https://www.yelp.com/biz/pasta-pasta-new-york?adjust_creative=9gNmiWYX8uTbFBeTTvJMdA&utm_campaign=yelp_api_v3&utm_medium=api_v3_business_search&utm_source=9gNmiWYX8uTbFBeTTvJMdA", "review_count": 1, "categories": [{"alias": "fooddeliveryservices", "title": "Food Delivery Services"}, {"alias": "italian", "title": "Italian"}, {"alias": "soup", "title": "Soup"}], "rating": 5.0, "coordinates": {"latitude": 40.76085662841797, "longitude": -73.9797134399414}, "transactions": [], "location": {"address1": null, "address2": null, "address3": null, "city": "New York", "zip_code": "10104", "country": "US", "state": "NY", "display_address": ["New York, NY 10104"]}, "phone": "+19175403824", "display_phone": "(917) 540-3824", "distance": 720.8660491889351}, {"id": "_WttOSi2_ggdvUI6GvaqTg", "alias": "da-nonna-rosa-brooklyn-2", "name": "Da Nonna Rosa", "image_url": "https://s3-media2.fl.yelpcdn.com/bphoto/ClW_M19mBUnzHa0nh3WErA/o.jpg", "is_closed": false, "url": "https://www.yelp.com/biz/da-nonna-rosa-brooklyn-2?adjust_creative=9gNmiWYX8uTbFBeTTvJMdA&utm_campaign=yelp_api_v3&utm_medium=api_v3_business_search&utm_source=9gNmiWYX8uTbFBeTTvJMdA", "review_count": 426, "categories": [{"alias": "italian", "title": "Italian"}, {"alias": "pizza", "title": "Pizza"}, {"alias": "venues", "title": "Venues & Event Spaces"}], "rating": 4.0, "coordinates": {"latitude": 40.67291, "longitude": -73.97697}, "transactions": ["delivery", "pickup"], "price": "$$", "location": {"address1": "140 7th Ave", "address2": "", "address3": "", "city": "Brooklyn", "zip_code": "11215", "country": "US", "state": "NY", "display_address": ["140 7th Ave", "Brooklyn, NY 11215"]}, "phone": "+17187886225", "display_phone": "(718) 788-6225", "distance": 9610.226154120548}, {"id": "6jhuT09-nxF_tPZonXnYHA", "alias": "beach-cafe-new-york", "name": "Beach Cafe", "image_url": "https://s3-media1.fl.yelpcdn.com/bphoto/sBlA1LwTOGDsVW7X5QwnBA/o.jpg", "is_closed": false, "url": "https://www.yelp.com/biz/beach-cafe-new-york?adjust_creative=9gNmiWYX8uTbFBeTTvJMdA&utm_campaign=yelp_api_v3&utm_medium=api_v3_business_search&utm_source=9gNmiWYX8uTbFBeTTvJMdA", "review_count": 314, "categories": [{"alias": "tradamerican", "title": "American (Traditional)"}, {"alias": "burgers", "title": "Burgers"}, {"alias": "pizza", "title": "Pizza"}], "rating": 3.0, "coordinates": {"latitude": 40.7672686, "longitude": -73.9592185}, "transactions": ["delivery", "pickup"], "price": "$$", "location": {"address1": "1326 2nd Ave", "address2": "", "address3": "", "city": "New York", "zip_code": "10021", "country": "US", "state": "NY", "display_address": ["1326 2nd Ave", "New York, NY 10021"]}, "phone": "+12129887299", "display_phone": "(212) 988-7299", "distance": 1253.2488110486486}, {"id": "x6u4DehJyvFPJKOOSjhPdg", "alias": "villa-erasmo-middle-village-2", "name": "Villa Erasmo", "image_url": "https://s3-media1.fl.yelpcdn.com/bphoto/CLYwdl1RhQs7nPDnuSzTdg/o.jpg", "is_closed": false, "url": "https://www.yelp.com/biz/villa-erasmo-middle-village-2?adjust_creative=9gNmiWYX8uTbFBeTTvJMdA&utm_campaign=yelp_api_v3&utm_medium=api_v3_business_search&utm_source=9gNmiWYX8uTbFBeTTvJMdA", "review_count": 80, "categories": [{"alias": "italian", "title": "Italian"}], "rating": 4.0, "coordinates": {"latitude": 40.71685, "longitude": -73.88626}, "transactions": ["delivery"], "price": "$$", "location": {"address1": "69-61 Juniper Blvd S", "address2": "", "address3": "", "city": "Middle Village", "zip_code": "11379", "country": "US", "state": "NY", "display_address": ["69-61 Juniper Blvd S", "Middle Village, NY 11379"]}, "phone": "+17188948191", "display_phone": "(718) 894-8191", "distance": 8447.92840315918}, {"id": "oqeeOpA2S6U02nUGa8Ot7g", "alias": "alison-new-york", "name": "Alison", "image_url": "https://s3-media1.fl.yelpcdn.com/bphoto/7bkdpEZThLboAgwf8M2qDQ/o.jpg", "is_closed": false, "url": "https://www.yelp.com/biz/alison-new-york?adjust_creative=9gNmiWYX8uTbFBeTTvJMdA&utm_campaign=yelp_api_v3&utm_medium=api_v3_business_search&utm_source=9gNmiWYX8uTbFBeTTvJMdA", "review_count": 118, "categories": [{"alias": "beerbar", "title": "Beer Bar"}, {"alias": "tradamerican", "title": "American (Traditional)"}], "rating": 4.0, "coordinates": {"latitude": 40.79099, "longitude": -73.94703}, "transactions": ["delivery", "pickup"], "price": "$$", "location": {"address1": "1651 Lexington Ave", "address2": "", "address3": null, "city": "New York", "zip_code": "10029", "country": "US", "state": "NY", "display_address": ["1651 Lexington Ave", "New York, NY 10029"]}, "phone": "+16468761054", "display_phone": "(646) 876-1054", "distance": 4013.093206536604}, {"id": "y5b85IZGLxNdksDBFm1GBw", "alias": "genes-restaurant-new-york", "name": "Gene's Restaurant", "image_url": "https://s3-media1.fl.yelpcdn.com/bphoto/4hy7M4EpZLMBvN0FN2TpmQ/o.jpg", "is_closed": false, "url": "https://www.yelp.com/biz/genes-restaurant-new-york?adjust_creative=9gNmiWYX8uTbFBeTTvJMdA&utm_campaign=yelp_api_v3&utm_medium=api_v3_business_search&utm_source=9gNmiWYX8uTbFBeTTvJMdA", "review_count": 102, "categories": [{"alias": "italian", "title": "Italian"}, {"alias": "french", "title": "French"}], "rating": 4.0, "coordinates": {"latitude": 40.735408782959, "longitude": -73.9977264404297}, "transactions": ["delivery"], "price": "$$$", "location": {"address1": "73 W 11th St", "address2": "", "address3": "", "city": "New York", "zip_code": "10011", "country": "US", "state": "NY", "display_address": ["73 W 11th St", "New York, NY 10011"]}, "phone": "+12126752048", "display_phone": "(212) 675-2048", "distance": 3555.339310449266}, {"id": "v1DHGRNCH9247WLYoaoA9A", "alias": "l-industrie-pizzeria-brooklyn", "name": "L'industrie Pizzeria", "image_url": "https://s3-media3.fl.yelpcdn.com/bphoto/KKB2Trak1Ou3bqJePe8RmQ/o.jpg", "is_closed": false, "url": "https://www.yelp.com/biz/l-industrie-pizzeria-brooklyn?adjust_creative=9gNmiWYX8uTbFBeTTvJMdA&utm_campaign=yelp_api_v3&utm_medium=api_v3_business_search&utm_source=9gNmiWYX8uTbFBeTTvJMdA", "review_count": 893, "categories": [{"alias": "pizza", "title": "Pizza"}], "rating": 4.5, "coordinates": {"latitude": 40.71162, "longitude": -73.95783}, "transactions": ["delivery"], "price": "$", "location": {"address1": "254 S 2nd St", "address2": "", "address3": "", "city": "Brooklyn", "zip_code": "11211", "country": "US", "state": "NY", "display_address": ["254 S 2nd St", "Brooklyn, NY 11211"]}, "phone": "+17185990002", "display_phone": "(718) 599-0002", "distance": 5382.969880738413}, {"id": "4Kqzy6WJBZ4Tc0cg6k2XNQ", "alias": "vinnys-of-carroll-gardens-brooklyn-2", "name": "Vinny's of Carroll Gardens", "image_url": "https://s3-media3.fl.yelpcdn.com/bphoto/cDk7FQ228EhJiVDtFEBjNw/o.jpg", "is_closed": false, "url": "https://www.yelp.com/biz/vinnys-of-carroll-gardens-brooklyn-2?adjust_creative=9gNmiWYX8uTbFBeTTvJMdA&utm_campaign=yelp_api_v3&utm_medium=api_v3_business_search&utm_source=9gNmiWYX8uTbFBeTTvJMdA", "review_count": 241, "categories": [{"alias": "italian", "title": "Italian"}], "rating": 4.0, "coordinates": {"latitude": 40.682103, "longitude": -73.993438}, "transactions": ["delivery", "pickup"], "price": "$$", "location": {"address1": "295 Smith St", "address2": "", "address3": "", "city": "Brooklyn", "zip_code": "11231", "country": "US", "state": "NY", "display_address": ["295 Smith St", "Brooklyn, NY 11231"]}, "phone": "+17188755600", "display_phone": "(718) 875-5600", "distance": 8802.787942415958}, {"id": "8NrrPoJKOQQFTMrkMzGILw", "alias": "upside-pizza-new-york-3", "name": "Upside Pizza", "image_url": "https://s3-media2.fl.yelpcdn.com/bphoto/AgGmKznofPu6pSXLUzwWUQ/o.jpg", "is_closed": false, "url": "https://www.yelp.com/biz/upside-pizza-new-york-3?adjust_creative=9gNmiWYX8uTbFBeTTvJMdA&utm_campaign=yelp_api_v3&utm_medium=api_v3_business_search&utm_source=9gNmiWYX8uTbFBeTTvJMdA", "review_count": 45, "categories": [{"alias": "pizza", "title": "Pizza"}], "rating": 4.0, "coordinates": {"latitude": 40.75157, "longitude": -73.98059}, "transactions": ["delivery", "pickup"], "price": "$", "location": {"address1": "20 E 40th St", "address2": "", "address3": null, "city": "New York", "zip_code": "10016", "country": "US", "state": "NY", "display_address": ["20 E 40th St", "New York, NY 10016"]}, "phone": "", "display_phone": "", "distance": 1261.8360568168857}, {"id": "j69WHdRCVQTypfe7hQWauw", "alias": "brasserie-cognac-east-new-york", "name": "Brasserie Cognac East", "image_url": "https://s3-media3.fl.yelpcdn.com/bphoto/yDyH9GoSOweWk8nZ1UqUJA/o.jpg", "is_closed": false, "url": "https://www.yelp.com/biz/brasserie-cognac-east-new-york?adjust_creative=9gNmiWYX8uTbFBeTTvJMdA&utm_campaign=yelp_api_v3&utm_medium=api_v3_business_search&utm_source=9gNmiWYX8uTbFBeTTvJMdA", "review_count": 150, "categories": [{"alias": "cocktailbars", "title": "Cocktail Bars"}, {"alias": "french", "title": "French"}, {"alias": "brasseries", "title": "Brasseries"}], "rating": 3.5, "coordinates": {"latitude": 40.76911811325526, "longitude": -73.96291345561302}, "transactions": ["delivery", "pickup"], "price": "$$", "location": {"address1": "963 Lexington Ave", "address2": "", "address3": "", "city": "New York", "zip_code": "10021", "country": "US", "state": "NY", "display_address": ["963 Lexington Ave", "New York, NY 10021"]}, "phone": "+12122495100", "display_phone": "(212) 249-5100", "distance": 1239.8114068483137}, {"id": "HbCyzokiA19bEWUp6mga_g", "alias": "bibi-new-york", "name": "bibi", "image_url": "https://s3-media4.fl.yelpcdn.com/bphoto/8EILx4tDE9Jrb4Y9-xQBbg/o.jpg", "is_closed": false, "url": "https://www.yelp.com/biz/bibi-new-york?adjust_creative=9gNmiWYX8uTbFBeTTvJMdA&utm_campaign=yelp_api_v3&utm_medium=api_v3_business_search&utm_source=9gNmiWYX8uTbFBeTTvJMdA", "review_count": 216, "categories": [{"alias": "wine_bars", "title": "Wine Bars"}], "rating": 4.5, "coordinates": {"latitude": 40.723937, "longitude": -73.983519}, "transactions": ["delivery", "pickup"], "price": "$$", "location": {"address1": "211 E 4th St", "address2": "", "address3": "", "city": "New York", "zip_code": "10009", "country": "US", "state": "NY", "display_address": ["211 E 4th St", "New York, NY 10009"]}, "phone": "+12126732424", "display_phone": "(212) 673-2424", "distance": 4090.5905716620814}, {"id": "Q6g_gRC_vFJqwChBWczWaQ", "alias": "rino-restaurant-new-york", "name": "Rino Restaurant", "image_url": "", "is_closed": false, "url": "https://www.yelp.com/biz/rino-restaurant-new-york?adjust_creative=9gNmiWYX8uTbFBeTTvJMdA&utm_campaign=yelp_api_v3&utm_medium=api_v3_business_search&utm_source=9gNmiWYX8uTbFBeTTvJMdA", "review_count": 1, "categories": [{"alias": "italian", "title": "Italian"}, {"alias": "vegetarian", "title": "Vegetarian"}, {"alias": "pizza", "title": "Pizza"}], "rating": 5.0, "coordinates": {"latitude": 40.7639847, "longitude": -73.9850693}, "transactions": [], "location": {"address1": "877 Eighth Ave", "address2": "", "address3": "", "city": "New York", "zip_code": "10019", "country": "US", "state": "NY", "display_address": ["877 Eighth Ave", "New York, NY 10019"]}, "phone": "+12123070666", "display_phone": "(212) 307-0666", "distance": 1424.1366391988367}, {"id": "7KtUcXF28tDEv8CBbgWNJw", "alias": "bar-felice-new-york", "name": "Bar Felice", "image_url": "https://s3-media4.fl.yelpcdn.com/bphoto/6WwHixbAiKNPjqgSYEOKPQ/o.jpg", "is_closed": false, "url": "https://www.yelp.com/biz/bar-felice-new-york?adjust_creative=9gNmiWYX8uTbFBeTTvJMdA&utm_campaign=yelp_api_v3&utm_medium=api_v3_business_search&utm_source=9gNmiWYX8uTbFBeTTvJMdA", "review_count": 33, "categories": [{"alias": "lounges", "title": "Lounges"}, {"alias": "cocktailbars", "title": "Cocktail Bars"}, {"alias": "wine_bars", "title": "Wine Bars"}], "rating": 4.0, "coordinates": {"latitude": 40.7748027, "longitude": -73.95113}, "transactions": [], "price": "$$$", "location": {"address1": "1591 1st Ave", "address2": "", "address3": "", "city": "New York", "zip_code": "10028", "country": "US", "state": "NY", "display_address": ["1591 1st Ave", "New York, NY 10028"]}, "phone": "+12122494080", "display_phone": "(212) 249-4080", "distance": 2330.759356134847}, {"id": "3Sm7_Nhnj12r5RhianvrbQ", "alias": "kiss-my-slice-new-york-3", "name": "Kiss My Slice", "image_url": "https://s3-media4.fl.yelpcdn.com/bphoto/QnUi2fgtIhEpCWASmM_YlQ/o.jpg", "is_closed": false, "url": "https://www.yelp.com/biz/kiss-my-slice-new-york-3?adjust_creative=9gNmiWYX8uTbFBeTTvJMdA&utm_campaign=yelp_api_v3&utm_medium=api_v3_business_search&utm_source=9gNmiWYX8uTbFBeTTvJMdA", "review_count": 262, "categories": [{"alias": "pizza", "title": "Pizza"}, {"alias": "italian", "title": "Italian"}], "rating": 4.0, "coordinates": {"latitude": 40.75576, "longitude": -73.99052}, "transactions": ["delivery", "pickup"], "price": "$", "location": {"address1": "274 W 40th St", "address2": null, "address3": "", "city": "New York", "zip_code": "10018", "country": "US", "state": "NY", "display_address": ["274 W 40th St", "New York, NY 10018"]}, "phone": "+12123919524", "display_phone": "(212) 391-9524", "distance": 1804.741803484722}, {"id": "eTneVbjPKdo4gD9HfkDGdA", "alias": "santa-panza-brooklyn", "name": "Santa Panza", "image_url": "https://s3-media3.fl.yelpcdn.com/bphoto/aUNbT4zJE3S5aMqSvn1Z9Q/o.jpg", "is_closed": false, "url": "https://www.yelp.com/biz/santa-panza-brooklyn?adjust_creative=9gNmiWYX8uTbFBeTTvJMdA&utm_campaign=yelp_api_v3&utm_medium=api_v3_business_search&utm_source=9gNmiWYX8uTbFBeTTvJMdA", "review_count": 223, "categories": [{"alias": "bars", "title": "Bars"}, {"alias": "pizza", "title": "Pizza"}, {"alias": "italian", "title": "Italian"}], "rating": 4.5, "coordinates": {"latitude": 40.6947, "longitude": -73.93068}, "transactions": ["delivery", "pickup"], "price": "$$", "location": {"address1": "1079 Broadway", "address2": null, "address3": "", "city": "Brooklyn", "zip_code": "11221", "country": "US", "state": "NY", "display_address": ["1079 Broadway", "Brooklyn, NY 11221"]}, "phone": "+13474139695", "display_phone": "(347) 413-9695", "distance": 7884.916999702343}, {"id": "-KKgqE2g4c1cH4YmmDR9CQ", "alias": "bernies-brooklyn", "name": "Bernie's", "image_url": "https://s3-media3.fl.yelpcdn.com/bphoto/riKmIcqa_yrgXp9ZXnuYBA/o.jpg", "is_closed": false, "url": "https://www.yelp.com/biz/bernies-brooklyn?adjust_creative=9gNmiWYX8uTbFBeTTvJMdA&utm_campaign=yelp_api_v3&utm_medium=api_v3_business_search&utm_source=9gNmiWYX8uTbFBeTTvJMdA", "review_count": 108, "categories": [{"alias": "newamerican", "title": "American (New)"}, {"alias": "beerbar", "title": "Beer Bar"}, {"alias": "wine_bars", "title": "Wine Bars"}], "rating": 4.5, "coordinates": {"latitude": 40.721936, "longitude": -73.950597}, "transactions": [], "price": "$$", "location": {"address1": "332 Driggs Ave", "address2": "", "address3": null, "city": "Brooklyn", "zip_code": "11222", "country": "US", "state": "NY", "display_address": ["332 Driggs Ave", "Brooklyn, NY 11222"]}, "phone": "+13475296400", "display_phone": "(347) 529-6400", "distance": 4439.972650550086}, {"id": "bmcIFCtXLzkQIgLmDVXs3A", "alias": "serafina-ludlow-new-york-5", "name": "Serafina Ludlow", "image_url": "https://s3-media1.fl.yelpcdn.com/bphoto/X84qoEVHsr7FSv5sHkWLVA/o.jpg", "is_closed": false, "url": "https://www.yelp.com/biz/serafina-ludlow-new-york-5?adjust_creative=9gNmiWYX8uTbFBeTTvJMdA&utm_campaign=yelp_api_v3&utm_medium=api_v3_business_search&utm_source=9gNmiWYX8uTbFBeTTvJMdA", "review_count": 133, "categories": [{"alias": "italian", "title": "Italian"}, {"alias": "cocktailbars", "title": "Cocktail Bars"}], "rating": 3.5, "coordinates": {"latitude": 40.720205886879, "longitude": -73.9884993061423}, "transactions": ["delivery", "pickup"], "price": "$$", "location": {"address1": "98 Rivington St", "address2": "", "address3": null, "city": "New York", "zip_code": "10002", "country": "US", "state": "NY", "display_address": ["98 Rivington St", "New York, NY 10002"]}, "phone": "+12123589800", "display_phone": "(212) 358-9800", "distance": 4617.178596618259}, {"id": "jz9QXgIAW3192pn8bzg9bw", "alias": "bar-feroce-new-york-4", "name": "Bar Feroce", "image_url": "https://s3-media3.fl.yelpcdn.com/bphoto/uh-qfm1nsc7udMXEdrPCTQ/o.jpg", "is_closed": false, "url": "https://www.yelp.com/biz/bar-feroce-new-york-4?adjust_creative=9gNmiWYX8uTbFBeTTvJMdA&utm_campaign=yelp_api_v3&utm_medium=api_v3_business_search&utm_source=9gNmiWYX8uTbFBeTTvJMdA", "review_count": 25, "categories": [{"alias": "lounges", "title": "Lounges"}], "rating": 4.0, "coordinates": {"latitude": 40.7464216153208, "longitude": -73.99052511957399}, "transactions": [], "location": {"address1": "105 W 28th St", "address2": null, "address3": null, "city": "New York City", "zip_code": "10001", "country": "US", "state": "NY", "display_address": ["105 W 28th St", "New York City, NY 10001"]}, "phone": "+12125146699", "display_phone": "(212) 514-6699", "distance": 2263.943305469867}, {"id": "3xd4L_TdfdhuCjAzJecs6A", "alias": "michaelangelos-little-italy-bronx-3", "name": "Michaelangelo's Little Italy", "image_url": "https://s3-media4.fl.yelpcdn.com/bphoto/E3scKDL72aok3G4y_tXv9w/o.jpg", "is_closed": false, "url": "https://www.yelp.com/biz/michaelangelos-little-italy-bronx-3?adjust_creative=9gNmiWYX8uTbFBeTTvJMdA&utm_campaign=yelp_api_v3&utm_medium=api_v3_business_search&utm_source=9gNmiWYX8uTbFBeTTvJMdA", "review_count": 256, "categories": [{"alias": "lounges", "title": "Lounges"}, {"alias": "italian", "title": "Italian"}, {"alias": "wine_bars", "title": "Wine Bars"}], "rating": 3.5, "coordinates": {"latitude": 40.8573321267268, "longitude": -73.8862630999689}, "transactions": ["delivery", "pickup"], "price": "$$", "location": {"address1": "2477 Arthur Ave", "address2": null, "address3": null, "city": "Bronx", "zip_code": "10458", "country": "US", "state": "NY", "display_address": ["2477 Arthur Ave", "Bronx, NY 10458"]}, "phone": "+17182208355", "display_phone": "(718) 220-8355", "distance": 12972.767952555783}, {"id": "LQakVBka0axtU8IwOzXyIg", "alias": "barge-inn-jersey-city", "name": "Barge Inn", "image_url": "https://s3-media3.fl.yelpcdn.com/bphoto/S0ZxqefvXiMVZDDuD8d_Jw/o.jpg", "is_closed": false, "url": "https://www.yelp.com/biz/barge-inn-jersey-city?adjust_creative=9gNmiWYX8uTbFBeTTvJMdA&utm_campaign=yelp_api_v3&utm_medium=api_v3_business_search&utm_source=9gNmiWYX8uTbFBeTTvJMdA", "review_count": 115, "categories": [{"alias": "italian", "title": "Italian"}, {"alias": "seafood", "title": "Seafood"}], "rating": 4.0, "coordinates": {"latitude": 40.72374217114712, "longitude": -74.0489489727455}, "transactions": ["delivery", "pickup"], "price": "$$", "location": {"address1": "324 3rd St", "address2": null, "address3": null, "city": "Jersey City", "zip_code": "07302", "country": "US", "state": "NJ", "display_address": ["324 3rd St", "Jersey City, NJ 07302"]}, "phone": "+12014203268", "display_phone": "(201) 420-3268", "distance": 7761.537855381249}, {"id": "AbNXFnI4OlWZvsQLGKf64w", "alias": "dino-brooklyn", "name": "Dino", "image_url": "https://s3-media1.fl.yelpcdn.com/bphoto/gykIyYnSdKEBA7relNOkig/o.jpg", "is_closed": false, "url": "https://www.yelp.com/biz/dino-brooklyn?adjust_creative=9gNmiWYX8uTbFBeTTvJMdA&utm_campaign=yelp_api_v3&utm_medium=api_v3_business_search&utm_source=9gNmiWYX8uTbFBeTTvJMdA", "review_count": 335, "categories": [{"alias": "italian", "title": "Italian"}], "rating": 3.5, "coordinates": {"latitude": 40.68941, "longitude": -73.97047}, "transactions": ["delivery", "pickup"], "price": "$$", "location": {"address1": "222 Dekalb Ave", "address2": "", "address3": "", "city": "Brooklyn", "zip_code": "11205", "country": "US", "state": "NY", "display_address": ["222 Dekalb Ave", "Brooklyn, NY 11205"]}, "phone": "+17182221999", "display_phone": "(718) 222-1999", "distance": 7759.560482910758}, {"id": "8SehQovJOuQDLbtzLLYLyw", "alias": "rh-rooftop-restaurant-new-york-new-york-2", "name": "RH Rooftop Restaurant New York", "image_url": "https://s3-media3.fl.yelpcdn.com/bphoto/qNQTyRt8yeJ8q9Tzc2BBLA/o.jpg", "is_closed": false, "url": "https://www.yelp.com/biz/rh-rooftop-restaurant-new-york-new-york-2?adjust_creative=9gNmiWYX8uTbFBeTTvJMdA&utm_campaign=yelp_api_v3&utm_medium=api_v3_business_search&utm_source=9gNmiWYX8uTbFBeTTvJMdA", "review_count": 761, "categories": [{"alias": "tradamerican", "title": "American (Traditional)"}, {"alias": "wine_bars", "title": "Wine Bars"}], "rating": 4.0, "coordinates": {"latitude": 40.73985, "longitude": -74.00639}, "transactions": [], "price": "$$$", "location": {"address1": "9 9th Ave", "address2": null, "address3": "", "city": "New York", "zip_code": "10014", "country": "US", "state": "NY", "display_address": ["9 9th Ave", "New York, NY 10014"]}, "phone": "+12122172210", "display_phone": "(212) 217-2210", "distance": 3772.9912515016676}, {"id": "unjqnjSjpdGyP2Gqg0qJVA", "alias": "marcellino-tratoria-and-pizzeria-new-york-2", "name": "marcellino tratoria & pizzeria", "image_url": "https://s3-media4.fl.yelpcdn.com/bphoto/xV47e75VlLM7DZhDPhDJyw/o.jpg", "is_closed": false, "url": "https://www.yelp.com/biz/marcellino-tratoria-and-pizzeria-new-york-2?adjust_creative=9gNmiWYX8uTbFBeTTvJMdA&utm_campaign=yelp_api_v3&utm_medium=api_v3_business_search&utm_source=9gNmiWYX8uTbFBeTTvJMdA", "review_count": 148, "categories": [{"alias": "pizza", "title": "Pizza"}, {"alias": "italian", "title": "Italian"}, {"alias": "cocktailbars", "title": "Cocktail Bars"}], "rating": 4.0, "coordinates": {"latitude": 40.72066, "longitude": -73.99666}, "transactions": ["delivery", "pickup"], "price": "$$", "location": {"address1": "178 Mulberry St", "address2": null, "address3": "", "city": "New York", "zip_code": "10012", "country": "US", "state": "NY", "display_address": ["178 Mulberry St", "New York, NY 10012"]}, "phone": "+16469984576", "display_phone": "(646) 998-4576", "distance": 4852.926956337914}, {"id": "5CG_RTpVj1DT4SCRRwdKUA", "alias": "lasagna-loca-north-bergen", "name": "Lasagna Loca", "image_url": "https://s3-media2.fl.yelpcdn.com/bphoto/EV1UGQ-YdJJuNvLKfq6CfA/o.jpg", "is_closed": false, "url": "https://www.yelp.com/biz/lasagna-loca-north-bergen?adjust_creative=9gNmiWYX8uTbFBeTTvJMdA&utm_campaign=yelp_api_v3&utm_medium=api_v3_business_search&utm_source=9gNmiWYX8uTbFBeTTvJMdA", "review_count": 22, "categories": [{"alias": "italian", "title": "Italian"}, {"alias": "fooddeliveryservices", "title": "Food Delivery Services"}, {"alias": "dominican", "title": "Dominican"}], "rating": 4.5, "coordinates": {"latitude": 40.78287, "longitude": -74.03339}, "transactions": ["delivery", "pickup"], "location": {"address1": "4305 Bergen Tpke", "address2": null, "address3": "", "city": "North Bergen", "zip_code": "07047", "country": "US", "state": "NJ", "display_address": ["4305 Bergen Tpke", "North Bergen, NJ 07047"]}, "phone": "+12017138974", "display_phone": "(201) 713-8974", "distance": 5997.7726432555155}, {"id": "hHcSeWPxAzIKecuWKcNqOA", "alias": "modern-restaurant-and-lounge-new-rochelle", "name": "Modern Restaurant & Lounge", "image_url": "https://s3-media2.fl.yelpcdn.com/bphoto/i2ghm55gLcNQw7Cm3IZoUw/o.jpg", "is_closed": false, "url": "https://www.yelp.com/biz/modern-restaurant-and-lounge-new-rochelle?adjust_creative=9gNmiWYX8uTbFBeTTvJMdA&utm_campaign=yelp_api_v3&utm_medium=api_v3_business_search&utm_source=9gNmiWYX8uTbFBeTTvJMdA", "review_count": 303, "categories": [{"alias": "italian", "title": "Italian"}, {"alias": "lounges", "title": "Lounges"}, {"alias": "wine_bars", "title": "Wine Bars"}], "rating": 4.0, "coordinates": {"latitude": 40.9088444, "longitude": -73.7843019}, "transactions": ["delivery"], "price": "$$", "location": {"address1": "310 Huguenot St", "address2": "", "address3": "", "city": "New Rochelle", "zip_code": "10801", "country": "US", "state": "NY", "display_address": ["310 Huguenot St", "New Rochelle, NY 10801"]}, "phone": "+19146339479", "display_phone": "(914) 633-9479", "distance": 22803.636724972595}, {"id": "FON3TceJNsTC0I0mzBwOKg", "alias": "fig-and-olive-new-york-10", "name": "Fig & Olive", "image_url": "https://s3-media2.fl.yelpcdn.com/bphoto/yy8_p9mdkQbG1Z8mvdRBjQ/o.jpg", "is_closed": false, "url": "https://www.yelp.com/biz/fig-and-olive-new-york-10?adjust_creative=9gNmiWYX8uTbFBeTTvJMdA&utm_campaign=yelp_api_v3&utm_medium=api_v3_business_search&utm_source=9gNmiWYX8uTbFBeTTvJMdA", "review_count": 1246, "categories": [{"alias": "mediterranean", "title": "Mediterranean"}, {"alias": "french", "title": "French"}, {"alias": "bars", "title": "Bars"}], "rating": 3.5, "coordinates": {"latitude": 40.75938, "longitude": -73.97558}, "transactions": ["delivery", "pickup"], "price": "$$$", "location": {"address1": "10 E 52nd St", "address2": "", "address3": "", "city": "New York", "zip_code": "10022", "country": "US", "state": "NY", "display_address": ["10 E 52nd St", "New York, NY 10022"]}, "phone": "+12123192002", "display_phone": "(212) 319-2002", "distance": 510.9112703575811}, {"id": "-2aMphgYYnoxncuZ7xI3Gw", "alias": "bierhaus-nyc-new-york-4", "name": "Bierhaus NYC", "image_url": "https://s3-media2.fl.yelpcdn.com/bphoto/KxKFQ4qV5158Fa5yK-rd0Q/o.jpg", "is_closed": false, "url": "https://www.yelp.com/biz/bierhaus-nyc-new-york-4?adjust_creative=9gNmiWYX8uTbFBeTTvJMdA&utm_campaign=yelp_api_v3&utm_medium=api_v3_business_search&utm_source=9gNmiWYX8uTbFBeTTvJMdA", "review_count": 988, "categories": [{"alias": "german", "title": "German"}, {"alias": "sportsbars", "title": "Sports Bars"}], "rating": 4.0, "coordinates": {"latitude": 40.75261, "longitude": -73.97342}, "transactions": ["delivery", "restaurant_reservation", "pickup"], "price": "$$", "location": {"address1": "712 3rd Ave", "address2": "", "address3": "", "city": "New York", "zip_code": "10017", "country": "US", "state": "NY", "display_address": ["712 3rd Ave", "New York, NY 10017"]}, "phone": "+12128672337", "display_phone": "(212) 867-2337", "distance": 798.6156877167812}, {"id": "iOTue4S5CcbG7mFuP9mHew", "alias": "caf\u00e9-serafina-new-york", "name": "Caf\u00e9 Serafina", "image_url": "https://s3-media2.fl.yelpcdn.com/bphoto/T8G1XtZcviuhPuvzJy6k-A/o.jpg", "is_closed": false, "url": "https://www.yelp.com/biz/caf%C3%A9-serafina-new-york?adjust_creative=9gNmiWYX8uTbFBeTTvJMdA&utm_campaign=yelp_api_v3&utm_medium=api_v3_business_search&utm_source=9gNmiWYX8uTbFBeTTvJMdA", "review_count": 34, "categories": [{"alias": "cafes", "title": "Cafes"}, {"alias": "italian", "title": "Italian"}, {"alias": "pizza", "title": "Pizza"}], "rating": 3.0, "coordinates": {"latitude": 40.76634, "longitude": -73.97963}, "transactions": ["delivery", "pickup"], "location": {"address1": "922 7th Ave", "address2": null, "address3": "", "city": "New York", "zip_code": "10019", "country": "US", "state": "NY", "display_address": ["922 7th Ave", "New York, NY 10019"]}, "phone": "", "display_phone": "", "distance": 1173.5997333661408}, {"id": "Tgi-rDD3mxFi9uGybZxdaQ", "alias": "faun-brooklyn", "name": "Faun", "image_url": "https://s3-media2.fl.yelpcdn.com/bphoto/UXoSMzNi0gEqWIHMRpgQEg/o.jpg", "is_closed": false, "url": "https://www.yelp.com/biz/faun-brooklyn?adjust_creative=9gNmiWYX8uTbFBeTTvJMdA&utm_campaign=yelp_api_v3&utm_medium=api_v3_business_search&utm_source=9gNmiWYX8uTbFBeTTvJMdA", "review_count": 216, "categories": [{"alias": "italian", "title": "Italian"}, {"alias": "newamerican", "title": "American (New)"}, {"alias": "bars", "title": "Bars"}], "rating": 4.0, "coordinates": {"latitude": 40.678271, "longitude": -73.968883}, "transactions": ["delivery", "pickup"], "price": "$$$", "location": {"address1": "606 Vanderbilt Ave", "address2": null, "address3": "", "city": "Brooklyn", "zip_code": "11238", "country": "US", "state": "NY", "display_address": ["606 Vanderbilt Ave", "Brooklyn, NY 11238"]}, "phone": "+17185766120", "display_phone": "(718) 576-6120", "distance": 8996.26018134349}, {"id": "HuU2IGPfQ23FTOGDQg0Ieg", "alias": "four-five-six-brooklyn", "name": "Four Five Six", "image_url": "https://s3-media3.fl.yelpcdn.com/bphoto/NK9cktavJQgXkpVvbpAH7Q/o.jpg", "is_closed": false, "url": "https://www.yelp.com/biz/four-five-six-brooklyn?adjust_creative=9gNmiWYX8uTbFBeTTvJMdA&utm_campaign=yelp_api_v3&utm_medium=api_v3_business_search&utm_source=9gNmiWYX8uTbFBeTTvJMdA", "review_count": 76, "categories": [{"alias": "bars", "title": "Bars"}, {"alias": "mediterranean", "title": "Mediterranean"}], "rating": 4.5, "coordinates": {"latitude": 40.719181, "longitude": -73.943149}, "transactions": ["delivery", "pickup"], "price": "$$", "location": {"address1": "199 Richardson St", "address2": "", "address3": null, "city": "Brooklyn", "zip_code": "11222", "country": "US", "state": "NY", "display_address": ["199 Richardson St", "Brooklyn, NY 11222"]}, "phone": "+13479160286", "display_phone": "(347) 916-0286", "distance": 4973.246086920079}, {"id": "k1CZco0zQH_DoKxHLsqclQ", "alias": "la-bottiglia-staten-island", "name": "La Bottiglia", "image_url": "https://s3-media3.fl.yelpcdn.com/bphoto/ub20Rwhp2g9Eh9AGYkFZ4A/o.jpg", "is_closed": false, "url": "https://www.yelp.com/biz/la-bottiglia-staten-island?adjust_creative=9gNmiWYX8uTbFBeTTvJMdA&utm_campaign=yelp_api_v3&utm_medium=api_v3_business_search&utm_source=9gNmiWYX8uTbFBeTTvJMdA", "review_count": 9, "categories": [{"alias": "italian", "title": "Italian"}, {"alias": "bars", "title": "Bars"}], "rating": 4.5, "coordinates": {"latitude": 40.63418, "longitude": -74.13582}, "transactions": [], "location": {"address1": "293 Port Richmond Ave", "address2": null, "address3": "", "city": "Staten Island", "zip_code": "10302", "country": "US", "state": "NY", "display_address": ["293 Port Richmond Ave", "Staten Island, NY 10302"]}, "phone": "+19293640505", "display_phone": "(929) 364-0505", "distance": 19735.580631871802}, {"id": "afuiZyn9oOyyCpuW7wGfHQ", "alias": "l-antica-pizzeria-da-michele-taverna-and-cafe-new-york", "name": "L'antica Pizzeria da Michele Taverna and Cafe", "image_url": "https://s3-media1.fl.yelpcdn.com/bphoto/I8YyoJeyozTWf8fLXZV--Q/o.jpg", "is_closed": false, "url": "https://www.yelp.com/biz/l-antica-pizzeria-da-michele-taverna-and-cafe-new-york?adjust_creative=9gNmiWYX8uTbFBeTTvJMdA&utm_campaign=yelp_api_v3&utm_medium=api_v3_business_search&utm_source=9gNmiWYX8uTbFBeTTvJMdA", "review_count": 1, "categories": [{"alias": "pizza", "title": "Pizza"}, {"alias": "cafes", "title": "Cafes"}], "rating": 4.0, "coordinates": {"latitude": 40.737052, "longitude": -74.001571}, "transactions": [], "location": {"address1": "81 Greenwich Ave", "address2": null, "address3": "", "city": "New York", "zip_code": "10014", "country": "US", "state": "NY", "display_address": ["81 Greenwich Ave", "New York, NY 10014"]}, "phone": "+19295246682", "display_phone": "(929) 524-6682", "distance": 3654.4434311913246}, {"id": "uboO7T3XSnl8iq0uQWhMXA", "alias": "altro-paradiso-new-york", "name": "Altro Paradiso", "image_url": "https://s3-media4.fl.yelpcdn.com/bphoto/cVqEXarIF3zmaZVcACH8jw/o.jpg", "is_closed": false, "url": "https://www.yelp.com/biz/altro-paradiso-new-york?adjust_creative=9gNmiWYX8uTbFBeTTvJMdA&utm_campaign=yelp_api_v3&utm_medium=api_v3_business_search&utm_source=9gNmiWYX8uTbFBeTTvJMdA", "review_count": 229, "categories": [{"alias": "italian", "title": "Italian"}], "rating": 3.5, "coordinates": {"latitude": 40.72549, "longitude": -74.00489}, "transactions": ["delivery"], "price": "$$$", "location": {"address1": "234 Spring St", "address2": "", "address3": "", "city": "New York", "zip_code": "10013", "country": "US", "state": "NY", "display_address": ["234 Spring St", "New York, NY 10013"]}, "phone": "+16469520828", "display_phone": "(646) 952-0828", "distance": 4794.123087731606}, {"id": "vQi_guy6mFWGCCUMEFoUVg", "alias": "tavern-61-restaurant-hackensack", "name": "Tavern 61 Restaurant", "image_url": "https://s3-media2.fl.yelpcdn.com/bphoto/s_FgSLjj_fhgFkVXZnh-Ow/o.jpg", "is_closed": false, "url": "https://www.yelp.com/biz/tavern-61-restaurant-hackensack?adjust_creative=9gNmiWYX8uTbFBeTTvJMdA&utm_campaign=yelp_api_v3&utm_medium=api_v3_business_search&utm_source=9gNmiWYX8uTbFBeTTvJMdA", "review_count": 16, "categories": [{"alias": "burgers", "title": "Burgers"}, {"alias": "chicken_wings", "title": "Chicken Wings"}, {"alias": "pizza", "title": "Pizza"}], "rating": 4.5, "coordinates": {"latitude": 40.87955, "longitude": -74.04168}, "transactions": ["delivery", "pickup"], "location": {"address1": "61 River St", "address2": null, "address3": "", "city": "Hackensack", "zip_code": "07601", "country": "US", "state": "NJ", "display_address": ["61 River St", "Hackensack, NJ 07601"]}, "phone": "+12019756735", "display_phone": "(201) 975-6735", "distance": 14705.938121896854}, {"id": "6qnWAPjJ7UER4QLCtotyBw", "alias": "amor-y-amargo-new-york", "name": "Amor y Amargo", "image_url": "https://s3-media1.fl.yelpcdn.com/bphoto/H1J43_EOPxUg7N_B-Qgc_g/o.jpg", "is_closed": false, "url": "https://www.yelp.com/biz/amor-y-amargo-new-york?adjust_creative=9gNmiWYX8uTbFBeTTvJMdA&utm_campaign=yelp_api_v3&utm_medium=api_v3_business_search&utm_source=9gNmiWYX8uTbFBeTTvJMdA", "review_count": 504, "categories": [{"alias": "cocktailbars", "title": "Cocktail Bars"}, {"alias": "vermouthbars", "title": "Vermouth Bars"}], "rating": 4.0, "coordinates": {"latitude": 40.72572, "longitude": -73.98428}, "transactions": ["delivery", "pickup"], "price": "$$", "location": {"address1": "443 E 6th St", "address2": "", "address3": "", "city": "New York", "zip_code": "10009", "country": "US", "state": "NY", "display_address": ["443 E 6th St", "New York, NY 10009"]}, "phone": "+18333284588", "display_phone": "(833) 328-4588", "distance": 3919.8317878990724}, {"id": "1uOB_tWZwvI0_HakXfu5Jg", "alias": "nicks-pizza-new-york", "name": "Nick's Pizza", "image_url": "https://s3-media1.fl.yelpcdn.com/bphoto/JEUcj1mLtAuwISgiFOPWEg/o.jpg", "is_closed": false, "url": "https://www.yelp.com/biz/nicks-pizza-new-york?adjust_creative=9gNmiWYX8uTbFBeTTvJMdA&utm_campaign=yelp_api_v3&utm_medium=api_v3_business_search&utm_source=9gNmiWYX8uTbFBeTTvJMdA", "review_count": 584, "categories": [{"alias": "italian", "title": "Italian"}, {"alias": "pizza", "title": "Pizza"}], "rating": 4.0, "coordinates": {"latitude": 40.78272735790179, "longitude": -73.9478073}, "transactions": ["delivery", "pickup"], "price": "$$", "location": {"address1": "1814 2nd Ave", "address2": "", "address3": "", "city": "New York", "zip_code": "10128", "country": "US", "state": "NY", "display_address": ["1814 2nd Ave", "New York, NY 10128"]}, "phone": "+12129875700", "display_phone": "(212) 987-5700", "distance": 3196.6625542519714}], "total": 4600, "region": {"center": {"longitude": -73.96957397460938, "latitude": 40.75917470627005}}}