{"businesses": [{"id": "qs5x7OfTtpgQ4xQeN7N4Iw", "alias": "saraghina-caff\u00e8-brooklyn-2", "name": "Saraghina Caff\u00e8", "image_url": "https://s3-media1.fl.yelpcdn.com/bphoto/a2qEDFVjo2ZhucEAZDCc7g/o.jpg", "is_closed": false, "url": "https://www.yelp.com/biz/saraghina-caff%C3%A8-brooklyn-2?adjust_creative=9gNmiWYX8uTbFBeTTvJMdA&utm_campaign=yelp_api_v3&utm_medium=api_v3_business_search&utm_source=9gNmiWYX8uTbFBeTTvJMdA", "review_count": 46, "categories": [{"alias": "italian", "title": "Italian"}, {"alias": "cocktailbars", "title": "Cocktail Bars"}], "rating": 3.0, "coordinates": {"latitude": 40.6897188, "longitude": -73.9719095}, "transactions": [], "location": {"address1": "195 DeKalb Ave, Brooklyn, NY 11205", "address2": null, "address3": "", "city": "Brooklyn", "zip_code": "11205", "country": "US", "state": "NY", "display_address": ["195 DeKalb Ave, Brooklyn, NY 11205", "Brooklyn, NY 11205"]}, "phone": "+17183274224", "display_phone": "(718) 327-4224", "distance": 7726.990493400841}, {"id": "yzOew6wou7fu51dyn6pNeQ", "alias": "macosa-trattoria-brooklyn", "name": "Macosa Trattoria", "image_url": "https://s3-media2.fl.yelpcdn.com/bphoto/ZPhJBIVrGb7RjZa7z8LgqA/o.jpg", "is_closed": false, "url": "https://www.yelp.com/biz/macosa-trattoria-brooklyn?adjust_creative=9gNmiWYX8uTbFBeTTvJMdA&utm_campaign=yelp_api_v3&utm_medium=api_v3_business_search&utm_source=9gNmiWYX8uTbFBeTTvJMdA", "review_count": 50, "categories": [{"alias": "italian", "title": "Italian"}, {"alias": "comfortfood", "title": "Comfort Food"}], "rating": 4.5, "coordinates": {"latitude": 40.6872641, "longitude": -73.9449562}, "transactions": ["pickup", "delivery"], "location": {"address1": "310 Tompkins Ave", "address2": null, "address3": "", "city": "Brooklyn", "zip_code": "11216", "country": "US", "state": "NY", "display_address": ["310 Tompkins Ave", "Brooklyn, NY 11216"]}, "phone": "+16465747866", "display_phone": "(646) 574-7866", "distance": 8259.87435372184}, {"id": "0sR9gXJYvnSuEUaqiEmvRg", "alias": "ninos-restaurant-new-york", "name": "Nino's Restaurant", "image_url": "https://s3-media1.fl.yelpcdn.com/bphoto/HwkRV_WV6cJPTYnAZ6a_Tg/o.jpg", "is_closed": false, "url": "https://www.yelp.com/biz/ninos-restaurant-new-york?adjust_creative=9gNmiWYX8uTbFBeTTvJMdA&utm_campaign=yelp_api_v3&utm_medium=api_v3_business_search&utm_source=9gNmiWYX8uTbFBeTTvJMdA", "review_count": 290, "categories": [{"alias": "italian", "title": "Italian"}], "rating": 3.5, "coordinates": {"latitude": 40.768115, "longitude": -73.955328}, "transactions": ["pickup", "delivery"], "price": "$$$", "location": {"address1": "1354 1st Ave", "address2": "", "address3": "", "city": "New York", "zip_code": "10021", "country": "US", "state": "NY", "display_address": ["1354 1st Ave", "New York, NY 10021"]}, "phone": "+12129880002", "display_phone": "(212) 988-0002", "distance": 1558.1314076137728}, {"id": "IZ9-5z45wc3Oh_jlnX_Kcg", "alias": "giuseppinas-brooklyn", "name": "Giuseppina's", "image_url": "https://s3-media3.fl.yelpcdn.com/bphoto/38q6KTMRVd0NiwlQ7GiBKw/o.jpg", "is_closed": false, "url": "https://www.yelp.com/biz/giuseppinas-brooklyn?adjust_creative=9gNmiWYX8uTbFBeTTvJMdA&utm_campaign=yelp_api_v3&utm_medium=api_v3_business_search&utm_source=9gNmiWYX8uTbFBeTTvJMdA", "review_count": 348, "categories": [{"alias": "pizza", "title": "Pizza"}], "rating": 4.5, "coordinates": {"latitude": 40.6603430973463, "longitude": -73.9907741546631}, "transactions": ["pickup"], "price": "$$", "location": {"address1": "691 6th Ave", "address2": null, "address3": null, "city": "Brooklyn", "zip_code": "11215", "country": "US", "state": "NY", "display_address": ["691 6th Ave", "Brooklyn, NY 11215"]}, "phone": "+17184995052", "display_phone": "(718) 499-5052", "distance": 11133.892397528736}, {"id": "ufntl2yxDlAzPJ6G73eAcQ", "alias": "regional-restaurant-new-york", "name": "Regional Restaurant", "image_url": "https://s3-media3.fl.yelpcdn.com/bphoto/gz9Nvj-hSyF-AvpdkJ3J3w/o.jpg", "is_closed": false, "url": "https://www.yelp.com/biz/regional-restaurant-new-york?adjust_creative=9gNmiWYX8uTbFBeTTvJMdA&utm_campaign=yelp_api_v3&utm_medium=api_v3_business_search&utm_source=9gNmiWYX8uTbFBeTTvJMdA", "review_count": 410, "categories": [{"alias": "italian", "title": "Italian"}], "rating": 3.0, "coordinates": {"latitude": 40.79625, "longitude": -73.97094}, "transactions": ["pickup", "delivery"], "price": "$$", "location": {"address1": "2607 Broadway", "address2": "", "address3": "", "city": "New York", "zip_code": "10025", "country": "US", "state": "NY", "display_address": ["2607 Broadway", "New York, NY 10025"]}, "phone": "+12126661915", "display_phone": "(212) 666-1915", "distance": 4128.517304215624}, {"id": "00g7JyC684Lzx8Mma_kH1g", "alias": "m-and-pizza-new-york", "name": "M & Pizza", "image_url": "https://s3-media2.fl.yelpcdn.com/bphoto/E6rRpqkKOYXYN-162T_GFQ/o.jpg", "is_closed": false, "url": "https://www.yelp.com/biz/m-and-pizza-new-york?adjust_creative=9gNmiWYX8uTbFBeTTvJMdA&utm_campaign=yelp_api_v3&utm_medium=api_v3_business_search&utm_source=9gNmiWYX8uTbFBeTTvJMdA", "review_count": 10, "categories": [{"alias": "pizza", "title": "Pizza"}, {"alias": "coffee", "title": "Coffee & Tea"}, {"alias": "breakfast_brunch", "title": "Breakfast & Brunch"}], "rating": 4.0, "coordinates": {"latitude": 40.75995, "longitude": -73.99175}, "transactions": ["pickup", "delivery"], "location": {"address1": "625 9th Ave", "address2": null, "address3": "", "city": "New York", "zip_code": "10036", "country": "US", "state": "NY", "display_address": ["625 9th Ave", "New York, NY 10036"]}, "phone": "+12128371143", "display_phone": "(212) 837-1143", "distance": 1874.7089330776678}, {"id": "I2TkwsQF8iEZKz-aSPNtuA", "alias": "sogno-toscano-market-and-wine-new-york", "name": "Sogno Toscano Market & Wine", "image_url": "https://s3-media3.fl.yelpcdn.com/bphoto/yDxwUNPJLIhqLDB2BApf2w/o.jpg", "is_closed": false, "url": "https://www.yelp.com/biz/sogno-toscano-market-and-wine-new-york?adjust_creative=9gNmiWYX8uTbFBeTTvJMdA&utm_campaign=yelp_api_v3&utm_medium=api_v3_business_search&utm_source=9gNmiWYX8uTbFBeTTvJMdA", "review_count": 60, "categories": [{"alias": "wine_bars", "title": "Wine Bars"}, {"alias": "gourmet", "title": "Specialty Food"}, {"alias": "coffee", "title": "Coffee & Tea"}], "rating": 4.5, "coordinates": {"latitude": 40.73583, "longitude": -74.0019}, "transactions": ["pickup", "delivery"], "location": {"address1": "17 Perry St", "address2": null, "address3": "", "city": "New York", "zip_code": "10014", "country": "US", "state": "NY", "display_address": ["17 Perry St", "New York, NY 10014"]}, "phone": "+13475696172", "display_phone": "(347) 569-6172", "distance": 3760.0609724930064}, {"id": "EsF2snil1ysNFXmxz2zTWA", "alias": "giovannis-bicycle-club-englewood-cliffs", "name": "Giovanni's Bicycle Club", "image_url": "https://s3-media4.fl.yelpcdn.com/bphoto/PT3swTyiBOnEOvhpB0vJCg/o.jpg", "is_closed": false, "url": "https://www.yelp.com/biz/giovannis-bicycle-club-englewood-cliffs?adjust_creative=9gNmiWYX8uTbFBeTTvJMdA&utm_campaign=yelp_api_v3&utm_medium=api_v3_business_search&utm_source=9gNmiWYX8uTbFBeTTvJMdA", "review_count": 185, "categories": [{"alias": "italian", "title": "Italian"}, {"alias": "wine_bars", "title": "Wine Bars"}, {"alias": "cocktailbars", "title": "Cocktail Bars"}], "rating": 4.0, "coordinates": {"latitude": 40.87934, "longitude": -73.95134}, "transactions": ["pickup", "delivery"], "price": "$$", "location": {"address1": "487 Sylvan Ave", "address2": null, "address3": "", "city": "Englewood Cliffs", "zip_code": "07632", "country": "US", "state": "NJ", "display_address": ["487 Sylvan Ave", "Englewood Cliffs, NJ 07632"]}, "phone": "+12018940880", "display_phone": "(201) 894-0880", "distance": 13450.661021074267}, {"id": "8qSOz7oTPUUCafsMOBBNEQ", "alias": "pisillo-italian-panini-new-york", "name": "Pisillo Italian Panini", "image_url": "https://s3-media1.fl.yelpcdn.com/bphoto/w839ORjvJ3U-80uNAjDe4g/o.jpg", "is_closed": false, "url": "https://www.yelp.com/biz/pisillo-italian-panini-new-york?adjust_creative=9gNmiWYX8uTbFBeTTvJMdA&utm_campaign=yelp_api_v3&utm_medium=api_v3_business_search&utm_source=9gNmiWYX8uTbFBeTTvJMdA", "review_count": 705, "categories": [{"alias": "italian", "title": "Italian"}, {"alias": "sandwiches", "title": "Sandwiches"}], "rating": 4.5, "coordinates": {"latitude": 40.710558, "longitude": -74.007594}, "transactions": ["pickup", "delivery"], "price": "$$", "location": {"address1": "97 Nassau St", "address2": "", "address3": "", "city": "New York", "zip_code": "10038", "country": "US", "state": "NY", "display_address": ["97 Nassau St", "New York, NY 10038"]}, "phone": "+12122273104", "display_phone": "(212) 227-3104", "distance": 6283.789053390054}, {"id": "LA7riLKSg-aBLgTY4fT8GQ", "alias": "sarabeths-central-park-new-york", "name": "Sarabeths - Central Park", "image_url": "https://s3-media2.fl.yelpcdn.com/bphoto/6mHMwDA0YksJQt88Nm7u0g/o.jpg", "is_closed": false, "url": "https://www.yelp.com/biz/sarabeths-central-park-new-york?adjust_creative=9gNmiWYX8uTbFBeTTvJMdA&utm_campaign=yelp_api_v3&utm_medium=api_v3_business_search&utm_source=9gNmiWYX8uTbFBeTTvJMdA", "review_count": 2067, "categories": [{"alias": "breakfast_brunch", "title": "Breakfast & Brunch"}, {"alias": "tradamerican", "title": "American (Traditional)"}, {"alias": "cocktailbars", "title": "Cocktail Bars"}], "rating": 3.5, "coordinates": {"latitude": 40.765309133261134, "longitude": -73.97575546667402}, "transactions": ["pickup", "delivery"], "price": "$$", "location": {"address1": "40 Central Park S", "address2": null, "address3": null, "city": "New York", "zip_code": "10019", "country": "US", "state": "NY", "display_address": ["40 Central Park S", "New York, NY 10019"]}, "phone": "+12128265959", "display_phone": "(212) 826-5959", "distance": 858.0932792443599}, {"id": "NsCmrhNRzn7iA6amdSdymQ", "alias": "casa-giuseppe-lyndhurst", "name": "Casa Giuseppe", "image_url": "https://s3-media3.fl.yelpcdn.com/bphoto/dBV7DLgnhQXFBfAus6qkLQ/o.jpg", "is_closed": false, "url": "https://www.yelp.com/biz/casa-giuseppe-lyndhurst?adjust_creative=9gNmiWYX8uTbFBeTTvJMdA&utm_campaign=yelp_api_v3&utm_medium=api_v3_business_search&utm_source=9gNmiWYX8uTbFBeTTvJMdA", "review_count": 117, "categories": [{"alias": "italian", "title": "Italian"}], "rating": 4.5, "coordinates": {"latitude": 40.81029, "longitude": -74.12108}, "transactions": ["delivery"], "price": "$$$", "location": {"address1": "503 Valley Brook Ave", "address2": null, "address3": null, "city": "Lyndhurst", "zip_code": "07071", "country": "US", "state": "NJ", "display_address": ["503 Valley Brook Ave", "Lyndhurst, NJ 07071"]}, "phone": "+12014600060", "display_phone": "(201) 460-0060", "distance": 13969.091099227287}, {"id": "SjG7CnTIuUBIo9T4BThkGQ", "alias": "employees-only-new-york", "name": "Employees Only", "image_url": "https://s3-media3.fl.yelpcdn.com/bphoto/DYmz8eh42wWGxw4xEYpL8w/o.jpg", "is_closed": false, "url": "https://www.yelp.com/biz/employees-only-new-york?adjust_creative=9gNmiWYX8uTbFBeTTvJMdA&utm_campaign=yelp_api_v3&utm_medium=api_v3_business_search&utm_source=9gNmiWYX8uTbFBeTTvJMdA", "review_count": 1586, "categories": [{"alias": "newamerican", "title": "American (New)"}, {"alias": "cocktailbars", "title": "Cocktail Bars"}, {"alias": "desserts", "title": "Desserts"}], "rating": 4.0, "coordinates": {"latitude": 40.73343, "longitude": -74.00617}, "transactions": ["pickup", "delivery"], "price": "$$$", "location": {"address1": "510 Hudson St", "address2": "", "address3": "", "city": "New York", "zip_code": "10014", "country": "US", "state": "NY", "display_address": ["510 Hudson St", "New York, NY 10014"]}, "phone": "+12122423021", "display_phone": "(212) 242-3021", "distance": 4204.347843200584}, {"id": "db2QLlK-0xL7Vq0jG-CcJQ", "alias": "caf\u00e9-bello-bayonne-2", "name": "Caf\u00e9 Bello", "image_url": "https://s3-media3.fl.yelpcdn.com/bphoto/9aQiDNSF2KR-T1CvWSeDWg/o.jpg", "is_closed": false, "url": "https://www.yelp.com/biz/caf%C3%A9-bello-bayonne-2?adjust_creative=9gNmiWYX8uTbFBeTTvJMdA&utm_campaign=yelp_api_v3&utm_medium=api_v3_business_search&utm_source=9gNmiWYX8uTbFBeTTvJMdA", "review_count": 193, "categories": [{"alias": "italian", "title": "Italian"}], "rating": 4.5, "coordinates": {"latitude": 40.68387, "longitude": -74.10426}, "transactions": ["delivery"], "price": "$$", "location": {"address1": "1044 Avenue C", "address2": "", "address3": "", "city": "Bayonne", "zip_code": "07002", "country": "US", "state": "NJ", "display_address": ["1044 Avenue C", "Bayonne, NJ 07002"]}, "phone": "+12014377538", "display_phone": "(201) 437-7538", "distance": 14107.011397691856}, {"id": "l3PV4xTIw-yJUBBGnv5u3A", "alias": "sforno-nyc-new-york", "name": "Sforno NYC", "image_url": "https://s3-media2.fl.yelpcdn.com/bphoto/tl84dcfU3e8gyTKgW6Xpuw/o.jpg", "is_closed": false, "url": "https://www.yelp.com/biz/sforno-nyc-new-york?adjust_creative=9gNmiWYX8uTbFBeTTvJMdA&utm_campaign=yelp_api_v3&utm_medium=api_v3_business_search&utm_source=9gNmiWYX8uTbFBeTTvJMdA", "review_count": 43, "categories": [{"alias": "pizza", "title": "Pizza"}, {"alias": "italian", "title": "Italian"}], "rating": 4.0, "coordinates": {"latitude": 40.789552, "longitude": -73.975894}, "transactions": ["pickup", "delivery"], "location": {"address1": "2393 Broadway", "address2": null, "address3": "", "city": "New York", "zip_code": "10024", "country": "US", "state": "NY", "display_address": ["2393 Broadway", "New York, NY 10024"]}, "phone": "+16465901269", "display_phone": "(646) 590-1269", "distance": 3417.6447393788076}, {"id": "dE_NbpR8bFmZVKNSPFZfUA", "alias": "tramezzini-nyc-new-york", "name": "Tramezzini NYC", "image_url": "https://s3-media1.fl.yelpcdn.com/bphoto/yPeL3V0lL98_9ExIe4rX0w/o.jpg", "is_closed": false, "url": "https://www.yelp.com/biz/tramezzini-nyc-new-york?adjust_creative=9gNmiWYX8uTbFBeTTvJMdA&utm_campaign=yelp_api_v3&utm_medium=api_v3_business_search&utm_source=9gNmiWYX8uTbFBeTTvJMdA", "review_count": 154, "categories": [{"alias": "sandwiches", "title": "Sandwiches"}, {"alias": "italian", "title": "Italian"}], "rating": 4.5, "coordinates": {"latitude": 40.7211848351606, "longitude": -73.983472726423}, "transactions": ["pickup", "delivery"], "price": "$$", "location": {"address1": "309 E Houston", "address2": "", "address3": "", "city": "New York", "zip_code": "10002", "country": "US", "state": "NY", "display_address": ["309 E Houston", "New York, NY 10002"]}, "phone": "+19293405133", "display_phone": "(929) 340-5133", "distance": 4383.568315161401}, {"id": "HcO6Axp1p4udN9jhUerGXg", "alias": "spritz-new-york", "name": "Spritz", "image_url": "https://s3-media2.fl.yelpcdn.com/bphoto/8dGHAURkWZlBK0OlZiRpUw/o.jpg", "is_closed": false, "url": "https://www.yelp.com/biz/spritz-new-york?adjust_creative=9gNmiWYX8uTbFBeTTvJMdA&utm_campaign=yelp_api_v3&utm_medium=api_v3_business_search&utm_source=9gNmiWYX8uTbFBeTTvJMdA", "review_count": 64, "categories": [{"alias": "cocktailbars", "title": "Cocktail Bars"}, {"alias": "pizza", "title": "Pizza"}, {"alias": "italian", "title": "Italian"}], "rating": 3.5, "coordinates": {"latitude": 40.74651424113382, "longitude": -73.98800203612996}, "transactions": ["pickup"], "location": {"address1": "30 W 30th St", "address2": "", "address3": null, "city": "New York", "zip_code": "10001", "country": "US", "state": "NY", "display_address": ["30 W 30th St", "New York, NY 10001"]}, "phone": "", "display_phone": "", "distance": 2095.5573906324585}, {"id": "88T5ILS9juanUPFlcY8UcA", "alias": "ipizzany-new-york-10", "name": "IPizzaNY", "image_url": "https://s3-media3.fl.yelpcdn.com/bphoto/elXDRMF4Z_8-F-8-HsHLFQ/o.jpg", "is_closed": false, "url": "https://www.yelp.com/biz/ipizzany-new-york-10?adjust_creative=9gNmiWYX8uTbFBeTTvJMdA&utm_campaign=yelp_api_v3&utm_medium=api_v3_business_search&utm_source=9gNmiWYX8uTbFBeTTvJMdA", "review_count": 2, "categories": [{"alias": "pizza", "title": "Pizza"}, {"alias": "hotdogs", "title": "Fast Food"}, {"alias": "pastashops", "title": "Pasta Shops"}], "rating": 4.0, "coordinates": {"latitude": 40.744715, "longitude": -73.976175}, "transactions": ["delivery"], "location": {"address1": "621 2nd Ave", "address2": "", "address3": null, "city": "New York", "zip_code": "10016", "country": "US", "state": "NY", "display_address": ["621 2nd Ave", "New York, NY 10016"]}, "phone": "+16465967071", "display_phone": "(646) 596-7071", "distance": 1701.27576541328}, {"id": "el0dqogjimS8DtXaUdEZUw", "alias": "osteria-santina-staten-island", "name": "Osteria  Santina", "image_url": "https://s3-media3.fl.yelpcdn.com/bphoto/wQW8YVRXkFiA7UWN6jjbmQ/o.jpg", "is_closed": false, "url": "https://www.yelp.com/biz/osteria-santina-staten-island?adjust_creative=9gNmiWYX8uTbFBeTTvJMdA&utm_campaign=yelp_api_v3&utm_medium=api_v3_business_search&utm_source=9gNmiWYX8uTbFBeTTvJMdA", "review_count": 37, "categories": [{"alias": "italian", "title": "Italian"}], "rating": 4.0, "coordinates": {"latitude": 40.6246, "longitude": -74.13201}, "transactions": [], "location": {"address1": "502 Jewett Ave", "address2": "", "address3": null, "city": "Staten Island", "zip_code": "10302", "country": "US", "state": "NY", "display_address": ["502 Jewett Ave", "Staten Island, NY 10302"]}, "phone": "+17184486100", "display_phone": "(718) 448-6100", "distance": 20284.717854877916}, {"id": "j8cKSxr6aQ8qTx23FLyyiA", "alias": "the-wayland-new-york", "name": "The Wayland", "image_url": "https://s3-media3.fl.yelpcdn.com/bphoto/t-SSxxNoTysDN3wVSVREVA/o.jpg", "is_closed": false, "url": "https://www.yelp.com/biz/the-wayland-new-york?adjust_creative=9gNmiWYX8uTbFBeTTvJMdA&utm_campaign=yelp_api_v3&utm_medium=api_v3_business_search&utm_source=9gNmiWYX8uTbFBeTTvJMdA", "review_count": 533, "categories": [{"alias": "cocktailbars", "title": "Cocktail Bars"}, {"alias": "musicvenues", "title": "Music Venues"}, {"alias": "tradamerican", "title": "American (Traditional)"}], "rating": 4.5, "coordinates": {"latitude": 40.7251, "longitude": -73.9778}, "transactions": ["delivery"], "price": "$$", "location": {"address1": "700 E 9th St", "address2": "", "address3": "", "city": "New York", "zip_code": "10009", "country": "US", "state": "NY", "display_address": ["700 E 9th St", "New York, NY 10009"]}, "phone": "+12127777022", "display_phone": "(212) 777-7022", "distance": 3853.935774412348}, {"id": "7sfNt4EmWJ61WrdIExB2Ww", "alias": "angelos-restaurant-lyndhurst", "name": "Angelo's Restaurant", "image_url": "https://s3-media3.fl.yelpcdn.com/bphoto/3bZwP1Bib0UbCNA39-ejWw/o.jpg", "is_closed": false, "url": "https://www.yelp.com/biz/angelos-restaurant-lyndhurst?adjust_creative=9gNmiWYX8uTbFBeTTvJMdA&utm_campaign=yelp_api_v3&utm_medium=api_v3_business_search&utm_source=9gNmiWYX8uTbFBeTTvJMdA", "review_count": 120, "categories": [{"alias": "italian", "title": "Italian"}], "rating": 4.0, "coordinates": {"latitude": 40.80979, "longitude": -74.11805}, "transactions": ["delivery"], "price": "$$", "location": {"address1": "263 Ridge Rd", "address2": "", "address3": "", "city": "Lyndhurst", "zip_code": "07071", "country": "US", "state": "NJ", "display_address": ["263 Ridge Rd", "Lyndhurst, NJ 07071"]}, "phone": "+12019391922", "display_phone": "(201) 939-1922", "distance": 13708.258242459822}, {"id": "_0WFGjXuenlBixOlbSlGeQ", "alias": "crown-shy-new-york-2", "name": "Crown Shy", "image_url": "https://s3-media4.fl.yelpcdn.com/bphoto/njOArqiMSNgX9rNBB5ByjA/o.jpg", "is_closed": false, "url": "https://www.yelp.com/biz/crown-shy-new-york-2?adjust_creative=9gNmiWYX8uTbFBeTTvJMdA&utm_campaign=yelp_api_v3&utm_medium=api_v3_business_search&utm_source=9gNmiWYX8uTbFBeTTvJMdA", "review_count": 509, "categories": [{"alias": "newamerican", "title": "American (New)"}, {"alias": "cocktailbars", "title": "Cocktail Bars"}], "rating": 4.0, "coordinates": {"latitude": 40.7063449, "longitude": -74.0076944}, "transactions": [], "price": "$$$$", "location": {"address1": "70 Pine St", "address2": null, "address3": "", "city": "New York", "zip_code": "10005", "country": "US", "state": "NY", "display_address": ["70 Pine St", "New York, NY 10005"]}, "phone": "+12125171932", "display_phone": "(212) 517-1932", "distance": 6682.722323791993}, {"id": "1Pn4Q6b4Zpz1o3dTNPjaow", "alias": "kakes-nyc-queens", "name": "Kakes NYC", "image_url": "https://s3-media1.fl.yelpcdn.com/bphoto/9kNZhaYSqJ97OXYISeVJlg/o.jpg", "is_closed": false, "url": "https://www.yelp.com/biz/kakes-nyc-queens?adjust_creative=9gNmiWYX8uTbFBeTTvJMdA&utm_campaign=yelp_api_v3&utm_medium=api_v3_business_search&utm_source=9gNmiWYX8uTbFBeTTvJMdA", "review_count": 42, "categories": [{"alias": "lounges", "title": "Lounges"}, {"alias": "tradamerican", "title": "American (Traditional)"}, {"alias": "cocktailbars", "title": "Cocktail Bars"}], "rating": 4.0, "coordinates": {"latitude": 40.748899077944536, "longitude": -73.95007129758596}, "transactions": [], "location": {"address1": "10-43 44th Dr", "address2": "", "address3": null, "city": "Queens", "zip_code": "11101", "country": "US", "state": "NY", "display_address": ["10-43 44th Dr", "Queens, NY 11101"]}, "phone": "", "display_phone": "", "distance": 2001.0406735902181}, {"id": "9GPRbrLHvPmLScQVw7L3KA", "alias": "donatos-restaurant-and-pizza-woodside", "name": "Donato's Restaurant and Pizza", "image_url": "https://s3-media4.fl.yelpcdn.com/bphoto/TJeonHE3XIjTiupkjlfSlg/o.jpg", "is_closed": false, "url": "https://www.yelp.com/biz/donatos-restaurant-and-pizza-woodside?adjust_creative=9gNmiWYX8uTbFBeTTvJMdA&utm_campaign=yelp_api_v3&utm_medium=api_v3_business_search&utm_source=9gNmiWYX8uTbFBeTTvJMdA", "review_count": 194, "categories": [{"alias": "pizza", "title": "Pizza"}, {"alias": "italian", "title": "Italian"}, {"alias": "breakfast_brunch", "title": "Breakfast & Brunch"}], "rating": 3.0, "coordinates": {"latitude": 40.748620275297355, "longitude": -73.91300763769813}, "transactions": ["pickup", "delivery"], "price": "$$", "location": {"address1": "50-22 39th Ave", "address2": "", "address3": "", "city": "Woodside", "zip_code": "11377", "country": "US", "state": "NY", "display_address": ["50-22 39th Ave", "Woodside, NY 11377"]}, "phone": "+17185074591", "display_phone": "(718) 507-4591", "distance": 4907.121931861224}, {"id": "BXiX5-ce4NNxsw7eUDZeOg", "alias": "giovannis-brooklyn-eats-brooklyn-2", "name": "Giovanni's Brooklyn Eats", "image_url": "https://s3-media3.fl.yelpcdn.com/bphoto/6j4dImM29pF8V3y2wU5xlA/o.jpg", "is_closed": false, "url": "https://www.yelp.com/biz/giovannis-brooklyn-eats-brooklyn-2?adjust_creative=9gNmiWYX8uTbFBeTTvJMdA&utm_campaign=yelp_api_v3&utm_medium=api_v3_business_search&utm_source=9gNmiWYX8uTbFBeTTvJMdA", "review_count": 545, "categories": [{"alias": "italian", "title": "Italian"}], "rating": 4.0, "coordinates": {"latitude": 40.6601105, "longitude": -73.9835205}, "transactions": ["pickup", "delivery"], "price": "$$", "location": {"address1": "1657 8th Ave", "address2": "", "address3": "", "city": "Brooklyn", "zip_code": "11215", "country": "US", "state": "NY", "display_address": ["1657 8th Ave", "Brooklyn, NY 11215"]}, "phone": "+17187888001", "display_phone": "(718) 788-8001", "distance": 11075.466417272377}, {"id": "qn5iPOvPUgJmKe2AeaCjFw", "alias": "primos-new-york", "name": "Primo's", "image_url": "https://s3-media4.fl.yelpcdn.com/bphoto/P9Kd8GWp-sHlgmbwMBcrHA/o.jpg", "is_closed": false, "url": "https://www.yelp.com/biz/primos-new-york?adjust_creative=9gNmiWYX8uTbFBeTTvJMdA&utm_campaign=yelp_api_v3&utm_medium=api_v3_business_search&utm_source=9gNmiWYX8uTbFBeTTvJMdA", "review_count": 19, "categories": [{"alias": "bars", "title": "Bars"}, {"alias": "italian", "title": "Italian"}], "rating": 3.5, "coordinates": {"latitude": 40.7154633, "longitude": -74.0087929}, "transactions": [], "location": {"address1": "129 Chambers St", "address2": "", "address3": null, "city": "New York", "zip_code": "10007", "country": "US", "state": "NY", "display_address": ["129 Chambers St", "New York, NY 10007"]}, "phone": "+19175123432", "display_phone": "(917) 512-3432", "distance": 5872.097252123496}, {"id": "f4QBa0khsF9Ut99Tc9IMIA", "alias": "haswell-greens-new-york-3", "name": "Haswell Green's", "image_url": "https://s3-media3.fl.yelpcdn.com/bphoto/Z4ZczIkJpZpHE2-1hA3rBA/o.jpg", "is_closed": false, "url": "https://www.yelp.com/biz/haswell-greens-new-york-3?adjust_creative=9gNmiWYX8uTbFBeTTvJMdA&utm_campaign=yelp_api_v3&utm_medium=api_v3_business_search&utm_source=9gNmiWYX8uTbFBeTTvJMdA", "review_count": 515, "categories": [{"alias": "newamerican", "title": "American (New)"}, {"alias": "cocktailbars", "title": "Cocktail Bars"}, {"alias": "pianobars", "title": "Piano Bars"}], "rating": 4.5, "coordinates": {"latitude": 40.76301, "longitude": -73.98416}, "transactions": ["pickup", "delivery"], "price": "$$", "location": {"address1": "240 W 52nd St", "address2": "", "address3": null, "city": "New York", "zip_code": "10019", "country": "US", "state": "NY", "display_address": ["240 W 52nd St", "New York, NY 10019"]}, "phone": "+12122452801", "display_phone": "(212) 245-2801", "distance": 1303.668378334963}, {"id": "7lrqNMCmnC46t0sL4M5WPg", "alias": "delizia-92-new-york", "name": "Delizia 92", "image_url": "https://s3-media3.fl.yelpcdn.com/bphoto/DpJQ-4UF5X6XShQgnwP9tw/o.jpg", "is_closed": false, "url": "https://www.yelp.com/biz/delizia-92-new-york?adjust_creative=9gNmiWYX8uTbFBeTTvJMdA&utm_campaign=yelp_api_v3&utm_medium=api_v3_business_search&utm_source=9gNmiWYX8uTbFBeTTvJMdA", "review_count": 301, "categories": [{"alias": "pizza", "title": "Pizza"}, {"alias": "italian", "title": "Italian"}, {"alias": "catering", "title": "Caterers"}], "rating": 3.5, "coordinates": {"latitude": 40.78152, "longitude": -73.94886}, "transactions": ["pickup", "delivery"], "price": "$", "location": {"address1": "1762 2nd Ave", "address2": "", "address3": "", "city": "New York", "zip_code": "10128", "country": "US", "state": "NY", "display_address": ["1762 2nd Ave", "New York, NY 10128"]}, "phone": "+12129963720", "display_phone": "(212) 996-3720", "distance": 3038.413811501111}, {"id": "xPmCy25F1-uq-1vAP_1TBQ", "alias": "piccante-brooklyn", "name": "Piccante", "image_url": "https://s3-media1.fl.yelpcdn.com/bphoto/HMSwyc0sWu0XsKqaCW0jTw/o.jpg", "is_closed": false, "url": "https://www.yelp.com/biz/piccante-brooklyn?adjust_creative=9gNmiWYX8uTbFBeTTvJMdA&utm_campaign=yelp_api_v3&utm_medium=api_v3_business_search&utm_source=9gNmiWYX8uTbFBeTTvJMdA", "review_count": 216, "categories": [{"alias": "italian", "title": "Italian"}], "rating": 4.5, "coordinates": {"latitude": 40.63319, "longitude": -74.02742}, "transactions": ["pickup", "delivery"], "price": "$$", "location": {"address1": "7214-A 3rd Ave", "address2": "", "address3": null, "city": "Brooklyn", "zip_code": "11209", "country": "US", "state": "NY", "display_address": ["7214-A 3rd Ave", "Brooklyn, NY 11209"]}, "phone": "+17188333919", "display_phone": "(718) 833-3919", "distance": 14829.985174233077}, {"id": "tsK6f3xyjfLTM7xtD1ZY-A", "alias": "neapolitan-express-new-york-5", "name": "Neapolitan Express", "image_url": "https://s3-media2.fl.yelpcdn.com/bphoto/d9t3W3Um9vehxJijpdN80Q/o.jpg", "is_closed": false, "url": "https://www.yelp.com/biz/neapolitan-express-new-york-5?adjust_creative=9gNmiWYX8uTbFBeTTvJMdA&utm_campaign=yelp_api_v3&utm_medium=api_v3_business_search&utm_source=9gNmiWYX8uTbFBeTTvJMdA", "review_count": 6, "categories": [{"alias": "pizza", "title": "Pizza"}], "rating": 4.5, "coordinates": {"latitude": 40.77991, "longitude": -73.9818}, "transactions": ["pickup", "delivery"], "price": "$$", "location": {"address1": "2109 Broadway", "address2": "", "address3": "", "city": "New York", "zip_code": "10023", "country": "US", "state": "NY", "display_address": ["2109 Broadway", "New York, NY 10023"]}, "phone": "+16467049415", "display_phone": "(646) 704-9415", "distance": 2556.321196070559}, {"id": "1RLbCS0yX91jrLWBwQI3Wg", "alias": "singas-famous-pizza-new-york-3", "name": "Singas Famous Pizza", "image_url": "https://s3-media2.fl.yelpcdn.com/bphoto/1E5tqhBp8po2-hpQ1ODhzw/o.jpg", "is_closed": false, "url": "https://www.yelp.com/biz/singas-famous-pizza-new-york-3?adjust_creative=9gNmiWYX8uTbFBeTTvJMdA&utm_campaign=yelp_api_v3&utm_medium=api_v3_business_search&utm_source=9gNmiWYX8uTbFBeTTvJMdA", "review_count": 22, "categories": [{"alias": "pizza", "title": "Pizza"}], "rating": 4.0, "coordinates": {"latitude": 40.767251, "longitude": -73.959714}, "transactions": ["pickup", "delivery"], "location": {"address1": "1319 2nd Ave", "address2": "", "address3": null, "city": "New York", "zip_code": "10021", "country": "US", "state": "NY", "display_address": ["1319 2nd Ave", "New York, NY 10021"]}, "phone": "+19172658916", "display_phone": "(917) 265-8916", "distance": 1220.6949415170347}, {"id": "ihe0uv-ap1e-92PzAhsf_g", "alias": "la-piazza-new-york-4", "name": "La Piazza", "image_url": "https://s3-media2.fl.yelpcdn.com/bphoto/TUXMVw8WKWHyXqf21zEKSw/o.jpg", "is_closed": false, "url": "https://www.yelp.com/biz/la-piazza-new-york-4?adjust_creative=9gNmiWYX8uTbFBeTTvJMdA&utm_campaign=yelp_api_v3&utm_medium=api_v3_business_search&utm_source=9gNmiWYX8uTbFBeTTvJMdA", "review_count": 4, "categories": [{"alias": "italian", "title": "Italian"}, {"alias": "pizza", "title": "Pizza"}], "rating": 4.5, "coordinates": {"latitude": 40.74197, "longitude": -73.9895}, "transactions": ["delivery"], "location": {"address1": "200 5th Ave", "address2": "", "address3": null, "city": "New York", "zip_code": "10010", "country": "US", "state": "NY", "display_address": ["200 5th Ave", "New York, NY 10010"]}, "phone": "", "display_phone": "", "distance": 2567.4443719556757}, {"id": "C3UsLxRyuTM7bTKqs-R1qA", "alias": "sistina-new-york", "name": "Sistina", "image_url": "https://s3-media2.fl.yelpcdn.com/bphoto/RYmC9Dh3fql2V_JKScBqMw/o.jpg", "is_closed": false, "url": "https://www.yelp.com/biz/sistina-new-york?adjust_creative=9gNmiWYX8uTbFBeTTvJMdA&utm_campaign=yelp_api_v3&utm_medium=api_v3_business_search&utm_source=9gNmiWYX8uTbFBeTTvJMdA", "review_count": 154, "categories": [{"alias": "italian", "title": "Italian"}], "rating": 3.5, "coordinates": {"latitude": 40.7745592557331, "longitude": -73.9544119255131}, "transactions": ["delivery"], "price": "$$$", "location": {"address1": "24 E 81st St", "address2": "", "address3": "", "city": "New York", "zip_code": "10028", "country": "US", "state": "NY", "display_address": ["24 E 81st St", "New York, NY 10028"]}, "phone": "+12128617660", "display_phone": "(212) 861-7660", "distance": 2134.682711017688}, {"id": "CjahRm-rdwS8IqGR-M0Dyg", "alias": "aqua-marina-italian-cuisine-new-york-16", "name": "Aqua Marina Italian Cuisine", "image_url": "https://s3-media3.fl.yelpcdn.com/bphoto/R-45TgQGUgz45pMv0Yt4HQ/o.jpg", "is_closed": false, "url": "https://www.yelp.com/biz/aqua-marina-italian-cuisine-new-york-16?adjust_creative=9gNmiWYX8uTbFBeTTvJMdA&utm_campaign=yelp_api_v3&utm_medium=api_v3_business_search&utm_source=9gNmiWYX8uTbFBeTTvJMdA", "review_count": 153, "categories": [{"alias": "italian", "title": "Italian"}, {"alias": "mexican", "title": "Mexican"}, {"alias": "bars", "title": "Bars"}], "rating": 3.0, "coordinates": {"latitude": 40.84340223393162, "longitude": -73.93896054436857}, "transactions": ["pickup", "delivery"], "price": "$$", "location": {"address1": "4060 Bdwy", "address2": "", "address3": "", "city": "New York", "zip_code": "10032", "country": "US", "state": "NY", "display_address": ["4060 Bdwy", "New York, NY 10032"]}, "phone": "+12129280070", "display_phone": "(212) 928-0070", "distance": 9713.678836346595}, {"id": "H1YIowHp7SMbpVoOtSEIJg", "alias": "2-bros-pizza-new-york-6", "name": "2 Bros Pizza", "image_url": "https://s3-media4.fl.yelpcdn.com/bphoto/A8lYdaYuz5QEweSAmG9zXg/o.jpg", "is_closed": false, "url": "https://www.yelp.com/biz/2-bros-pizza-new-york-6?adjust_creative=9gNmiWYX8uTbFBeTTvJMdA&utm_campaign=yelp_api_v3&utm_medium=api_v3_business_search&utm_source=9gNmiWYX8uTbFBeTTvJMdA", "review_count": 450, "categories": [{"alias": "pizza", "title": "Pizza"}], "rating": 4.0, "coordinates": {"latitude": 40.7567825317383, "longitude": -73.9802169799805}, "transactions": ["pickup", "delivery"], "price": "$", "location": {"address1": "31 W 46th St", "address2": "", "address3": "", "city": "New York", "zip_code": "10036", "country": "US", "state": "NY", "display_address": ["31 W 46th St", "New York, NY 10036"]}, "phone": "+12127044251", "display_phone": "(212) 704-4251", "distance": 930.56038643323}, {"id": "oIpNF3AJwqZlCs9fmpyFOQ", "alias": "rigoletto-pasquale-bronx", "name": "Pasquale Rigoletto Restaurant", "image_url": "https://s3-media2.fl.yelpcdn.com/bphoto/BaiE1_hKbefvspi6-LKo4w/o.jpg", "is_closed": false, "url": "https://www.yelp.com/biz/rigoletto-pasquale-bronx?adjust_creative=9gNmiWYX8uTbFBeTTvJMdA&utm_campaign=yelp_api_v3&utm_medium=api_v3_business_search&utm_source=9gNmiWYX8uTbFBeTTvJMdA", "review_count": 199, "categories": [{"alias": "italian", "title": "Italian"}, {"alias": "venues", "title": "Venues & Event Spaces"}, {"alias": "catering", "title": "Caterers"}], "rating": 3.5, "coordinates": {"latitude": 40.8538, "longitude": -73.88925}, "transactions": ["pickup", "delivery"], "price": "$$", "location": {"address1": "2311 Arthur Ave", "address2": "", "address3": "", "city": "Bronx", "zip_code": "10458", "country": "US", "state": "NY", "display_address": ["2311 Arthur Ave", "Bronx, NY 10458"]}, "phone": "+17183656644", "display_phone": "(718) 365-6644", "distance": 12512.79111927629}, {"id": "ZVJXZ-NVHz3zVSCdMalP-g", "alias": "york-ave-pizza-new-york", "name": "York Ave Pizza", "image_url": "https://s3-media4.fl.yelpcdn.com/bphoto/aFzLxX5QmBDBKkqW0ItCgg/o.jpg", "is_closed": false, "url": "https://www.yelp.com/biz/york-ave-pizza-new-york?adjust_creative=9gNmiWYX8uTbFBeTTvJMdA&utm_campaign=yelp_api_v3&utm_medium=api_v3_business_search&utm_source=9gNmiWYX8uTbFBeTTvJMdA", "review_count": 24, "categories": [{"alias": "pizza", "title": "Pizza"}], "rating": 4.5, "coordinates": {"latitude": 40.76697, "longitude": -73.9544}, "transactions": ["pickup", "delivery"], "location": {"address1": "434 E 72", "address2": "", "address3": null, "city": "New York", "zip_code": "10021", "country": "US", "state": "NY", "display_address": ["434 E 72", "New York, NY 10021"]}, "phone": "+12127444000", "display_phone": "(212) 744-4000", "distance": 1538.4212567139825}, {"id": "acXWoQ2wZnpzRV-0V58YTQ", "alias": "bevacco-brooklyn", "name": "Bevacco", "image_url": "https://s3-media3.fl.yelpcdn.com/bphoto/PgBq5rhmuQhzwbUOtcE6Bg/o.jpg", "is_closed": false, "url": "https://www.yelp.com/biz/bevacco-brooklyn?adjust_creative=9gNmiWYX8uTbFBeTTvJMdA&utm_campaign=yelp_api_v3&utm_medium=api_v3_business_search&utm_source=9gNmiWYX8uTbFBeTTvJMdA", "review_count": 269, "categories": [{"alias": "italian", "title": "Italian"}], "rating": 3.5, "coordinates": {"latitude": 40.699206213709665, "longitude": -73.99232}, "transactions": ["pickup", "delivery"], "price": "$$", "location": {"address1": "60 Henry St", "address2": "", "address3": "", "city": "Brooklyn", "zip_code": "11201", "country": "US", "state": "NY", "display_address": ["60 Henry St", "Brooklyn, NY 11201"]}, "phone": "+17186241444", "display_phone": "(718) 624-1444", "distance": 6938.17582134802}, {"id": "5DoCTugT9AF-P3VspApsyQ", "alias": "aita-trattoria-brooklyn", "name": "Aita Trattoria", "image_url": "https://s3-media4.fl.yelpcdn.com/bphoto/bsVDeYHmXc5qb1ZkzPd4Lw/o.jpg", "is_closed": false, "url": "https://www.yelp.com/biz/aita-trattoria-brooklyn?adjust_creative=9gNmiWYX8uTbFBeTTvJMdA&utm_campaign=yelp_api_v3&utm_medium=api_v3_business_search&utm_source=9gNmiWYX8uTbFBeTTvJMdA", "review_count": 238, "categories": [{"alias": "italian", "title": "Italian"}, {"alias": "wine_bars", "title": "Wine Bars"}, {"alias": "cocktailbars", "title": "Cocktail Bars"}], "rating": 4.0, "coordinates": {"latitude": 40.6712095108944, "longitude": -73.9579255586597}, "transactions": ["pickup", "delivery"], "price": "$$", "location": {"address1": "798A Franklin Ave", "address2": "", "address3": "", "city": "Brooklyn", "zip_code": "11238", "country": "US", "state": "NY", "display_address": ["798A Franklin Ave", "Brooklyn, NY 11238"]}, "phone": "+19179662670", "display_phone": "(917) 966-2670", "distance": 9830.41785453234}, {"id": "1LIptXhtDh58vAA-QPFL4w", "alias": "cask-new-york-3", "name": "Cask", "image_url": "https://s3-media1.fl.yelpcdn.com/bphoto/V75UK9WSCtuBcGh62XG1Wg/o.jpg", "is_closed": false, "url": "https://www.yelp.com/biz/cask-new-york-3?adjust_creative=9gNmiWYX8uTbFBeTTvJMdA&utm_campaign=yelp_api_v3&utm_medium=api_v3_business_search&utm_source=9gNmiWYX8uTbFBeTTvJMdA", "review_count": 1462, "categories": [{"alias": "bars", "title": "Bars"}, {"alias": "newamerican", "title": "American (New)"}, {"alias": "venues", "title": "Venues & Event Spaces"}], "rating": 4.0, "coordinates": {"latitude": 40.745414, "longitude": -73.979004}, "transactions": ["pickup", "delivery"], "price": "$$", "location": {"address1": "167 E 33rd St", "address2": "", "address3": "", "city": "New York", "zip_code": "10016", "country": "US", "state": "NY", "display_address": ["167 E 33rd St", "New York, NY 10016"]}, "phone": "+12123004924", "display_phone": "(212) 300-4924", "distance": 1724.015121561693}, {"id": "u5gLdI6l6zsPxL2kOYbyfw", "alias": "nizza-new-york", "name": "Nizza", "image_url": "https://s3-media1.fl.yelpcdn.com/bphoto/E-6wMXU5GPQrPls_Gk-YTg/o.jpg", "is_closed": false, "url": "https://www.yelp.com/biz/nizza-new-york?adjust_creative=9gNmiWYX8uTbFBeTTvJMdA&utm_campaign=yelp_api_v3&utm_medium=api_v3_business_search&utm_source=9gNmiWYX8uTbFBeTTvJMdA", "review_count": 878, "categories": [{"alias": "italian", "title": "Italian"}, {"alias": "bars", "title": "Bars"}, {"alias": "pizza", "title": "Pizza"}], "rating": 3.5, "coordinates": {"latitude": 40.76018, "longitude": -73.99113}, "transactions": ["pickup", "delivery"], "price": "$$", "location": {"address1": "630 9th Ave", "address2": "", "address3": "", "city": "New York", "zip_code": "10036", "country": "US", "state": "NY", "display_address": ["630 9th Ave", "New York, NY 10036"]}, "phone": "+12129561800", "display_phone": "(212) 956-1800", "distance": 1826.5366743669324}, {"id": "jP7Euk15hZGklEYe3E3OUA", "alias": "made-in-new-york-pizza-new-york-9", "name": "Made In New York Pizza", "image_url": "https://s3-media1.fl.yelpcdn.com/bphoto/zBnT1ddHKsGeXlTiwyMgIg/o.jpg", "is_closed": false, "url": "https://www.yelp.com/biz/made-in-new-york-pizza-new-york-9?adjust_creative=9gNmiWYX8uTbFBeTTvJMdA&utm_campaign=yelp_api_v3&utm_medium=api_v3_business_search&utm_source=9gNmiWYX8uTbFBeTTvJMdA", "review_count": 19, "categories": [{"alias": "pizza", "title": "Pizza"}], "rating": 4.5, "coordinates": {"latitude": 40.779044, "longitude": -73.98102}, "transactions": ["pickup", "delivery"], "location": {"address1": "271 Amsterdam Ave", "address2": "", "address3": null, "city": "New York", "zip_code": "10023", "country": "US", "state": "NY", "display_address": ["271 Amsterdam Ave", "New York, NY 10023"]}, "phone": "+16464498556", "display_phone": "(646) 449-8556", "distance": 2406.656566512472}, {"id": "AKE0PMDuroeqCf3ZyPYDfQ", "alias": "little-italy-pizza-new-york-41", "name": "Little Italy Pizza", "image_url": "https://s3-media2.fl.yelpcdn.com/bphoto/T-3G4iXujpqCksUjrkaIXg/o.jpg", "is_closed": false, "url": "https://www.yelp.com/biz/little-italy-pizza-new-york-41?adjust_creative=9gNmiWYX8uTbFBeTTvJMdA&utm_campaign=yelp_api_v3&utm_medium=api_v3_business_search&utm_source=9gNmiWYX8uTbFBeTTvJMdA", "review_count": 5, "categories": [{"alias": "pizza", "title": "Pizza"}], "rating": 5.0, "coordinates": {"latitude": 40.7576385630105, "longitude": -73.98970998823643}, "transactions": ["pickup", "delivery"], "location": {"address1": "671 8th Ave", "address2": "", "address3": null, "city": "New York", "zip_code": "10036", "country": "US", "state": "NY", "display_address": ["671 8th Ave", "New York, NY 10036"]}, "phone": "+16464490158", "display_phone": "(646) 449-0158", "distance": 1704.5686451070412}, {"id": "L7zSGgGAgt4OKb0c_TrYEw", "alias": "regency-club-new-york", "name": "Regency Club", "image_url": "https://s3-media4.fl.yelpcdn.com/bphoto/p2bCIa5pjjnr2FT8OLdQVA/o.jpg", "is_closed": false, "url": "https://www.yelp.com/biz/regency-club-new-york?adjust_creative=9gNmiWYX8uTbFBeTTvJMdA&utm_campaign=yelp_api_v3&utm_medium=api_v3_business_search&utm_source=9gNmiWYX8uTbFBeTTvJMdA", "review_count": 1, "categories": [{"alias": "italian", "title": "Italian"}], "rating": 4.0, "coordinates": {"latitude": 40.75204, "longitude": -73.97632}, "transactions": [], "location": {"address1": "109 E 42nd St", "address2": "Grand Hyatt Hotel, Fl 31", "address3": "", "city": "New York", "zip_code": "10017", "country": "US", "state": "NY", "display_address": ["109 E 42nd St", "Grand Hyatt Hotel, Fl 31", "New York, NY 10017"]}, "phone": "", "display_phone": "", "distance": 972.8733600900742}, {"id": "tBRu4b9oGJ4SiLysD4hT_g", "alias": "angelinas-bayonne", "name": "Angelina's", "image_url": "https://s3-media3.fl.yelpcdn.com/bphoto/2-7EkLEq5ML3-hgwL2BICQ/o.jpg", "is_closed": false, "url": "https://www.yelp.com/biz/angelinas-bayonne?adjust_creative=9gNmiWYX8uTbFBeTTvJMdA&utm_campaign=yelp_api_v3&utm_medium=api_v3_business_search&utm_source=9gNmiWYX8uTbFBeTTvJMdA", "review_count": 74, "categories": [{"alias": "italian", "title": "Italian"}], "rating": 4.0, "coordinates": {"latitude": 40.6792, "longitude": -74.10496}, "transactions": ["delivery"], "price": "$$$", "location": {"address1": "928 Broadway", "address2": "", "address3": "", "city": "Bayonne", "zip_code": "07002", "country": "US", "state": "NJ", "display_address": ["928 Broadway", "Bayonne, NJ 07002"]}, "phone": "+12018233322", "display_phone": "(201) 823-3322", "distance": 14467.63768731778}, {"id": "e_2o3neKJ5vwDXKd70XLBg", "alias": "uncle-peters-jackson-heights", "name": "Uncle Peter's", "image_url": "https://s3-media4.fl.yelpcdn.com/bphoto/Mcc7IVcxXgnHu1_C1yqmLQ/o.jpg", "is_closed": false, "url": "https://www.yelp.com/biz/uncle-peters-jackson-heights?adjust_creative=9gNmiWYX8uTbFBeTTvJMdA&utm_campaign=yelp_api_v3&utm_medium=api_v3_business_search&utm_source=9gNmiWYX8uTbFBeTTvJMdA", "review_count": 258, "categories": [{"alias": "italian", "title": "Italian"}, {"alias": "spanish", "title": "Spanish"}, {"alias": "newamerican", "title": "American (New)"}], "rating": 4.0, "coordinates": {"latitude": 40.75598, "longitude": -73.88382}, "transactions": ["pickup", "delivery"], "price": "$$", "location": {"address1": "83-15 Northern Blvd", "address2": "", "address3": "", "city": "Jackson Heights", "zip_code": "11372", "country": "US", "state": "NY", "display_address": ["83-15 Northern Blvd", "Jackson Heights, NY 11372"]}, "phone": "+17186518600", "display_phone": "(718) 651-8600", "distance": 7229.142173117671}, {"id": "W8-g8yoLUuLq_US8NqnDhQ", "alias": "patsys-pizzeria-new-york-5", "name": "Patsy's Pizzeria", "image_url": "https://s3-media4.fl.yelpcdn.com/bphoto/-idVKZYqRCaGRHhJhc0VdQ/o.jpg", "is_closed": false, "url": "https://www.yelp.com/biz/patsys-pizzeria-new-york-5?adjust_creative=9gNmiWYX8uTbFBeTTvJMdA&utm_campaign=yelp_api_v3&utm_medium=api_v3_business_search&utm_source=9gNmiWYX8uTbFBeTTvJMdA", "review_count": 336, "categories": [{"alias": "italian", "title": "Italian"}, {"alias": "pizza", "title": "Pizza"}], "rating": 3.5, "coordinates": {"latitude": 40.7658680230835, "longitude": -73.9576601066113}, "transactions": ["pickup", "delivery"], "price": "$$", "location": {"address1": "1279 1st Ave", "address2": null, "address3": "", "city": "New York", "zip_code": "10065", "country": "US", "state": "NY", "display_address": ["1279 1st Ave", "New York, NY 10065"]}, "phone": "+12126391000", "display_phone": "(212) 639-1000", "distance": 1249.297182951334}, {"id": "j_5IDQ4UyxAZsyGATGLHoA", "alias": "rudys-italian-seafood-restaurant-cliffside-park", "name": "Rudy's Italian Seafood Restaurant", "image_url": "https://s3-media4.fl.yelpcdn.com/bphoto/9XgLPnkx4rzM5AOpRVmGlA/o.jpg", "is_closed": false, "url": "https://www.yelp.com/biz/rudys-italian-seafood-restaurant-cliffside-park?adjust_creative=9gNmiWYX8uTbFBeTTvJMdA&utm_campaign=yelp_api_v3&utm_medium=api_v3_business_search&utm_source=9gNmiWYX8uTbFBeTTvJMdA", "review_count": 126, "categories": [{"alias": "italian", "title": "Italian"}, {"alias": "seafood", "title": "Seafood"}], "rating": 4.0, "coordinates": {"latitude": 40.82458, "longitude": -73.98873}, "transactions": ["delivery"], "price": "$$", "location": {"address1": "591 Anderson Ave", "address2": "", "address3": "", "city": "Cliffside Park", "zip_code": "07010", "country": "US", "state": "NJ", "display_address": ["591 Anderson Ave", "Cliffside Park, NJ 07010"]}, "phone": "+12019439252", "display_phone": "(201) 943-9252", "distance": 7443.8981417244395}, {"id": "uoT2_Wrt1noD6kZOID7tUg", "alias": "jane-restaurant-new-york", "name": "Jane Restaurant", "image_url": "https://s3-media1.fl.yelpcdn.com/bphoto/jTGzYyowSV-4n3WoM0GZKQ/o.jpg", "is_closed": false, "url": "https://www.yelp.com/biz/jane-restaurant-new-york?adjust_creative=9gNmiWYX8uTbFBeTTvJMdA&utm_campaign=yelp_api_v3&utm_medium=api_v3_business_search&utm_source=9gNmiWYX8uTbFBeTTvJMdA", "review_count": 3475, "categories": [{"alias": "breakfast_brunch", "title": "Breakfast & Brunch"}, {"alias": "newamerican", "title": "American (New)"}, {"alias": "bars", "title": "Bars"}], "rating": 4.0, "coordinates": {"latitude": 40.7273779, "longitude": -74.00025}, "transactions": ["pickup", "delivery"], "price": "$$", "location": {"address1": "100 W Houston St", "address2": "", "address3": "", "city": "New York", "zip_code": "10012", "country": "US", "state": "NY", "display_address": ["100 W Houston St", "New York, NY 10012"]}, "phone": "+12122547000", "display_phone": "(212) 254-7000", "distance": 4379.439503427191}, {"id": "n7LwEbf0zsMapAcUtyyeVA", "alias": "medi-restaurant-and-wine-bar-new-york-2", "name": "Medi Restaurant & Wine Bar", "image_url": "https://s3-media2.fl.yelpcdn.com/bphoto/2CV1lT90SPYvN9Y_GTq_XQ/o.jpg", "is_closed": false, "url": "https://www.yelp.com/biz/medi-restaurant-and-wine-bar-new-york-2?adjust_creative=9gNmiWYX8uTbFBeTTvJMdA&utm_campaign=yelp_api_v3&utm_medium=api_v3_business_search&utm_source=9gNmiWYX8uTbFBeTTvJMdA", "review_count": 453, "categories": [{"alias": "mediterranean", "title": "Mediterranean"}, {"alias": "italian", "title": "Italian"}], "rating": 3.5, "coordinates": {"latitude": 40.765861, "longitude": -73.987418}, "transactions": ["pickup", "delivery"], "price": "$$", "location": {"address1": "811 9th Ave", "address2": "", "address3": "", "city": "New York", "zip_code": "10019", "country": "US", "state": "NY", "display_address": ["811 9th Ave", "New York, NY 10019"]}, "phone": "+12125861201", "display_phone": "(212) 586-1201", "distance": 1676.6992141751712}, {"id": "3lLBRLbXAIgd1yZgWgnfeg", "alias": "dutch-kills-long-island-city", "name": "Dutch Kills", "image_url": "https://s3-media2.fl.yelpcdn.com/bphoto/kthl3H9cTX6mje7oAfs2Dw/o.jpg", "is_closed": false, "url": "https://www.yelp.com/biz/dutch-kills-long-island-city?adjust_creative=9gNmiWYX8uTbFBeTTvJMdA&utm_campaign=yelp_api_v3&utm_medium=api_v3_business_search&utm_source=9gNmiWYX8uTbFBeTTvJMdA", "review_count": 842, "categories": [{"alias": "lounges", "title": "Lounges"}, {"alias": "cocktailbars", "title": "Cocktail Bars"}], "rating": 4.0, "coordinates": {"latitude": 40.747615, "longitude": -73.940159}, "transactions": ["delivery"], "price": "$$", "location": {"address1": "27-24 Jackson Ave", "address2": "", "address3": "", "city": "Long Island City", "zip_code": "11101", "country": "US", "state": "NY", "display_address": ["27-24 Jackson Ave", "Long Island City, NY 11101"]}, "phone": "+17183832724", "display_phone": "(718) 383-2724", "distance": 2791.2815386256907}], "total": 4600, "region": {"center": {"longitude": -73.96957397460938, "latitude": 40.75917470627005}}}