{"businesses": [{"id": "7_hGsGEkHrjgAiYVjrCFnw", "alias": "carbone-new-york", "name": "Carbone", "image_url": "https://s3-media3.fl.yelpcdn.com/bphoto/g-e3GuGjKCqzyOe1eIADaQ/o.jpg", "is_closed": false, "url": "https://www.yelp.com/biz/carbone-new-york?adjust_creative=9gNmiWYX8uTbFBeTTvJMdA&utm_campaign=yelp_api_v3&utm_medium=api_v3_business_search&utm_source=9gNmiWYX8uTbFBeTTvJMdA", "review_count": 1556, "categories": [{"alias": "italian", "title": "Italian"}], "rating": 4.0, "coordinates": {"latitude": 40.728, "longitude": -74.0001497}, "transactions": [], "price": "$$$$", "location": {"address1": "181 Thompson St", "address2": "", "address3": "", "city": "New York", "zip_code": "10012", "country": "US", "state": "NY", "display_address": ["181 Thompson St", "New York, NY 10012"]}, "phone": "+12122543000", "display_phone": "(212) 254-3000", "distance": 4318.733581176631}, {"id": "Z-QmxQZAJEy5GXqA82Bemw", "alias": "da-toscano-new-york", "name": "Da Toscano", "image_url": "https://s3-media3.fl.yelpcdn.com/bphoto/UPk7pS3imwo8YtNiKu15pA/o.jpg", "is_closed": false, "url": "https://www.yelp.com/biz/da-toscano-new-york?adjust_creative=9gNmiWYX8uTbFBeTTvJMdA&utm_campaign=yelp_api_v3&utm_medium=api_v3_business_search&utm_source=9gNmiWYX8uTbFBeTTvJMdA", "review_count": 100, "categories": [{"alias": "italian", "title": "Italian"}], "rating": 4.5, "coordinates": {"latitude": 40.730508, "longitude": -74.001238}, "transactions": ["delivery", "pickup"], "location": {"address1": "24 Minetta Ln", "address2": "", "address3": null, "city": "New York", "zip_code": "10012", "country": "US", "state": "NY", "display_address": ["24 Minetta Ln", "New York, NY 10012"]}, "phone": "+12126064054", "display_phone": "(212) 606-4054", "distance": 4133.17711897032}, {"id": "J0SZjwe0Rc-H6mzl0oByxQ", "alias": "mimis-italian-restaurant-and-piano-bar-new-york", "name": "Mimi's Italian Restaurant & Piano Bar", "image_url": "https://s3-media2.fl.yelpcdn.com/bphoto/lrmAYYGcrQ2NoIPgbrnHHw/o.jpg", "is_closed": false, "url": "https://www.yelp.com/biz/mimis-italian-restaurant-and-piano-bar-new-york?adjust_creative=9gNmiWYX8uTbFBeTTvJMdA&utm_campaign=yelp_api_v3&utm_medium=api_v3_business_search&utm_source=9gNmiWYX8uTbFBeTTvJMdA", "review_count": 365, "categories": [{"alias": "tradamerican", "title": "American (Traditional)"}, {"alias": "bars", "title": "Bars"}, {"alias": "italian", "title": "Italian"}], "rating": 3.5, "coordinates": {"latitude": 40.75611, "longitude": -73.96728}, "transactions": [], "price": "$$", "location": {"address1": "984 2nd Ave", "address2": "", "address3": "", "city": "New York", "zip_code": "10022", "country": "US", "state": "NY", "display_address": ["984 2nd Ave", "New York, NY 10022"]}, "phone": "+12126884692", "display_phone": "(212) 688-4692", "distance": 387.0764488510173}, {"id": "xsQTIeq-WLkp4ParkTQpMQ", "alias": "pizzarte-new-york", "name": "PizzArte", "image_url": "https://s3-media2.fl.yelpcdn.com/bphoto/aoQCNBXCrUL1y-w7F7qTGg/o.jpg", "is_closed": false, "url": "https://www.yelp.com/biz/pizzarte-new-york?adjust_creative=9gNmiWYX8uTbFBeTTvJMdA&utm_campaign=yelp_api_v3&utm_medium=api_v3_business_search&utm_source=9gNmiWYX8uTbFBeTTvJMdA", "review_count": 1249, "categories": [{"alias": "pizza", "title": "Pizza"}, {"alias": "italian", "title": "Italian"}, {"alias": "gluten_free", "title": "Gluten-Free"}], "rating": 4.0, "coordinates": {"latitude": 40.7629335072372, "longitude": -73.9776668697596}, "transactions": ["delivery", "pickup"], "price": "$$", "location": {"address1": "69 W 55th St", "address2": "", "address3": "", "city": "New York", "zip_code": "10019", "country": "US", "state": "NY", "display_address": ["69 W 55th St", "New York, NY 10019"]}, "phone": "+12122473936", "display_phone": "(212) 247-3936", "distance": 799.5513204887}, {"id": "jnHbdsqlTKlPcmJ8BCP9-g", "alias": "via-carota-new-york", "name": "Via Carota", "image_url": "https://s3-media2.fl.yelpcdn.com/bphoto/lxwpcB6edkR-r6k7LzkmCg/o.jpg", "is_closed": false, "url": "https://www.yelp.com/biz/via-carota-new-york?adjust_creative=9gNmiWYX8uTbFBeTTvJMdA&utm_campaign=yelp_api_v3&utm_medium=api_v3_business_search&utm_source=9gNmiWYX8uTbFBeTTvJMdA", "review_count": 841, "categories": [{"alias": "italian", "title": "Italian"}], "rating": 4.0, "coordinates": {"latitude": 40.733148231901204, "longitude": -74.00366777251583}, "transactions": ["delivery"], "price": "$$$", "location": {"address1": "51 Grove St", "address2": "", "address3": "", "city": "New York", "zip_code": "10014", "country": "US", "state": "NY", "display_address": ["51 Grove St", "New York, NY 10014"]}, "phone": "+12122551962", "display_phone": "(212) 255-1962", "distance": 4077.308511432972}, {"id": "Vs8kQ4R381y27AH018gLpg", "alias": "supper-new-york", "name": "Supper", "image_url": "https://s3-media4.fl.yelpcdn.com/bphoto/VgYreViVbDel2zylxtNEXQ/o.jpg", "is_closed": false, "url": "https://www.yelp.com/biz/supper-new-york?adjust_creative=9gNmiWYX8uTbFBeTTvJMdA&utm_campaign=yelp_api_v3&utm_medium=api_v3_business_search&utm_source=9gNmiWYX8uTbFBeTTvJMdA", "review_count": 1463, "categories": [{"alias": "italian", "title": "Italian"}, {"alias": "desserts", "title": "Desserts"}, {"alias": "wine_bars", "title": "Wine Bars"}], "rating": 4.0, "coordinates": {"latitude": 40.72290786539601, "longitude": -73.98520720537888}, "transactions": ["delivery", "pickup"], "price": "$$", "location": {"address1": "156 E 2nd St", "address2": "", "address3": "", "city": "New York", "zip_code": "10009", "country": "US", "state": "NY", "display_address": ["156 E 2nd St", "New York, NY 10009"]}, "phone": "+12124777600", "display_phone": "(212) 477-7600", "distance": 4242.315106441699}, {"id": "JBthOvTegHbrLDiVaCAy5Q", "alias": "bigoi-venezia-new-york", "name": "Bigoi Venezia", "image_url": "https://s3-media4.fl.yelpcdn.com/bphoto/awRGzCOdcxuZLWzPjOHkfg/o.jpg", "is_closed": false, "url": "https://www.yelp.com/biz/bigoi-venezia-new-york?adjust_creative=9gNmiWYX8uTbFBeTTvJMdA&utm_campaign=yelp_api_v3&utm_medium=api_v3_business_search&utm_source=9gNmiWYX8uTbFBeTTvJMdA", "review_count": 333, "categories": [{"alias": "italian", "title": "Italian"}, {"alias": "pastashops", "title": "Pasta Shops"}], "rating": 4.5, "coordinates": {"latitude": 40.770036, "longitude": -73.9577755}, "transactions": ["delivery", "pickup"], "price": "$$", "location": {"address1": "1415 2nd Ave", "address2": null, "address3": "", "city": "New York", "zip_code": "10021", "country": "US", "state": "NY", "display_address": ["1415 2nd Ave", "New York, NY 10021"]}, "phone": "+19172620680", "display_phone": "(917) 262-0680", "distance": 1563.947839877824}, {"id": "-Td-YEPTOUq2H3LRWgRxUw", "alias": "non-solo-piada-new-york", "name": "Non Solo Piada", "image_url": "https://s3-media1.fl.yelpcdn.com/bphoto/rQX6agHxaevnvsAVZs48Og/o.jpg", "is_closed": false, "url": "https://www.yelp.com/biz/non-solo-piada-new-york?adjust_creative=9gNmiWYX8uTbFBeTTvJMdA&utm_campaign=yelp_api_v3&utm_medium=api_v3_business_search&utm_source=9gNmiWYX8uTbFBeTTvJMdA", "review_count": 407, "categories": [{"alias": "italian", "title": "Italian"}, {"alias": "breakfast_brunch", "title": "Breakfast & Brunch"}, {"alias": "piadina", "title": "Piadina"}], "rating": 4.5, "coordinates": {"latitude": 40.75414, "longitude": -73.99245}, "transactions": ["delivery", "pickup"], "price": "$$", "location": {"address1": "302 W 37th St", "address2": "", "address3": null, "city": "New York", "zip_code": "10018", "country": "US", "state": "NY", "display_address": ["302 W 37th St", "New York, NY 10018"]}, "phone": "+12122160616", "display_phone": "(212) 216-0616", "distance": 2013.1230787123097}, {"id": "E2zKMwHhz4--dyplQ7gf8A", "alias": "pappardella-new-york", "name": "Pappardella", "image_url": "https://s3-media1.fl.yelpcdn.com/bphoto/uzXKJXZSEDZqVO7PDywuIg/o.jpg", "is_closed": false, "url": "https://www.yelp.com/biz/pappardella-new-york?adjust_creative=9gNmiWYX8uTbFBeTTvJMdA&utm_campaign=yelp_api_v3&utm_medium=api_v3_business_search&utm_source=9gNmiWYX8uTbFBeTTvJMdA", "review_count": 717, "categories": [{"alias": "italian", "title": "Italian"}, {"alias": "gluten_free", "title": "Gluten-Free"}, {"alias": "wine_bars", "title": "Wine Bars"}], "rating": 3.5, "coordinates": {"latitude": 40.77940129780038, "longitude": -73.97750031523518}, "transactions": ["delivery", "pickup"], "price": "$$", "location": {"address1": "316 Columbus Ave", "address2": "Ste 1", "address3": "", "city": "New York", "zip_code": "10023", "country": "US", "state": "NY", "display_address": ["316 Columbus Ave", "Ste 1", "New York, NY 10023"]}, "phone": "+12125957996", "display_phone": "(212) 595-7996", "distance": 2346.054157192493}, {"id": "LSOpxBBa217HxnJ7VnY2WQ", "alias": "il-violino-new-york", "name": "Il Violino", "image_url": "https://s3-media4.fl.yelpcdn.com/bphoto/jhOVXt4i7ACDRf_RRCblwQ/o.jpg", "is_closed": false, "url": "https://www.yelp.com/biz/il-violino-new-york?adjust_creative=9gNmiWYX8uTbFBeTTvJMdA&utm_campaign=yelp_api_v3&utm_medium=api_v3_business_search&utm_source=9gNmiWYX8uTbFBeTTvJMdA", "review_count": 325, "categories": [{"alias": "italian", "title": "Italian"}], "rating": 3.5, "coordinates": {"latitude": 40.775012, "longitude": -73.980736}, "transactions": ["delivery", "pickup"], "price": "$$", "location": {"address1": "180 Columbus Ave", "address2": "", "address3": "", "city": "New York", "zip_code": "10023", "country": "US", "state": "NY", "display_address": ["180 Columbus Ave", "New York, NY 10023"]}, "phone": "+12128732500", "display_phone": "(212) 873-2500", "distance": 1996.2064479265202}, {"id": "a0IET3_yCFcO36OqGSsisg", "alias": "eataly-nyc-flatiron-new-york-3", "name": "Eataly NYC Flatiron", "image_url": "https://s3-media2.fl.yelpcdn.com/bphoto/ErnsFR0ax7ufbS5J9ghjSg/o.jpg", "is_closed": false, "url": "https://www.yelp.com/biz/eataly-nyc-flatiron-new-york-3?adjust_creative=9gNmiWYX8uTbFBeTTvJMdA&utm_campaign=yelp_api_v3&utm_medium=api_v3_business_search&utm_source=9gNmiWYX8uTbFBeTTvJMdA", "review_count": 6037, "categories": [{"alias": "italian", "title": "Italian"}, {"alias": "pizza", "title": "Pizza"}, {"alias": "grocery", "title": "Grocery"}], "rating": 4.0, "coordinates": {"latitude": 40.74200824886595, "longitude": -73.98993910744127}, "transactions": ["pickup", "delivery"], "price": "$$", "location": {"address1": "200 5th Ave", "address2": "", "address3": "", "city": "New York", "zip_code": "10010", "country": "US", "state": "NY", "display_address": ["200 5th Ave", "New York, NY 10010"]}, "phone": "+12122292560", "display_phone": "(212) 229-2560", "distance": 2566.417187221363}, {"id": "6Z5OWpaeGGazJHR4LfThsw", "alias": "palma-new-york", "name": "Palma", "image_url": "https://s3-media4.fl.yelpcdn.com/bphoto/KRhsHF7JmChZ5xrW5owiKw/o.jpg", "is_closed": false, "url": "https://www.yelp.com/biz/palma-new-york?adjust_creative=9gNmiWYX8uTbFBeTTvJMdA&utm_campaign=yelp_api_v3&utm_medium=api_v3_business_search&utm_source=9gNmiWYX8uTbFBeTTvJMdA", "review_count": 828, "categories": [{"alias": "italian", "title": "Italian"}], "rating": 4.0, "coordinates": {"latitude": 40.73115, "longitude": -74.00233}, "transactions": ["delivery", "pickup"], "price": "$$$", "location": {"address1": "28 Cornelia St", "address2": "", "address3": "", "city": "New York", "zip_code": "10014", "country": "US", "state": "NY", "display_address": ["28 Cornelia St", "New York, NY 10014"]}, "phone": "+12126912223", "display_phone": "(212) 691-2223", "distance": 4160.609945695045}, {"id": "3FJjOq78eeqakDCsJHqJug", "alias": "sotto-la-luna-astoria-2", "name": "Sotto La Luna", "image_url": "https://s3-media3.fl.yelpcdn.com/bphoto/HiAaUtaKSmS1VxKnKyOOGA/o.jpg", "is_closed": false, "url": "https://www.yelp.com/biz/sotto-la-luna-astoria-2?adjust_creative=9gNmiWYX8uTbFBeTTvJMdA&utm_campaign=yelp_api_v3&utm_medium=api_v3_business_search&utm_source=9gNmiWYX8uTbFBeTTvJMdA", "review_count": 66, "categories": [{"alias": "italian", "title": "Italian"}, {"alias": "pizza", "title": "Pizza"}], "rating": 4.5, "coordinates": {"latitude": 40.75821891908545, "longitude": -73.92818819919232}, "transactions": ["delivery", "pickup"], "location": {"address1": "34-39 31st St", "address2": null, "address3": "", "city": "Astoria", "zip_code": "11106", "country": "US", "state": "NY", "display_address": ["34-39 31st St", "Astoria, NY 11106"]}, "phone": "+16313803569", "display_phone": "(631) 380-3569", "distance": 3487.3893118382457}, {"id": "C3OlQ_y5LcgboyaKlpETYA", "alias": "trattoria-casa-di-isacco-new-york", "name": "Trattoria Casa Di Isacco", "image_url": "https://s3-media3.fl.yelpcdn.com/bphoto/9oR7Q2LxbTql8lMC_j7K8w/o.jpg", "is_closed": false, "url": "https://www.yelp.com/biz/trattoria-casa-di-isacco-new-york?adjust_creative=9gNmiWYX8uTbFBeTTvJMdA&utm_campaign=yelp_api_v3&utm_medium=api_v3_business_search&utm_source=9gNmiWYX8uTbFBeTTvJMdA", "review_count": 370, "categories": [{"alias": "italian", "title": "Italian"}, {"alias": "seafood", "title": "Seafood"}, {"alias": "wine_bars", "title": "Wine Bars"}], "rating": 4.0, "coordinates": {"latitude": 40.75686, "longitude": -73.99356}, "transactions": ["delivery"], "price": "$$", "location": {"address1": "536 9th Ave", "address2": "", "address3": "", "city": "New York", "zip_code": "10018", "country": "US", "state": "NY", "display_address": ["536 9th Ave", "New York, NY 10018"]}, "phone": "+12125945408", "display_phone": "(212) 594-5408", "distance": 2031.3956350517353}, {"id": "zwOAiVT4pAmpNGXzj-t5MA", "alias": "lilia-brooklyn", "name": "Lilia", "image_url": "https://s3-media1.fl.yelpcdn.com/bphoto/CVDfrE84IWv9v-Y86jqlRg/o.jpg", "is_closed": false, "url": "https://www.yelp.com/biz/lilia-brooklyn?adjust_creative=9gNmiWYX8uTbFBeTTvJMdA&utm_campaign=yelp_api_v3&utm_medium=api_v3_business_search&utm_source=9gNmiWYX8uTbFBeTTvJMdA", "review_count": 1115, "categories": [{"alias": "italian", "title": "Italian"}, {"alias": "cocktailbars", "title": "Cocktail Bars"}], "rating": 4.0, "coordinates": {"latitude": 40.71757, "longitude": -73.95236}, "transactions": ["delivery"], "price": "$$$", "location": {"address1": "567 Union Ave", "address2": "", "address3": "", "city": "Brooklyn", "zip_code": "11211", "country": "US", "state": "NY", "display_address": ["567 Union Ave", "Brooklyn, NY 11211"]}, "phone": "+17185763095", "display_phone": "(718) 576-3095", "distance": 4850.4411194593}, {"id": "ry0nAQiUn8bpNAruY_5wfw", "alias": "scalino-brooklyn-2", "name": "Scalino", "image_url": "https://s3-media4.fl.yelpcdn.com/bphoto/U2O2aw_-fiA73FRfOKhXiw/o.jpg", "is_closed": false, "url": "https://www.yelp.com/biz/scalino-brooklyn-2?adjust_creative=9gNmiWYX8uTbFBeTTvJMdA&utm_campaign=yelp_api_v3&utm_medium=api_v3_business_search&utm_source=9gNmiWYX8uTbFBeTTvJMdA", "review_count": 298, "categories": [{"alias": "italian", "title": "Italian"}], "rating": 4.5, "coordinates": {"latitude": 40.7244699, "longitude": -73.95151}, "transactions": ["delivery", "pickup"], "price": "$$", "location": {"address1": "659 Manhattan Ave", "address2": "", "address3": "", "city": "Brooklyn", "zip_code": "11222", "country": "US", "state": "NY", "display_address": ["659 Manhattan Ave", "Brooklyn, NY 11222"]}, "phone": "+17183898600", "display_phone": "(718) 389-8600", "distance": 4148.23513429668}, {"id": "IErfGS0DASSJfYU73m0Sqg", "alias": "malatesta-trattoria-new-york", "name": "Malatesta Trattoria", "image_url": "https://s3-media3.fl.yelpcdn.com/bphoto/Ta-XuKa0JWytnr_z6Ci3BA/o.jpg", "is_closed": false, "url": "https://www.yelp.com/biz/malatesta-trattoria-new-york?adjust_creative=9gNmiWYX8uTbFBeTTvJMdA&utm_campaign=yelp_api_v3&utm_medium=api_v3_business_search&utm_source=9gNmiWYX8uTbFBeTTvJMdA", "review_count": 1341, "categories": [{"alias": "italian", "title": "Italian"}], "rating": 4.0, "coordinates": {"latitude": 40.73285, "longitude": -74.00847}, "transactions": ["delivery", "pickup"], "price": "$$", "location": {"address1": "649 Washington St", "address2": "", "address3": "", "city": "New York", "zip_code": "10014", "country": "US", "state": "NY", "display_address": ["649 Washington St", "New York, NY 10014"]}, "phone": "+12127411207", "display_phone": "(212) 741-1207", "distance": 4391.872316345709}, {"id": "Zp-K3ztVTzR-LrWwl_CBgA", "alias": "la-pecora-bianca-new-york-6", "name": "La Pecora Bianca", "image_url": "https://s3-media1.fl.yelpcdn.com/bphoto/_Ic5KSqAxdL2dd6UkeuyGw/o.jpg", "is_closed": false, "url": "https://www.yelp.com/biz/la-pecora-bianca-new-york-6?adjust_creative=9gNmiWYX8uTbFBeTTvJMdA&utm_campaign=yelp_api_v3&utm_medium=api_v3_business_search&utm_source=9gNmiWYX8uTbFBeTTvJMdA", "review_count": 184, "categories": [{"alias": "bars", "title": "Bars"}, {"alias": "italian", "title": "Italian"}, {"alias": "breakfast_brunch", "title": "Breakfast & Brunch"}], "rating": 4.0, "coordinates": {"latitude": 40.7525275894982, "longitude": -73.9829860255122}, "transactions": [], "location": {"address1": "20 W 40th St", "address2": "", "address3": null, "city": "New York", "zip_code": "10018", "country": "US", "state": "NY", "display_address": ["20 W 40th St", "New York, NY 10018"]}, "phone": "+12129244040", "display_phone": "(212) 924-4040", "distance": 1350.006372660979}, {"id": "IxwuIDcpRa7EpQs7V481Ww", "alias": "il-gattopardo-new-york-2", "name": "Il Gattopardo", "image_url": "https://s3-media1.fl.yelpcdn.com/bphoto/7oAaav-83zC5HDZxMGgNuw/o.jpg", "is_closed": false, "url": "https://www.yelp.com/biz/il-gattopardo-new-york-2?adjust_creative=9gNmiWYX8uTbFBeTTvJMdA&utm_campaign=yelp_api_v3&utm_medium=api_v3_business_search&utm_source=9gNmiWYX8uTbFBeTTvJMdA", "review_count": 225, "categories": [{"alias": "italian", "title": "Italian"}], "rating": 4.0, "coordinates": {"latitude": 40.7614994602915, "longitude": -73.976308999227}, "transactions": ["delivery"], "price": "$$$", "location": {"address1": "13-15 W 54th St", "address2": "", "address3": "", "city": "New York", "zip_code": "10019", "country": "US", "state": "NY", "display_address": ["13-15 W 54th St", "New York, NY 10019"]}, "phone": "+12122460412", "display_phone": "(212) 246-0412", "distance": 623.3757997348716}, {"id": "FRp1NwIyp6tkDU986cJkXQ", "alias": "piccola-cucina-estiatorio-new-york", "name": "Piccola Cucina Estiatorio", "image_url": "https://s3-media2.fl.yelpcdn.com/bphoto/dLIusDKy0yL2JlicdixSfQ/o.jpg", "is_closed": false, "url": "https://www.yelp.com/biz/piccola-cucina-estiatorio-new-york?adjust_creative=9gNmiWYX8uTbFBeTTvJMdA&utm_campaign=yelp_api_v3&utm_medium=api_v3_business_search&utm_source=9gNmiWYX8uTbFBeTTvJMdA", "review_count": 244, "categories": [{"alias": "italian", "title": "Italian"}, {"alias": "seafood", "title": "Seafood"}], "rating": 4.5, "coordinates": {"latitude": 40.7246, "longitude": -74.0029799}, "transactions": ["delivery", "pickup"], "price": "$$$", "location": {"address1": "75 Thompson St", "address2": null, "address3": "", "city": "New York", "zip_code": "10012", "country": "US", "state": "NY", "display_address": ["75 Thompson St", "New York, NY 10012"]}, "phone": "+16467819183", "display_phone": "(646) 781-9183", "distance": 4764.652848794873}, {"id": "NlmP5x_Ykznd55Dc85ChUg", "alias": "nittis-new-york", "name": "Nittis", "image_url": "https://s3-media1.fl.yelpcdn.com/bphoto/weZ9eD3qvWC7qCn9_IZs8Q/o.jpg", "is_closed": false, "url": "https://www.yelp.com/biz/nittis-new-york?adjust_creative=9gNmiWYX8uTbFBeTTvJMdA&utm_campaign=yelp_api_v3&utm_medium=api_v3_business_search&utm_source=9gNmiWYX8uTbFBeTTvJMdA", "review_count": 308, "categories": [{"alias": "italian", "title": "Italian"}, {"alias": "cocktailbars", "title": "Cocktail Bars"}, {"alias": "breakfast_brunch", "title": "Breakfast & Brunch"}], "rating": 4.5, "coordinates": {"latitude": 40.7567, "longitude": -73.99411}, "transactions": ["delivery", "pickup"], "price": "$$", "location": {"address1": "523 9th Ave", "address2": null, "address3": "", "city": "New York", "zip_code": "10018", "country": "US", "state": "NY", "display_address": ["523 9th Ave", "New York, NY 10018"]}, "phone": "+12125170939", "display_phone": "(212) 517-0939", "distance": 2090.2857115634893}, {"id": "C3E8CVVwzKtOv_sRR1WuRQ", "alias": "salumeria-rosi-new-york-4", "name": "Salumeria Rosi", "image_url": "https://s3-media2.fl.yelpcdn.com/bphoto/QCTLPTmxSE_6V7wDNgZhog/o.jpg", "is_closed": false, "url": "https://www.yelp.com/biz/salumeria-rosi-new-york-4?adjust_creative=9gNmiWYX8uTbFBeTTvJMdA&utm_campaign=yelp_api_v3&utm_medium=api_v3_business_search&utm_source=9gNmiWYX8uTbFBeTTvJMdA", "review_count": 563, "categories": [{"alias": "italian", "title": "Italian"}, {"alias": "meats", "title": "Meat Shops"}, {"alias": "cheese", "title": "Cheese Shops"}], "rating": 4.0, "coordinates": {"latitude": 40.77932, "longitude": -73.9809}, "transactions": ["delivery", "pickup"], "price": "$$", "location": {"address1": "283 Amsterdam Ave", "address2": "", "address3": "", "city": "New York", "zip_code": "10023", "country": "US", "state": "NY", "display_address": ["283 Amsterdam Ave", "New York, NY 10023"]}, "phone": "+12128774800", "display_phone": "(212) 877-4800", "distance": 2438.258990128843}, {"id": "yZJbealagfujEkgesAl2hA", "alias": "lupa-new-york", "name": "Lupa", "image_url": "https://s3-media3.fl.yelpcdn.com/bphoto/defVT_1nvK1yRk5jDO_24Q/o.jpg", "is_closed": false, "url": "https://www.yelp.com/biz/lupa-new-york?adjust_creative=9gNmiWYX8uTbFBeTTvJMdA&utm_campaign=yelp_api_v3&utm_medium=api_v3_business_search&utm_source=9gNmiWYX8uTbFBeTTvJMdA", "review_count": 1715, "categories": [{"alias": "italian", "title": "Italian"}], "rating": 4.0, "coordinates": {"latitude": 40.7276, "longitude": -74.000045}, "transactions": ["delivery", "pickup"], "price": "$$$", "location": {"address1": "170 Thompson St", "address2": "", "address3": "", "city": "New York", "zip_code": "10012", "country": "US", "state": "NY", "display_address": ["170 Thompson St", "New York, NY 10012"]}, "phone": "+12129825089", "display_phone": "(212) 982-5089", "distance": 4344.848416586869}, {"id": "hVqZ4vihjL1gFTD-KdX-Tw", "alias": "gennaro-new-york-2", "name": "Gennaro", "image_url": "https://s3-media3.fl.yelpcdn.com/bphoto/wqsgQhYQJ6BG0_-zEg6b5w/o.jpg", "is_closed": false, "url": "https://www.yelp.com/biz/gennaro-new-york-2?adjust_creative=9gNmiWYX8uTbFBeTTvJMdA&utm_campaign=yelp_api_v3&utm_medium=api_v3_business_search&utm_source=9gNmiWYX8uTbFBeTTvJMdA", "review_count": 422, "categories": [{"alias": "italian", "title": "Italian"}, {"alias": "wine_bars", "title": "Wine Bars"}, {"alias": "mediterranean", "title": "Mediterranean"}], "rating": 3.5, "coordinates": {"latitude": 40.79178, "longitude": -73.9718}, "transactions": ["delivery"], "price": "$$", "location": {"address1": "665 Amsterdam Ave", "address2": "", "address3": "", "city": "New York", "zip_code": "10025", "country": "US", "state": "NY", "display_address": ["665 Amsterdam Ave", "New York, NY 10025"]}, "phone": "+12126655348", "display_phone": "(212) 665-5348", "distance": 3629.153792413201}, {"id": "zRXMvxUX_rOliKZPpkWi_g", "alias": "valerie-new-york", "name": "Valerie", "image_url": "https://s3-media3.fl.yelpcdn.com/bphoto/mnH5QFkSMzZgd6P5eSZvvw/o.jpg", "is_closed": false, "url": "https://www.yelp.com/biz/valerie-new-york?adjust_creative=9gNmiWYX8uTbFBeTTvJMdA&utm_campaign=yelp_api_v3&utm_medium=api_v3_business_search&utm_source=9gNmiWYX8uTbFBeTTvJMdA", "review_count": 605, "categories": [{"alias": "newamerican", "title": "American (New)"}, {"alias": "cocktailbars", "title": "Cocktail Bars"}], "rating": 4.5, "coordinates": {"latitude": 40.756326, "longitude": -73.981117}, "transactions": ["delivery"], "price": "$$", "location": {"address1": "45 W 45th St between 5th & 6th Ave", "address2": "", "address3": null, "city": "New York", "zip_code": "10036", "country": "US", "state": "NY", "display_address": ["45 W 45th St between 5th & 6th Ave", "New York, NY 10036"]}, "phone": "+12123024545", "display_phone": "(212) 302-4545", "distance": 1020.2625997968646}, {"id": "uPe0efNw-uwPybeqccZ1zQ", "alias": "osteria-al-doge-new-york", "name": "Osteria Al Doge", "image_url": "https://s3-media2.fl.yelpcdn.com/bphoto/O9voYPVNKp1jYF9kvCto2g/o.jpg", "is_closed": false, "url": "https://www.yelp.com/biz/osteria-al-doge-new-york?adjust_creative=9gNmiWYX8uTbFBeTTvJMdA&utm_campaign=yelp_api_v3&utm_medium=api_v3_business_search&utm_source=9gNmiWYX8uTbFBeTTvJMdA", "review_count": 502, "categories": [{"alias": "italian", "title": "Italian"}, {"alias": "desserts", "title": "Desserts"}, {"alias": "pizza", "title": "Pizza"}], "rating": 4.0, "coordinates": {"latitude": 40.75662, "longitude": -73.9849}, "transactions": ["delivery", "pickup"], "price": "$$$", "location": {"address1": "142 W 44th St", "address2": "", "address3": "", "city": "New York", "zip_code": "10036", "country": "US", "state": "NY", "display_address": ["142 W 44th St", "New York, NY 10036"]}, "phone": "+12129443643", "display_phone": "(212) 944-3643", "distance": 1322.384173238471}, {"id": "GAvyDral555vltKrupUcjw", "alias": "osteria-laguna-new-york", "name": "Osteria Laguna", "image_url": "https://s3-media2.fl.yelpcdn.com/bphoto/0slQRRmdXa2m43Z2gLcjFQ/o.jpg", "is_closed": false, "url": "https://www.yelp.com/biz/osteria-laguna-new-york?adjust_creative=9gNmiWYX8uTbFBeTTvJMdA&utm_campaign=yelp_api_v3&utm_medium=api_v3_business_search&utm_source=9gNmiWYX8uTbFBeTTvJMdA", "review_count": 397, "categories": [{"alias": "italian", "title": "Italian"}, {"alias": "desserts", "title": "Desserts"}, {"alias": "wine_bars", "title": "Wine Bars"}], "rating": 3.5, "coordinates": {"latitude": 40.750656315963745, "longitude": -73.97356620000002}, "transactions": ["delivery", "pickup"], "price": "$$$", "location": {"address1": "209 E 42nd St", "address2": "", "address3": "", "city": "New York", "zip_code": "10017", "country": "US", "state": "NY", "display_address": ["209 E 42nd St", "New York, NY 10017"]}, "phone": "+12125570001", "display_phone": "(212) 557-0001", "distance": 1005.1200575834564}, {"id": "15k7iqFbhf4h8L01yggLqg", "alias": "song-e-napule-new-york", "name": "Song E Napule", "image_url": "https://s3-media2.fl.yelpcdn.com/bphoto/y9G-nheTrxSrx4Cqg0HzHA/o.jpg", "is_closed": false, "url": "https://www.yelp.com/biz/song-e-napule-new-york?adjust_creative=9gNmiWYX8uTbFBeTTvJMdA&utm_campaign=yelp_api_v3&utm_medium=api_v3_business_search&utm_source=9gNmiWYX8uTbFBeTTvJMdA", "review_count": 673, "categories": [{"alias": "pizza", "title": "Pizza"}, {"alias": "italian", "title": "Italian"}], "rating": 4.5, "coordinates": {"latitude": 40.72813, "longitude": -74.00188}, "transactions": ["delivery", "pickup"], "price": "$$", "location": {"address1": "146 W Houston St", "address2": null, "address3": "", "city": "New York", "zip_code": "10012", "country": "US", "state": "NY", "display_address": ["146 W Houston St", "New York, NY 10012"]}, "phone": "+12125331242", "display_phone": "(212) 533-1242", "distance": 4389.774180666956}, {"id": "Ty1MvJz88DeNmX0eDHeMyQ", "alias": "pietros-new-york", "name": "Pietro's", "image_url": "https://s3-media1.fl.yelpcdn.com/bphoto/IsVLvkVbzezAKujLdzwNtg/o.jpg", "is_closed": false, "url": "https://www.yelp.com/biz/pietros-new-york?adjust_creative=9gNmiWYX8uTbFBeTTvJMdA&utm_campaign=yelp_api_v3&utm_medium=api_v3_business_search&utm_source=9gNmiWYX8uTbFBeTTvJMdA", "review_count": 139, "categories": [{"alias": "steak", "title": "Steakhouses"}, {"alias": "italian", "title": "Italian"}, {"alias": "wine_bars", "title": "Wine Bars"}], "rating": 4.0, "coordinates": {"latitude": 40.7506055, "longitude": -73.9721964}, "transactions": ["delivery", "pickup"], "price": "$$$", "location": {"address1": "232 E 43rd St", "address2": "", "address3": "", "city": "New York", "zip_code": "10017", "country": "US", "state": "NY", "display_address": ["232 E 43rd St", "New York, NY 10017"]}, "phone": "+12126829760", "display_phone": "(212) 682-9760", "distance": 978.1194744297488}, {"id": "E1RvMNZ4re4TnKarjx14Zw", "alias": "cacio-e-pepe-new-york", "name": "Cacio E Pepe", "image_url": "https://s3-media1.fl.yelpcdn.com/bphoto/LFV4f6RjZN7DvnQzn_3cfw/o.jpg", "is_closed": false, "url": "https://www.yelp.com/biz/cacio-e-pepe-new-york?adjust_creative=9gNmiWYX8uTbFBeTTvJMdA&utm_campaign=yelp_api_v3&utm_medium=api_v3_business_search&utm_source=9gNmiWYX8uTbFBeTTvJMdA", "review_count": 719, "categories": [{"alias": "italian", "title": "Italian"}, {"alias": "bars", "title": "Bars"}], "rating": 3.5, "coordinates": {"latitude": 40.73065490170433, "longitude": -73.98593714531415}, "transactions": ["delivery", "pickup"], "price": "$$", "location": {"address1": "182 2nd Ave", "address2": null, "address3": "", "city": "New York", "zip_code": "10003", "country": "US", "state": "NY", "display_address": ["182 2nd Ave", "New York, NY 10003"]}, "phone": "+12125055931", "display_phone": "(212) 505-5931", "distance": 3457.9039042198224}, {"id": "d5ya04K-2A_hI3Xzqe1HeA", "alias": "caffe-buon-gusto-new-york-4", "name": "Caffe Buon Gusto", "image_url": "https://s3-media1.fl.yelpcdn.com/bphoto/45vHxidby2Jr4o3hTAkJBg/o.jpg", "is_closed": false, "url": "https://www.yelp.com/biz/caffe-buon-gusto-new-york-4?adjust_creative=9gNmiWYX8uTbFBeTTvJMdA&utm_campaign=yelp_api_v3&utm_medium=api_v3_business_search&utm_source=9gNmiWYX8uTbFBeTTvJMdA", "review_count": 663, "categories": [{"alias": "italian", "title": "Italian"}], "rating": 4.0, "coordinates": {"latitude": 40.77249, "longitude": -73.95713}, "transactions": ["delivery", "pickup"], "price": "$$", "location": {"address1": "236 E 77th St", "address2": "", "address3": "", "city": "New York", "zip_code": "10075", "country": "US", "state": "NY", "display_address": ["236 E 77th St", "New York, NY 10075"]}, "phone": "+12125356884", "display_phone": "(212) 535-6884", "distance": 1813.9594604619185}, {"id": "Lesv5BG0_0-8bB49cAjMkg", "alias": "robertos-bronx", "name": "Roberto's", "image_url": "https://s3-media2.fl.yelpcdn.com/bphoto/R9WJjWqT7nBvupeSUiUcDw/o.jpg", "is_closed": false, "url": "https://www.yelp.com/biz/robertos-bronx?adjust_creative=9gNmiWYX8uTbFBeTTvJMdA&utm_campaign=yelp_api_v3&utm_medium=api_v3_business_search&utm_source=9gNmiWYX8uTbFBeTTvJMdA", "review_count": 293, "categories": [{"alias": "italian", "title": "Italian"}], "rating": 4.0, "coordinates": {"latitude": 40.85372, "longitude": -73.88834}, "transactions": ["delivery"], "price": "$$$", "location": {"address1": "603 Crescent Ave", "address2": "", "address3": "", "city": "Bronx", "zip_code": "10458", "country": "US", "state": "NY", "display_address": ["603 Crescent Ave", "Bronx, NY 10458"]}, "phone": "+17187339503", "display_phone": "(718) 733-9503", "distance": 12540.28253658413}, {"id": "1AL6P_EC6Z3UPxqhfGFb3Q", "alias": "pasta-by-hudson-new-york-4", "name": "Pasta by Hudson", "image_url": "https://s3-media1.fl.yelpcdn.com/bphoto/qihYvZHKa2t-wkb1HMCbWA/o.jpg", "is_closed": false, "url": "https://www.yelp.com/biz/pasta-by-hudson-new-york-4?adjust_creative=9gNmiWYX8uTbFBeTTvJMdA&utm_campaign=yelp_api_v3&utm_medium=api_v3_business_search&utm_source=9gNmiWYX8uTbFBeTTvJMdA", "review_count": 102, "categories": [{"alias": "pastashops", "title": "Pasta Shops"}, {"alias": "pizza", "title": "Pizza"}, {"alias": "italian", "title": "Italian"}], "rating": 4.5, "coordinates": {"latitude": 40.7427486, "longitude": -73.9969892}, "transactions": ["delivery", "pickup"], "price": "$$", "location": {"address1": "180 7th Ave", "address2": "", "address3": null, "city": "New York", "zip_code": "10011", "country": "US", "state": "NY", "display_address": ["180 7th Ave", "New York, NY 10011"]}, "phone": "", "display_phone": "", "distance": 2944.349673825947}, {"id": "tRIHhPKryUZ56SfIz6mLiA", "alias": "angelos-coal-oven-pizzeria-new-york", "name": "Angelo's Coal Oven Pizzeria", "image_url": "https://s3-media2.fl.yelpcdn.com/bphoto/LX6yLXzik0UVep_1JGG3aw/o.jpg", "is_closed": false, "url": "https://www.yelp.com/biz/angelos-coal-oven-pizzeria-new-york?adjust_creative=9gNmiWYX8uTbFBeTTvJMdA&utm_campaign=yelp_api_v3&utm_medium=api_v3_business_search&utm_source=9gNmiWYX8uTbFBeTTvJMdA", "review_count": 1127, "categories": [{"alias": "pizza", "title": "Pizza"}, {"alias": "italian", "title": "Italian"}], "rating": 4.0, "coordinates": {"latitude": 40.76492, "longitude": -73.97794}, "transactions": ["delivery", "pickup"], "price": "$$", "location": {"address1": "117 W 57th St", "address2": "", "address3": "", "city": "New York", "zip_code": "10019", "country": "US", "state": "NY", "display_address": ["117 W 57th St", "New York, NY 10019"]}, "phone": "+12123334333", "display_phone": "(212) 333-4333", "distance": 949.9772407230507}, {"id": "XfOa_KyrV7JSFJMOKckGMg", "alias": "montes-trattoria-new-york-2", "name": "Monte's Trattoria", "image_url": "https://s3-media2.fl.yelpcdn.com/bphoto/hrIRS0XNFHghmLXTOsVm-w/o.jpg", "is_closed": false, "url": "https://www.yelp.com/biz/montes-trattoria-new-york-2?adjust_creative=9gNmiWYX8uTbFBeTTvJMdA&utm_campaign=yelp_api_v3&utm_medium=api_v3_business_search&utm_source=9gNmiWYX8uTbFBeTTvJMdA", "review_count": 424, "categories": [{"alias": "italian", "title": "Italian"}], "rating": 4.0, "coordinates": {"latitude": 40.72959, "longitude": -74.0011}, "transactions": ["delivery", "pickup"], "price": "$$", "location": {"address1": "97 Macdougal St", "address2": null, "address3": "", "city": "New York", "zip_code": "10012", "country": "US", "state": "NY", "display_address": ["97 Macdougal St", "New York, NY 10012"]}, "phone": "+12122289194", "display_phone": "(212) 228-9194", "distance": 4228.057396398703}, {"id": "NAlOPUbFQVE0bUu8_wmBLQ", "alias": "rezd\u00f4ra-new-york-4", "name": "Rezd\u00f4ra", "image_url": "https://s3-media3.fl.yelpcdn.com/bphoto/flUY4VYU1QtwmO5mlpYkQw/o.jpg", "is_closed": false, "url": "https://www.yelp.com/biz/rezd%C3%B4ra-new-york-4?adjust_creative=9gNmiWYX8uTbFBeTTvJMdA&utm_campaign=yelp_api_v3&utm_medium=api_v3_business_search&utm_source=9gNmiWYX8uTbFBeTTvJMdA", "review_count": 575, "categories": [{"alias": "italian", "title": "Italian"}], "rating": 4.0, "coordinates": {"latitude": 40.73901, "longitude": -73.9891}, "transactions": ["delivery", "pickup"], "location": {"address1": "27 E 20th St", "address2": null, "address3": "", "city": "New York", "zip_code": "10003", "country": "US", "state": "NY", "display_address": ["27 E 20th St", "New York, NY 10003"]}, "phone": "", "display_phone": "", "distance": 2763.606405099569}, {"id": "tLZfepIfSf0a80zHQTbTGQ", "alias": "trattoria-zero-otto-nove-bronx", "name": "Trattoria Zero Otto Nove", "image_url": "https://s3-media2.fl.yelpcdn.com/bphoto/lvghehU8tD0cYZgOmxbLWQ/o.jpg", "is_closed": false, "url": "https://www.yelp.com/biz/trattoria-zero-otto-nove-bronx?adjust_creative=9gNmiWYX8uTbFBeTTvJMdA&utm_campaign=yelp_api_v3&utm_medium=api_v3_business_search&utm_source=9gNmiWYX8uTbFBeTTvJMdA", "review_count": 862, "categories": [{"alias": "italian", "title": "Italian"}, {"alias": "pizza", "title": "Pizza"}], "rating": 4.0, "coordinates": {"latitude": 40.854779, "longitude": -73.888474}, "transactions": ["delivery"], "price": "$$", "location": {"address1": "2357 Arthur Ave", "address2": "", "address3": "", "city": "Bronx", "zip_code": "10458", "country": "US", "state": "NY", "display_address": ["2357 Arthur Ave", "Bronx, NY 10458"]}, "phone": "+17182201027", "display_phone": "(718) 220-1027", "distance": 12633.411942318296}, {"id": "RPP_wHhM8yZYIP5W-YHk6Q", "alias": "fumo-new-york-5", "name": "Fumo", "image_url": "https://s3-media3.fl.yelpcdn.com/bphoto/Su9VjUMxjykc2yUNHZaN_w/o.jpg", "is_closed": false, "url": "https://www.yelp.com/biz/fumo-new-york-5?adjust_creative=9gNmiWYX8uTbFBeTTvJMdA&utm_campaign=yelp_api_v3&utm_medium=api_v3_business_search&utm_source=9gNmiWYX8uTbFBeTTvJMdA", "review_count": 209, "categories": [{"alias": "italian", "title": "Italian"}, {"alias": "bars", "title": "Bars"}, {"alias": "pizza", "title": "Pizza"}], "rating": 4.0, "coordinates": {"latitude": 40.80285617298625, "longitude": -73.968119}, "transactions": ["delivery", "pickup"], "price": "$$", "location": {"address1": "2791 Broadway", "address2": "", "address3": null, "city": "New York", "zip_code": "10025", "country": "US", "state": "NY", "display_address": ["2791 Broadway", "New York, NY 10025"]}, "phone": "+16468222921", "display_phone": "(646) 822-2921", "distance": 4858.696762002087}, {"id": "zo4JHfD2nWPUiqgsgDOaHQ", "alias": "raos-new-york", "name": "Rao's", "image_url": "https://s3-media2.fl.yelpcdn.com/bphoto/B7RWu3d1c8KM9SF1OoCnZw/o.jpg", "is_closed": false, "url": "https://www.yelp.com/biz/raos-new-york?adjust_creative=9gNmiWYX8uTbFBeTTvJMdA&utm_campaign=yelp_api_v3&utm_medium=api_v3_business_search&utm_source=9gNmiWYX8uTbFBeTTvJMdA", "review_count": 207, "categories": [{"alias": "italian", "title": "Italian"}], "rating": 4.5, "coordinates": {"latitude": 40.79392, "longitude": -73.93427}, "transactions": ["delivery"], "price": "$$$$", "location": {"address1": "455 E 114th St", "address2": null, "address3": "", "city": "New York", "zip_code": "10029", "country": "US", "state": "NY", "display_address": ["455 E 114th St", "New York, NY 10029"]}, "phone": "+12127226709", "display_phone": "(212) 722-6709", "distance": 4880.3432597640485}, {"id": "OwDRIugcA4LkUuTRqpJsog", "alias": "naked-dog-brooklyn-2", "name": "Naked Dog", "image_url": "https://s3-media4.fl.yelpcdn.com/bphoto/1sC00X-YIu2oxVKk2oFIfw/o.jpg", "is_closed": false, "url": "https://www.yelp.com/biz/naked-dog-brooklyn-2?adjust_creative=9gNmiWYX8uTbFBeTTvJMdA&utm_campaign=yelp_api_v3&utm_medium=api_v3_business_search&utm_source=9gNmiWYX8uTbFBeTTvJMdA", "review_count": 273, "categories": [{"alias": "italian", "title": "Italian"}, {"alias": "wine_bars", "title": "Wine Bars"}, {"alias": "cocktailbars", "title": "Cocktail Bars"}], "rating": 4.5, "coordinates": {"latitude": 40.7312720665479, "longitude": -73.9593493647979}, "transactions": ["delivery", "pickup"], "price": "$$", "location": {"address1": "47 Java St", "address2": "", "address3": "", "city": "Brooklyn", "zip_code": "11222", "country": "US", "state": "NY", "display_address": ["47 Java St", "Brooklyn, NY 11222"]}, "phone": "+19293378096", "display_phone": "(929) 337-8096", "distance": 3219.9746440353642}, {"id": "CfYxlqO3W3PCE7hVhYJNyA", "alias": "il-gradino-new-york", "name": "Il Gradino", "image_url": "https://s3-media3.fl.yelpcdn.com/bphoto/F0CDi3UZnzKF4KI_CplxHg/o.jpg", "is_closed": false, "url": "https://www.yelp.com/biz/il-gradino-new-york?adjust_creative=9gNmiWYX8uTbFBeTTvJMdA&utm_campaign=yelp_api_v3&utm_medium=api_v3_business_search&utm_source=9gNmiWYX8uTbFBeTTvJMdA", "review_count": 20, "categories": [{"alias": "italian", "title": "Italian"}], "rating": 4.0, "coordinates": {"latitude": 40.76436, "longitude": -73.96681}, "transactions": [], "location": {"address1": "808 Lexington Ave", "address2": null, "address3": "", "city": "New York", "zip_code": "10065", "country": "US", "state": "NY", "display_address": ["808 Lexington Ave", "New York, NY 10065"]}, "phone": "+16466493289", "display_phone": "(646) 649-3289", "distance": 622.8969728550811}, {"id": "6eqrk1wCQMww_ejze5gvsg", "alias": "forsythia-new-york-3", "name": "Forsythia", "image_url": "https://s3-media3.fl.yelpcdn.com/bphoto/ZdQqOCHMSoBWZbnOO3GH7Q/o.jpg", "is_closed": false, "url": "https://www.yelp.com/biz/forsythia-new-york-3?adjust_creative=9gNmiWYX8uTbFBeTTvJMdA&utm_campaign=yelp_api_v3&utm_medium=api_v3_business_search&utm_source=9gNmiWYX8uTbFBeTTvJMdA", "review_count": 132, "categories": [{"alias": "italian", "title": "Italian"}], "rating": 4.5, "coordinates": {"latitude": 40.7225353, "longitude": -73.992492}, "transactions": ["delivery"], "price": "$$$$", "location": {"address1": "9 Stanton St", "address2": "", "address3": null, "city": "New York", "zip_code": "10002", "country": "US", "state": "NY", "display_address": ["9 Stanton St", "New York, NY 10002"]}, "phone": "+16465900609", "display_phone": "(646) 590-0609", "distance": 4508.485570784907}, {"id": "aJJlY5xvqS180wtRIHEWqA", "alias": "cotenna-new-york", "name": "Cotenna", "image_url": "https://s3-media2.fl.yelpcdn.com/bphoto/A9FtedBK3bJGB7t-EeclJg/o.jpg", "is_closed": false, "url": "https://www.yelp.com/biz/cotenna-new-york?adjust_creative=9gNmiWYX8uTbFBeTTvJMdA&utm_campaign=yelp_api_v3&utm_medium=api_v3_business_search&utm_source=9gNmiWYX8uTbFBeTTvJMdA", "review_count": 458, "categories": [{"alias": "italian", "title": "Italian"}], "rating": 4.0, "coordinates": {"latitude": 40.72903, "longitude": -74.00357}, "transactions": ["delivery", "pickup"], "price": "$$", "location": {"address1": "21 Bedford St", "address2": "", "address3": "", "city": "New York", "zip_code": "10014", "country": "US", "state": "NY", "display_address": ["21 Bedford St", "New York, NY 10014"]}, "phone": "+16468610175", "display_phone": "(646) 861-0175", "distance": 4415.279475120077}, {"id": "QObHX0yR6zd0WfksRDbJTA", "alias": "becco-new-york-4", "name": "Becco", "image_url": "https://s3-media4.fl.yelpcdn.com/bphoto/0kl3RrX7mCHN523eJF9miQ/o.jpg", "is_closed": false, "url": "https://www.yelp.com/biz/becco-new-york-4?adjust_creative=9gNmiWYX8uTbFBeTTvJMdA&utm_campaign=yelp_api_v3&utm_medium=api_v3_business_search&utm_source=9gNmiWYX8uTbFBeTTvJMdA", "review_count": 3078, "categories": [{"alias": "italian", "title": "Italian"}], "rating": 3.5, "coordinates": {"latitude": 40.76083, "longitude": -73.98981}, "transactions": ["delivery", "pickup"], "price": "$$$", "location": {"address1": "355 W 46th St", "address2": "", "address3": "", "city": "New York", "zip_code": "10036", "country": "US", "state": "NY", "display_address": ["355 W 46th St", "New York, NY 10036"]}, "phone": "+12123977597", "display_phone": "(212) 397-7597", "distance": 1715.8672721574314}, {"id": "IEb99GmOvg585gmwmm4iNA", "alias": "azalea-ristorante-new-york", "name": "Azalea Ristorante", "image_url": "https://s3-media2.fl.yelpcdn.com/bphoto/SN-xRGv7lzqGoSwHC6h-kg/o.jpg", "is_closed": false, "url": "https://www.yelp.com/biz/azalea-ristorante-new-york?adjust_creative=9gNmiWYX8uTbFBeTTvJMdA&utm_campaign=yelp_api_v3&utm_medium=api_v3_business_search&utm_source=9gNmiWYX8uTbFBeTTvJMdA", "review_count": 325, "categories": [{"alias": "italian", "title": "Italian"}], "rating": 4.0, "coordinates": {"latitude": 40.76284953588084, "longitude": -73.98522287224887}, "transactions": ["delivery", "pickup"], "price": "$$$", "location": {"address1": "224 W 51st St", "address2": "", "address3": "", "city": "New York", "zip_code": "10019", "country": "US", "state": "NY", "display_address": ["224 W 51st St", "New York, NY 10019"]}, "phone": "+12122620105", "display_phone": "(212) 262-0105", "distance": 1379.892093366867}, {"id": "V-FCEicobl5Su-R7EVJQNA", "alias": "la-lanterna-di-vittorio-new-york", "name": "La Lanterna Di Vittorio", "image_url": "https://s3-media1.fl.yelpcdn.com/bphoto/OV8VUNB1pQpRi-FmjqXuLw/o.jpg", "is_closed": false, "url": "https://www.yelp.com/biz/la-lanterna-di-vittorio-new-york?adjust_creative=9gNmiWYX8uTbFBeTTvJMdA&utm_campaign=yelp_api_v3&utm_medium=api_v3_business_search&utm_source=9gNmiWYX8uTbFBeTTvJMdA", "review_count": 1634, "categories": [{"alias": "italian", "title": "Italian"}, {"alias": "cafes", "title": "Cafes"}, {"alias": "pizza", "title": "Pizza"}], "rating": 4.0, "coordinates": {"latitude": 40.73069, "longitude": -74.00015}, "transactions": ["delivery", "pickup"], "price": "$$", "location": {"address1": "129 MacDougal St", "address2": "", "address3": "", "city": "New York", "zip_code": "10012", "country": "US", "state": "NY", "display_address": ["129 MacDougal St", "New York, NY 10012"]}, "phone": "+19176393236", "display_phone": "(917) 639-3236", "distance": 4080.754294571081}, {"id": "qKfD10PsDKP_9B7O1_7oJQ", "alias": "allantico-vinaio-new-york", "name": "All'Antico Vinaio", "image_url": "https://s3-media3.fl.yelpcdn.com/bphoto/fCDsxQ8KagtRtz126xBlAg/o.jpg", "is_closed": false, "url": "https://www.yelp.com/biz/allantico-vinaio-new-york?adjust_creative=9gNmiWYX8uTbFBeTTvJMdA&utm_campaign=yelp_api_v3&utm_medium=api_v3_business_search&utm_source=9gNmiWYX8uTbFBeTTvJMdA", "review_count": 218, "categories": [{"alias": "italian", "title": "Italian"}, {"alias": "sandwiches", "title": "Sandwiches"}], "rating": 4.5, "coordinates": {"latitude": 40.7597, "longitude": -73.98823}, "transactions": ["delivery", "pickup"], "price": "$$", "location": {"address1": "729 8th Ave", "address2": null, "address3": "", "city": "New York", "zip_code": "10036", "country": "US", "state": "NY", "display_address": ["729 8th Ave", "New York, NY 10036"]}, "phone": "+19179700033", "display_phone": "(917) 970-0033", "distance": 1577.0395067825539}, {"id": "rupPZLhd0oRSAmVDaeYaGA", "alias": "bocca-di-bacco-hells-kitchen-new-york", "name": "Bocca di Bacco Hell's Kitchen", "image_url": "https://s3-media2.fl.yelpcdn.com/bphoto/RM21GbIqI9LzQbLHxZXepw/o.jpg", "is_closed": false, "url": "https://www.yelp.com/biz/bocca-di-bacco-hells-kitchen-new-york?adjust_creative=9gNmiWYX8uTbFBeTTvJMdA&utm_campaign=yelp_api_v3&utm_medium=api_v3_business_search&utm_source=9gNmiWYX8uTbFBeTTvJMdA", "review_count": 703, "categories": [{"alias": "italian", "title": "Italian"}], "rating": 4.0, "coordinates": {"latitude": 40.7662168, "longitude": -73.9867943}, "transactions": ["delivery", "pickup"], "price": "$$$", "location": {"address1": "836 9th Ave", "address2": "", "address3": "", "city": "New York", "zip_code": "10019", "country": "US", "state": "NY", "display_address": ["836 9th Ave", "New York, NY 10019"]}, "phone": "+12122658828", "display_phone": "(212) 265-8828", "distance": 1648.203965610089}, {"id": "KCBfW6sWl9Gx-LvMff08jg", "alias": "osteria-morini-new-york-3", "name": "Osteria Morini", "image_url": "https://s3-media3.fl.yelpcdn.com/bphoto/4VU9R-TAo0Yga-Ih3H4W6A/o.jpg", "is_closed": false, "url": "https://www.yelp.com/biz/osteria-morini-new-york-3?adjust_creative=9gNmiWYX8uTbFBeTTvJMdA&utm_campaign=yelp_api_v3&utm_medium=api_v3_business_search&utm_source=9gNmiWYX8uTbFBeTTvJMdA", "review_count": 1274, "categories": [{"alias": "italian", "title": "Italian"}, {"alias": "cocktailbars", "title": "Cocktail Bars"}, {"alias": "wine_bars", "title": "Wine Bars"}], "rating": 4.0, "coordinates": {"latitude": 40.7219179851303, "longitude": -73.9976472073402}, "transactions": ["pickup"], "price": "$$$", "location": {"address1": "218 Lafayette St", "address2": "", "address3": "", "city": "New York", "zip_code": "10012", "country": "US", "state": "NY", "display_address": ["218 Lafayette St", "New York, NY 10012"]}, "phone": "+12129658777", "display_phone": "(212) 965-8777", "distance": 4770.3604645335145}, {"id": "lP4ynyBoeFPywLg78XkMmw", "alias": "cibo-e-vino-new-york", "name": "Cibo e Vino", "image_url": "https://s3-media4.fl.yelpcdn.com/bphoto/9NIUFglU7wufmGSkz3y0RQ/o.jpg", "is_closed": false, "url": "https://www.yelp.com/biz/cibo-e-vino-new-york?adjust_creative=9gNmiWYX8uTbFBeTTvJMdA&utm_campaign=yelp_api_v3&utm_medium=api_v3_business_search&utm_source=9gNmiWYX8uTbFBeTTvJMdA", "review_count": 398, "categories": [{"alias": "italian", "title": "Italian"}, {"alias": "mediterranean", "title": "Mediterranean"}, {"alias": "wine_bars", "title": "Wine Bars"}], "rating": 4.0, "coordinates": {"latitude": 40.79000179662657, "longitude": -73.97485616653263}, "transactions": ["delivery", "pickup"], "price": "$$$", "location": {"address1": "2418 Broadway", "address2": "", "address3": "", "city": "New York", "zip_code": "10024", "country": "US", "state": "NY", "display_address": ["2418 Broadway", "New York, NY 10024"]}, "phone": "+12123620096", "display_phone": "(212) 362-0096", "distance": 3456.5499521435895}], "total": 4600, "region": {"center": {"longitude": -73.96957397460938, "latitude": 40.75917470627005}}}