{"businesses": [{"id": "hyBM_Xk9Hzp38acTHAHlBQ", "alias": "dellanima-new-york-3", "name": "dell'anima", "image_url": "https://s3-media4.fl.yelpcdn.com/bphoto/jMyra4neg2dhy4ctIRwsxg/o.jpg", "is_closed": false, "url": "https://www.yelp.com/biz/dellanima-new-york-3?adjust_creative=9gNmiWYX8uTbFBeTTvJMdA&utm_campaign=yelp_api_v3&utm_medium=api_v3_business_search&utm_source=9gNmiWYX8uTbFBeTTvJMdA", "review_count": 683, "categories": [{"alias": "italian", "title": "Italian"}], "rating": 4.0, "coordinates": {"latitude": 40.7661790467228, "longitude": -73.99445587334046}, "transactions": ["delivery"], "price": "$$$", "location": {"address1": "600 11th Ave", "address2": null, "address3": "", "city": "New York", "zip_code": "10036", "country": "US", "state": "NY", "display_address": ["600 11th Ave", "New York, NY 10036"]}, "phone": "+12123666633", "display_phone": "(212) 366-6633", "distance": 2235.6372762425485}, {"id": "uzEhT55QIdk9YbfFwmlRzQ", "alias": "altesi-ristorante-new-york", "name": "Altesi Ristorante", "image_url": "https://s3-media4.fl.yelpcdn.com/bphoto/dw785QW7sknjVbhlzAYaZA/o.jpg", "is_closed": false, "url": "https://www.yelp.com/biz/altesi-ristorante-new-york?adjust_creative=9gNmiWYX8uTbFBeTTvJMdA&utm_campaign=yelp_api_v3&utm_medium=api_v3_business_search&utm_source=9gNmiWYX8uTbFBeTTvJMdA", "review_count": 84, "categories": [{"alias": "italian", "title": "Italian"}, {"alias": "wine_bars", "title": "Wine Bars"}], "rating": 4.0, "coordinates": {"latitude": 40.76667, "longitude": -73.96959}, "transactions": ["pickup", "delivery"], "price": "$$$", "location": {"address1": "26 E 64th St", "address2": "", "address3": "", "city": "New York", "zip_code": "10065", "country": "US", "state": "NY", "display_address": ["26 E 64th St", "New York, NY 10065"]}, "phone": "+12127598900", "display_phone": "(212) 759-8900", "distance": 834.3831485708761}, {"id": "-hUvO0C0A-pGZdiSKvjoFw", "alias": "babbo-new-york", "name": "Babbo", "image_url": "https://s3-media1.fl.yelpcdn.com/bphoto/SvqCcKsITPZBvadlnaFV3g/o.jpg", "is_closed": false, "url": "https://www.yelp.com/biz/babbo-new-york?adjust_creative=9gNmiWYX8uTbFBeTTvJMdA&utm_campaign=yelp_api_v3&utm_medium=api_v3_business_search&utm_source=9gNmiWYX8uTbFBeTTvJMdA", "review_count": 2589, "categories": [{"alias": "italian", "title": "Italian"}], "rating": 4.0, "coordinates": {"latitude": 40.732283, "longitude": -73.999284}, "transactions": ["pickup", "delivery"], "price": "$$$$", "location": {"address1": "110 Waverly Pl", "address2": "", "address3": "", "city": "New York", "zip_code": "10011", "country": "US", "state": "NY", "display_address": ["110 Waverly Pl", "New York, NY 10011"]}, "phone": "+12127770303", "display_phone": "(212) 777-0303", "distance": 3899.4454875090482}, {"id": "k5fd-RSdG4IuXnnGSQ5oOw", "alias": "san-marzano-pasta-fresca-new-york", "name": "San Marzano Pasta Fresca", "image_url": "https://s3-media1.fl.yelpcdn.com/bphoto/zdM-ivewN83FqN36dZHChw/o.jpg", "is_closed": false, "url": "https://www.yelp.com/biz/san-marzano-pasta-fresca-new-york?adjust_creative=9gNmiWYX8uTbFBeTTvJMdA&utm_campaign=yelp_api_v3&utm_medium=api_v3_business_search&utm_source=9gNmiWYX8uTbFBeTTvJMdA", "review_count": 1494, "categories": [{"alias": "italian", "title": "Italian"}, {"alias": "bars", "title": "Bars"}, {"alias": "breakfast_brunch", "title": "Breakfast & Brunch"}], "rating": 4.0, "coordinates": {"latitude": 40.727966, "longitude": -73.988382}, "transactions": ["delivery", "pickup"], "price": "$$", "location": {"address1": "117 Second Ave", "address2": "", "address3": "", "city": "New York", "zip_code": "10003", "country": "US", "state": "NY", "display_address": ["117 Second Ave", "New York, NY 10003"]}, "phone": "+12127773600", "display_phone": "(212) 777-3600", "distance": 3812.747653615812}, {"id": "vbGqzhH_exG5HOG1I23kvg", "alias": "park-side-restaurant-corona-2", "name": "Park Side Restaurant", "image_url": "https://s3-media3.fl.yelpcdn.com/bphoto/-9uDdrTSW2wyVQvurG307Q/o.jpg", "is_closed": false, "url": "https://www.yelp.com/biz/park-side-restaurant-corona-2?adjust_creative=9gNmiWYX8uTbFBeTTvJMdA&utm_campaign=yelp_api_v3&utm_medium=api_v3_business_search&utm_source=9gNmiWYX8uTbFBeTTvJMdA", "review_count": 879, "categories": [{"alias": "italian", "title": "Italian"}], "rating": 4.0, "coordinates": {"latitude": 40.743843, "longitude": -73.856118}, "transactions": ["delivery"], "price": "$$$", "location": {"address1": "107-01 Corona Ave", "address2": "", "address3": "", "city": "Corona", "zip_code": "11368", "country": "US", "state": "NY", "display_address": ["107-01 Corona Ave", "Corona, NY 11368"]}, "phone": "+17182719871", "display_phone": "(718) 271-9871", "distance": 9707.869497927823}, {"id": "I0N_QtJy7sLiuW_vmvRIhg", "alias": "maruzzella-new-york-3", "name": "Maruzzella", "image_url": "https://s3-media2.fl.yelpcdn.com/bphoto/GuTzIB4XxoGzjDTbN0GPrw/o.jpg", "is_closed": false, "url": "https://www.yelp.com/biz/maruzzella-new-york-3?adjust_creative=9gNmiWYX8uTbFBeTTvJMdA&utm_campaign=yelp_api_v3&utm_medium=api_v3_business_search&utm_source=9gNmiWYX8uTbFBeTTvJMdA", "review_count": 138, "categories": [{"alias": "italian", "title": "Italian"}], "rating": 4.0, "coordinates": {"latitude": 40.77135, "longitude": -73.95379}, "transactions": ["pickup", "delivery"], "price": "$$", "location": {"address1": "1483 1st Ave", "address2": "", "address3": "", "city": "New York", "zip_code": "10075", "country": "US", "state": "NY", "display_address": ["1483 1st Ave", "New York, NY 10075"]}, "phone": "+12129888877", "display_phone": "(212) 988-8877", "distance": 1902.5328191894334}, {"id": "25npnVAlhRjguunYS8zy8w", "alias": "piccola-strada-new-york", "name": "Piccola Strada", "image_url": "https://s3-media4.fl.yelpcdn.com/bphoto/Otzhs2DxuJfYpFeUoWRUOg/o.jpg", "is_closed": false, "url": "https://www.yelp.com/biz/piccola-strada-new-york?adjust_creative=9gNmiWYX8uTbFBeTTvJMdA&utm_campaign=yelp_api_v3&utm_medium=api_v3_business_search&utm_source=9gNmiWYX8uTbFBeTTvJMdA", "review_count": 227, "categories": [{"alias": "italian", "title": "Italian"}], "rating": 4.5, "coordinates": {"latitude": 40.72662, "longitude": -73.99019}, "transactions": ["delivery"], "price": "$$", "location": {"address1": "77 E 4th St", "address2": null, "address3": "", "city": "New York", "zip_code": "10003", "country": "US", "state": "NY", "display_address": ["77 E 4th St", "New York, NY 10003"]}, "phone": "+12126741557", "display_phone": "(212) 674-1557", "distance": 4004.5347707857613}, {"id": "nTCFXqiQPTvDfnAxHfA64A", "alias": "trattoria-tra-di-noi-bronx", "name": "Trattoria Tra di Noi", "image_url": "https://s3-media2.fl.yelpcdn.com/bphoto/RStkSOokoQ4w5r0Z0XCeog/o.jpg", "is_closed": false, "url": "https://www.yelp.com/biz/trattoria-tra-di-noi-bronx?adjust_creative=9gNmiWYX8uTbFBeTTvJMdA&utm_campaign=yelp_api_v3&utm_medium=api_v3_business_search&utm_source=9gNmiWYX8uTbFBeTTvJMdA", "review_count": 179, "categories": [{"alias": "italian", "title": "Italian"}, {"alias": "seafood", "title": "Seafood"}], "rating": 4.0, "coordinates": {"latitude": 40.85493, "longitude": -73.8869}, "transactions": ["delivery"], "price": "$$", "location": {"address1": "622 East 187th St", "address2": "", "address3": "", "city": "Bronx", "zip_code": "10458", "country": "US", "state": "NY", "display_address": ["622 East 187th St", "Bronx, NY 10458"]}, "phone": "+17182951784", "display_phone": "(718) 295-1784", "distance": 12719.889814844017}, {"id": "1ZKbUeFAs0ltSnAYq4ELKw", "alias": "trattoria-l-incontro-astoria-6", "name": "Trattoria L'incontro", "image_url": "https://s3-media2.fl.yelpcdn.com/bphoto/Af5eeeRiRvqDL6Qrd7CMIA/o.jpg", "is_closed": false, "url": "https://www.yelp.com/biz/trattoria-l-incontro-astoria-6?adjust_creative=9gNmiWYX8uTbFBeTTvJMdA&utm_campaign=yelp_api_v3&utm_medium=api_v3_business_search&utm_source=9gNmiWYX8uTbFBeTTvJMdA", "review_count": 1093, "categories": [{"alias": "italian", "title": "Italian"}, {"alias": "pizza", "title": "Pizza"}, {"alias": "salad", "title": "Salad"}], "rating": 4.5, "coordinates": {"latitude": 40.77648209257472, "longitude": -73.91059675544598}, "transactions": ["delivery", "pickup"], "price": "$$$", "location": {"address1": "21-76 31st St", "address2": null, "address3": "", "city": "Astoria", "zip_code": "11105", "country": "US", "state": "NY", "display_address": ["21-76 31st St", "Astoria, NY 11105"]}, "phone": "+17187213532", "display_phone": "(718) 721-3532", "distance": 5326.561694711036}, {"id": "iXV4FMZPru7BB_nwN_8mVw", "alias": "maiella-long-island-city", "name": "Maiella", "image_url": "https://s3-media2.fl.yelpcdn.com/bphoto/onoXC1moUnIedEDQpJacMQ/o.jpg", "is_closed": false, "url": "https://www.yelp.com/biz/maiella-long-island-city?adjust_creative=9gNmiWYX8uTbFBeTTvJMdA&utm_campaign=yelp_api_v3&utm_medium=api_v3_business_search&utm_source=9gNmiWYX8uTbFBeTTvJMdA", "review_count": 1093, "categories": [{"alias": "italian", "title": "Italian"}, {"alias": "seafood", "title": "Seafood"}, {"alias": "cocktailbars", "title": "Cocktail Bars"}], "rating": 4.0, "coordinates": {"latitude": 40.7471944, "longitude": -73.9566640197964}, "transactions": ["pickup", "delivery"], "price": "$$$", "location": {"address1": "4610 Center Blvd", "address2": "", "address3": "", "city": "Long Island City", "zip_code": "11109", "country": "US", "state": "NY", "display_address": ["4610 Center Blvd", "Long Island City, NY 11109"]}, "phone": "+17186061770", "display_phone": "(718) 606-1770", "distance": 1719.6394518691275}, {"id": "1CSsMjfgqWShayQBwNuoNg", "alias": "erbaluce-new-york-2", "name": "Erbaluce", "image_url": "https://s3-media3.fl.yelpcdn.com/bphoto/-FWRDav1FDawBteJ-fxNMA/o.jpg", "is_closed": false, "url": "https://www.yelp.com/biz/erbaluce-new-york-2?adjust_creative=9gNmiWYX8uTbFBeTTvJMdA&utm_campaign=yelp_api_v3&utm_medium=api_v3_business_search&utm_source=9gNmiWYX8uTbFBeTTvJMdA", "review_count": 10, "categories": [{"alias": "italian", "title": "Italian"}, {"alias": "cocktailbars", "title": "Cocktail Bars"}, {"alias": "venues", "title": "Venues & Event Spaces"}], "rating": 4.5, "coordinates": {"latitude": 40.741718, "longitude": -73.992427}, "transactions": ["pickup", "delivery"], "location": {"address1": "46 W 22nd St", "address2": null, "address3": "", "city": "New York", "zip_code": "10010", "country": "US", "state": "NY", "display_address": ["46 W 22nd St", "New York, NY 10010"]}, "phone": "+12129331929", "display_phone": "(212) 933-1929", "distance": 2736.310042754843}, {"id": "77llOAEwInvK-oC2AHZ4nQ", "alias": "coppolas-east-new-york-4", "name": "Coppola's East", "image_url": "https://s3-media3.fl.yelpcdn.com/bphoto/HqNHB6RkOi1ZqL6D4B_TyQ/o.jpg", "is_closed": false, "url": "https://www.yelp.com/biz/coppolas-east-new-york-4?adjust_creative=9gNmiWYX8uTbFBeTTvJMdA&utm_campaign=yelp_api_v3&utm_medium=api_v3_business_search&utm_source=9gNmiWYX8uTbFBeTTvJMdA", "review_count": 417, "categories": [{"alias": "italian", "title": "Italian"}, {"alias": "bars", "title": "Bars"}, {"alias": "coffee", "title": "Coffee & Tea"}], "rating": 4.0, "coordinates": {"latitude": 40.74165, "longitude": -73.98154}, "transactions": ["pickup", "delivery"], "price": "$$", "location": {"address1": "378 3rd Ave", "address2": "", "address3": "", "city": "New York", "zip_code": "10016", "country": "US", "state": "NY", "display_address": ["378 3rd Ave", "New York, NY 10016"]}, "phone": "+12126790070", "display_phone": "(212) 679-0070", "distance": 2191.9548767423216}, {"id": "5MpWHGQ6Qc-M4q1KL_nioA", "alias": "bar-b-new-york", "name": "Bar B", "image_url": "https://s3-media1.fl.yelpcdn.com/bphoto/0dNcEVjeOhWctIRR2EVCWg/o.jpg", "is_closed": false, "url": "https://www.yelp.com/biz/bar-b-new-york?adjust_creative=9gNmiWYX8uTbFBeTTvJMdA&utm_campaign=yelp_api_v3&utm_medium=api_v3_business_search&utm_source=9gNmiWYX8uTbFBeTTvJMdA", "review_count": 195, "categories": [{"alias": "italian", "title": "Italian"}, {"alias": "bars", "title": "Bars"}, {"alias": "tapas", "title": "Tapas Bars"}], "rating": 4.5, "coordinates": {"latitude": 40.7395804, "longitude": -73.999118}, "transactions": ["pickup", "delivery"], "price": "$$", "location": {"address1": "84 7th Ave", "address2": null, "address3": "", "city": "New York", "zip_code": "10011", "country": "US", "state": "NY", "display_address": ["84 7th Ave", "New York, NY 10011"]}, "phone": "+12122291888", "display_phone": "(212) 229-1888", "distance": 3319.6842107392326}, {"id": "QPEzLkO35OTYijFhs8d7-w", "alias": "the-reading-room-new-york", "name": "The Reading Room", "image_url": "https://s3-media2.fl.yelpcdn.com/bphoto/3iAdQtbNvWwrQuXXtM9q0A/o.jpg", "is_closed": false, "url": "https://www.yelp.com/biz/the-reading-room-new-york?adjust_creative=9gNmiWYX8uTbFBeTTvJMdA&utm_campaign=yelp_api_v3&utm_medium=api_v3_business_search&utm_source=9gNmiWYX8uTbFBeTTvJMdA", "review_count": 46, "categories": [{"alias": "newamerican", "title": "American (New)"}, {"alias": "cocktailbars", "title": "Cocktail Bars"}, {"alias": "breakfast_brunch", "title": "Breakfast & Brunch"}], "rating": 5.0, "coordinates": {"latitude": 40.7555, "longitude": -73.97802}, "transactions": [], "location": {"address1": "16 E 46th St", "address2": null, "address3": "", "city": "New York", "zip_code": "10017", "country": "US", "state": "NY", "display_address": ["16 E 46th St", "New York, NY 10017"]}, "phone": "+16463962708", "display_phone": "(646) 396-2708", "distance": 830.3652718128678}, {"id": "QUTSHrHw3qRZjf749VM1Yg", "alias": "serafina-italian-restaurant-osteria-new-york", "name": "Serafina Italian Restaurant Osteria", "image_url": "https://s3-media2.fl.yelpcdn.com/bphoto/4aVh4t3RRffMBp6FeQtKwg/o.jpg", "is_closed": false, "url": "https://www.yelp.com/biz/serafina-italian-restaurant-osteria-new-york?adjust_creative=9gNmiWYX8uTbFBeTTvJMdA&utm_campaign=yelp_api_v3&utm_medium=api_v3_business_search&utm_source=9gNmiWYX8uTbFBeTTvJMdA", "review_count": 147, "categories": [{"alias": "italian", "title": "Italian"}, {"alias": "wine_bars", "title": "Wine Bars"}, {"alias": "beerbar", "title": "Beer Bar"}], "rating": 3.5, "coordinates": {"latitude": 40.76273, "longitude": -73.97155}, "transactions": ["pickup", "delivery"], "price": "$$", "location": {"address1": "38 E 58th St", "address2": "", "address3": "", "city": "New York", "zip_code": "10022", "country": "US", "state": "NY", "display_address": ["38 E 58th St", "New York, NY 10022"]}, "phone": "+12128328888", "display_phone": "(212) 832-8888", "distance": 429.45845810038844}, {"id": "e7jRn5TNlF84k7PuvJ1MOA", "alias": "manducatis-rustica-long-island-city", "name": "Manducatis Rustica", "image_url": "https://s3-media1.fl.yelpcdn.com/bphoto/DIHGAoPTLnjBteAdWXzlYQ/o.jpg", "is_closed": false, "url": "https://www.yelp.com/biz/manducatis-rustica-long-island-city?adjust_creative=9gNmiWYX8uTbFBeTTvJMdA&utm_campaign=yelp_api_v3&utm_medium=api_v3_business_search&utm_source=9gNmiWYX8uTbFBeTTvJMdA", "review_count": 226, "categories": [{"alias": "italian", "title": "Italian"}, {"alias": "desserts", "title": "Desserts"}, {"alias": "gelato", "title": "Gelato"}], "rating": 4.0, "coordinates": {"latitude": 40.7458575124991, "longitude": -73.9528775638914}, "transactions": ["pickup", "delivery"], "price": "$$", "location": {"address1": "46-33 Vernon Blvd", "address2": null, "address3": "", "city": "Long Island City", "zip_code": "11101", "country": "US", "state": "NY", "display_address": ["46-33 Vernon Blvd", "Long Island City, NY 11101"]}, "phone": "+17189371312", "display_phone": "(718) 937-1312", "distance": 2042.2433329455164}, {"id": "J0OeDwmh5JBhid0A5GvltA", "alias": "il-corallo-trattoria-new-york", "name": "Il Corallo Trattoria", "image_url": "https://s3-media2.fl.yelpcdn.com/bphoto/GQZVMl-a6lIpu_ZnB5xcgw/o.jpg", "is_closed": false, "url": "https://www.yelp.com/biz/il-corallo-trattoria-new-york?adjust_creative=9gNmiWYX8uTbFBeTTvJMdA&utm_campaign=yelp_api_v3&utm_medium=api_v3_business_search&utm_source=9gNmiWYX8uTbFBeTTvJMdA", "review_count": 1115, "categories": [{"alias": "italian", "title": "Italian"}, {"alias": "pizza", "title": "Pizza"}], "rating": 4.0, "coordinates": {"latitude": 40.7262073, "longitude": -74.0018919}, "transactions": ["pickup", "delivery"], "price": "$$", "location": {"address1": "176 Prince St", "address2": "", "address3": "", "city": "New York", "zip_code": "10012", "country": "US", "state": "NY", "display_address": ["176 Prince St", "New York, NY 10012"]}, "phone": "+12129417119", "display_phone": "(212) 941-7119", "distance": 4566.297396112776}, {"id": "a4WZUTKn90dOkeY38JHNjQ", "alias": "aurora-brooklyn", "name": "Aurora", "image_url": "https://s3-media2.fl.yelpcdn.com/bphoto/LvKPF-dTQBroJUrFtDrwBw/o.jpg", "is_closed": false, "url": "https://www.yelp.com/biz/aurora-brooklyn?adjust_creative=9gNmiWYX8uTbFBeTTvJMdA&utm_campaign=yelp_api_v3&utm_medium=api_v3_business_search&utm_source=9gNmiWYX8uTbFBeTTvJMdA", "review_count": 795, "categories": [{"alias": "italian", "title": "Italian"}, {"alias": "comfortfood", "title": "Comfort Food"}], "rating": 4.0, "coordinates": {"latitude": 40.715621, "longitude": -73.964757}, "transactions": ["pickup", "delivery"], "price": "$$", "location": {"address1": "70 Grand St", "address2": "", "address3": "", "city": "Brooklyn", "zip_code": "11249", "country": "US", "state": "NY", "display_address": ["70 Grand St", "Brooklyn, NY 11249"]}, "phone": "+17183885100", "display_phone": "(718) 388-5100", "distance": 4859.92127652071}, {"id": "hSpZSqElyjHTfE4lQJ97Cg", "alias": "mareluna-new-york", "name": "Mareluna", "image_url": "https://s3-media4.fl.yelpcdn.com/bphoto/qpfkeUNkXgDwNKP4VaWwLQ/o.jpg", "is_closed": false, "url": "https://www.yelp.com/biz/mareluna-new-york?adjust_creative=9gNmiWYX8uTbFBeTTvJMdA&utm_campaign=yelp_api_v3&utm_medium=api_v3_business_search&utm_source=9gNmiWYX8uTbFBeTTvJMdA", "review_count": 66, "categories": [{"alias": "italian", "title": "Italian"}], "rating": 4.5, "coordinates": {"latitude": 40.726787, "longitude": -74.001836}, "transactions": ["pickup", "delivery"], "location": {"address1": "137 Sullivan St", "address2": null, "address3": "", "city": "New York", "zip_code": "10012", "country": "US", "state": "NY", "display_address": ["137 Sullivan St", "New York, NY 10012"]}, "phone": "+12125107774", "display_phone": "(212) 510-7774", "distance": 4511.8674401307935}, {"id": "T-RXDLq_VEv7s1_SooYIYQ", "alias": "osteria-57-new-york", "name": "Osteria 57", "image_url": "https://s3-media2.fl.yelpcdn.com/bphoto/KD1qrK51WILJwl4mwp6g1g/o.jpg", "is_closed": false, "url": "https://www.yelp.com/biz/osteria-57-new-york?adjust_creative=9gNmiWYX8uTbFBeTTvJMdA&utm_campaign=yelp_api_v3&utm_medium=api_v3_business_search&utm_source=9gNmiWYX8uTbFBeTTvJMdA", "review_count": 298, "categories": [{"alias": "italian", "title": "Italian"}, {"alias": "seafood", "title": "Seafood"}, {"alias": "wine_bars", "title": "Wine Bars"}], "rating": 4.5, "coordinates": {"latitude": 40.73467, "longitude": -73.99786}, "transactions": ["pickup", "delivery"], "price": "$$$", "location": {"address1": "57 W 10th St", "address2": null, "address3": "", "city": "New York", "zip_code": "10011", "country": "US", "state": "NY", "display_address": ["57 W 10th St", "New York, NY 10011"]}, "phone": "+12127770057", "display_phone": "(212) 777-0057", "distance": 3619.010803185309}, {"id": "Sp-vnk-waTvKblG_88M4TA", "alias": "trapizzino-new-york", "name": "Trapizzino", "image_url": "https://s3-media1.fl.yelpcdn.com/bphoto/tueJs5B-V_ccXA1Hst4ToQ/o.jpg", "is_closed": false, "url": "https://www.yelp.com/biz/trapizzino-new-york?adjust_creative=9gNmiWYX8uTbFBeTTvJMdA&utm_campaign=yelp_api_v3&utm_medium=api_v3_business_search&utm_source=9gNmiWYX8uTbFBeTTvJMdA", "review_count": 291, "categories": [{"alias": "italian", "title": "Italian"}, {"alias": "wine_bars", "title": "Wine Bars"}, {"alias": "cocktailbars", "title": "Cocktail Bars"}], "rating": 4.5, "coordinates": {"latitude": 40.72043, "longitude": -73.98894}, "transactions": ["pickup", "delivery"], "price": "$$", "location": {"address1": "144 Orchard St", "address2": null, "address3": "", "city": "New York", "zip_code": "10002", "country": "US", "state": "NY", "display_address": ["144 Orchard St", "New York, NY 10002"]}, "phone": "+12124752555", "display_phone": "(212) 475-2555", "distance": 4613.677598698958}, {"id": "tJxAlyeT5PRbUIyJ2wsv-A", "alias": "bamontes-brooklyn", "name": "Bamonte's", "image_url": "https://s3-media3.fl.yelpcdn.com/bphoto/K7eMmq-lK1RKrS8D5huFJg/o.jpg", "is_closed": false, "url": "https://www.yelp.com/biz/bamontes-brooklyn?adjust_creative=9gNmiWYX8uTbFBeTTvJMdA&utm_campaign=yelp_api_v3&utm_medium=api_v3_business_search&utm_source=9gNmiWYX8uTbFBeTTvJMdA", "review_count": 421, "categories": [{"alias": "italian", "title": "Italian"}], "rating": 4.0, "coordinates": {"latitude": 40.71666591260819, "longitude": -73.95125357171182}, "transactions": ["delivery"], "price": "$$", "location": {"address1": "32 Withers St", "address2": "", "address3": "", "city": "Brooklyn", "zip_code": "11211", "country": "US", "state": "NY", "display_address": ["32 Withers St", "Brooklyn, NY 11211"]}, "phone": "+17183848831", "display_phone": "(718) 384-8831", "distance": 4972.398914417741}, {"id": "oRdM7n-AfBPBGAlH4Q0Sag", "alias": "my-pie-pizzeria-romana-new-york-2", "name": "My Pie Pizzeria Romana", "image_url": "https://s3-media1.fl.yelpcdn.com/bphoto/gYzrw_hwa4sugXSjLOcePA/o.jpg", "is_closed": false, "url": "https://www.yelp.com/biz/my-pie-pizzeria-romana-new-york-2?adjust_creative=9gNmiWYX8uTbFBeTTvJMdA&utm_campaign=yelp_api_v3&utm_medium=api_v3_business_search&utm_source=9gNmiWYX8uTbFBeTTvJMdA", "review_count": 894, "categories": [{"alias": "pizza", "title": "Pizza"}], "rating": 4.5, "coordinates": {"latitude": 40.7608512, "longitude": -73.9694809}, "transactions": ["pickup", "delivery"], "price": "$", "location": {"address1": "690 Lexington Ave", "address2": "", "address3": "", "city": "New York", "zip_code": "10022", "country": "US", "state": "NY", "display_address": ["690 Lexington Ave", "New York, NY 10022"]}, "phone": "+12123171850", "display_phone": "(212) 317-1850", "distance": 186.58214310058082}, {"id": "JwCnSW-RQ7_DxvbzWNO1hA", "alias": "coletta-new-york-2", "name": "Coletta", "image_url": "https://s3-media4.fl.yelpcdn.com/bphoto/UQLB32lFTDEGvKJ43wTAIQ/o.jpg", "is_closed": false, "url": "https://www.yelp.com/biz/coletta-new-york-2?adjust_creative=9gNmiWYX8uTbFBeTTvJMdA&utm_campaign=yelp_api_v3&utm_medium=api_v3_business_search&utm_source=9gNmiWYX8uTbFBeTTvJMdA", "review_count": 166, "categories": [{"alias": "vegan", "title": "Vegan"}, {"alias": "vegetarian", "title": "Vegetarian"}, {"alias": "italian", "title": "Italian"}], "rating": 4.5, "coordinates": {"latitude": 40.74094, "longitude": -73.98139}, "transactions": ["pickup", "delivery"], "price": "$$$", "location": {"address1": "365 3rd Ave", "address2": null, "address3": "", "city": "New York", "zip_code": "10016", "country": "US", "state": "NY", "display_address": ["365 3rd Ave", "New York, NY 10016"]}, "phone": "+16468612889", "display_phone": "(646) 861-2889", "distance": 2259.947274259734}, {"id": "kIm0oeOaVfC9-2flLPVklA", "alias": "patrizias-pizza-and-pasta-new-york", "name": "Patrizia's Pizza and Pasta", "image_url": "https://s3-media1.fl.yelpcdn.com/bphoto/HG4eRBBgLSG0RrzLZv1mLA/o.jpg", "is_closed": false, "url": "https://www.yelp.com/biz/patrizias-pizza-and-pasta-new-york?adjust_creative=9gNmiWYX8uTbFBeTTvJMdA&utm_campaign=yelp_api_v3&utm_medium=api_v3_business_search&utm_source=9gNmiWYX8uTbFBeTTvJMdA", "review_count": 759, "categories": [{"alias": "italian", "title": "Italian"}, {"alias": "pizza", "title": "Pizza"}, {"alias": "catering", "title": "Caterers"}], "rating": 4.0, "coordinates": {"latitude": 40.7398415, "longitude": -73.9792862}, "transactions": ["pickup", "delivery"], "price": "$$", "location": {"address1": "462-466 2nd Ave", "address2": "", "address3": "", "city": "New York", "zip_code": "10016", "country": "US", "state": "NY", "display_address": ["462-466 2nd Ave", "New York, NY 10016"]}, "phone": "+12125979999", "display_phone": "(212) 597-9999", "distance": 2287.189114599836}, {"id": "Z6WOPnG83sgn65SmeyGqAw", "alias": "l-artista-italian-kitchen-and-bar-new-york", "name": "L'Artista Italian Kitchen & Bar", "image_url": "https://s3-media4.fl.yelpcdn.com/bphoto/PCGPrQdS9wxnHb2nBcDubQ/o.jpg", "is_closed": false, "url": "https://www.yelp.com/biz/l-artista-italian-kitchen-and-bar-new-york?adjust_creative=9gNmiWYX8uTbFBeTTvJMdA&utm_campaign=yelp_api_v3&utm_medium=api_v3_business_search&utm_source=9gNmiWYX8uTbFBeTTvJMdA", "review_count": 38, "categories": [{"alias": "italian", "title": "Italian"}, {"alias": "wine_bars", "title": "Wine Bars"}, {"alias": "pizza", "title": "Pizza"}], "rating": 4.0, "coordinates": {"latitude": 40.824373, "longitude": -73.948669}, "transactions": ["pickup", "delivery"], "location": {"address1": "142 Hamilton Pl", "address2": null, "address3": "", "city": "New York", "zip_code": "10031", "country": "US", "state": "NY", "display_address": ["142 Hamilton Pl", "New York, NY 10031"]}, "phone": "+16468580312", "display_phone": "(646) 858-0312", "distance": 7460.25892080085}, {"id": "zjglOaCY8xQu3s2eKnLFzw", "alias": "mozzarella-and-vino-new-york", "name": "Mozzarella & Vino", "image_url": "https://s3-media4.fl.yelpcdn.com/bphoto/-2--zsiIl9RroYxon1O_nQ/o.jpg", "is_closed": false, "url": "https://www.yelp.com/biz/mozzarella-and-vino-new-york?adjust_creative=9gNmiWYX8uTbFBeTTvJMdA&utm_campaign=yelp_api_v3&utm_medium=api_v3_business_search&utm_source=9gNmiWYX8uTbFBeTTvJMdA", "review_count": 265, "categories": [{"alias": "italian", "title": "Italian"}, {"alias": "salad", "title": "Salad"}, {"alias": "wine_bars", "title": "Wine Bars"}], "rating": 4.0, "coordinates": {"latitude": 40.76204, "longitude": -73.97718}, "transactions": ["pickup", "delivery"], "price": "$$$", "location": {"address1": "33 W 54th St", "address2": "", "address3": "", "city": "New York", "zip_code": "10019", "country": "US", "state": "NY", "display_address": ["33 W 54th St", "New York, NY 10019"]}, "phone": "+16466928849", "display_phone": "(646) 692-8849", "distance": 716.9525756923887}, {"id": "MphfKkYFEe0BDQ6hZ0A5fA", "alias": "gelso-and-grand-new-york", "name": "Gelso & Grand", "image_url": "https://s3-media3.fl.yelpcdn.com/bphoto/ZV0bgSfrkjlb1rewpItqCA/o.jpg", "is_closed": false, "url": "https://www.yelp.com/biz/gelso-and-grand-new-york?adjust_creative=9gNmiWYX8uTbFBeTTvJMdA&utm_campaign=yelp_api_v3&utm_medium=api_v3_business_search&utm_source=9gNmiWYX8uTbFBeTTvJMdA", "review_count": 1366, "categories": [{"alias": "italian", "title": "Italian"}, {"alias": "pastashops", "title": "Pasta Shops"}, {"alias": "pizza", "title": "Pizza"}], "rating": 4.5, "coordinates": {"latitude": 40.71958, "longitude": -73.99734}, "transactions": ["pickup", "delivery"], "price": "$$", "location": {"address1": "186 Grand St", "address2": "", "address3": "", "city": "New York", "zip_code": "10013", "country": "US", "state": "NY", "display_address": ["186 Grand St", "New York, NY 10013"]}, "phone": "+12122261600", "display_phone": "(212) 226-1600", "distance": 4985.167783982234}, {"id": "BA0_zeBrnugK2l0HHp38mw", "alias": "via-della-pace-new-york", "name": "Via Della Pace", "image_url": "https://s3-media2.fl.yelpcdn.com/bphoto/o_2dW7PXkJ5gWWcuJNNybA/o.jpg", "is_closed": false, "url": "https://www.yelp.com/biz/via-della-pace-new-york?adjust_creative=9gNmiWYX8uTbFBeTTvJMdA&utm_campaign=yelp_api_v3&utm_medium=api_v3_business_search&utm_source=9gNmiWYX8uTbFBeTTvJMdA", "review_count": 565, "categories": [{"alias": "italian", "title": "Italian"}, {"alias": "wine_bars", "title": "Wine Bars"}, {"alias": "cocktailbars", "title": "Cocktail Bars"}], "rating": 4.0, "coordinates": {"latitude": 40.72646, "longitude": -73.9898}, "transactions": ["pickup", "delivery"], "price": "$$", "location": {"address1": "87 E 4th St", "address2": "", "address3": "", "city": "New York", "zip_code": "10003", "country": "US", "state": "NY", "display_address": ["87 E 4th St", "New York, NY 10003"]}, "phone": "+12122535803", "display_phone": "(212) 253-5803", "distance": 4010.8688986335405}, {"id": "WmK7GXwOnLSTRN1ocyUThg", "alias": "puglia-ristorante-new-york-2", "name": "Puglia Ristorante", "image_url": "https://s3-media4.fl.yelpcdn.com/bphoto/8dDDNeSornH2yjnTb5T14Q/o.jpg", "is_closed": false, "url": "https://www.yelp.com/biz/puglia-ristorante-new-york-2?adjust_creative=9gNmiWYX8uTbFBeTTvJMdA&utm_campaign=yelp_api_v3&utm_medium=api_v3_business_search&utm_source=9gNmiWYX8uTbFBeTTvJMdA", "review_count": 619, "categories": [{"alias": "italian", "title": "Italian"}], "rating": 4.0, "coordinates": {"latitude": 40.7181606872639, "longitude": -73.9976975651144}, "transactions": ["delivery"], "price": "$$", "location": {"address1": "189 Hester St", "address2": "", "address3": "", "city": "New York", "zip_code": "10013", "country": "US", "state": "NY", "display_address": ["189 Hester St", "New York, NY 10013"]}, "phone": "+12129666006", "display_phone": "(212) 966-6006", "distance": 5139.349339159577}, {"id": "Tp3MF3DNXuW41A10PQ2nFw", "alias": "amali-new-york-3", "name": "Amali", "image_url": "https://s3-media3.fl.yelpcdn.com/bphoto/9GwEhmZB1enc6ha2WXTppw/o.jpg", "is_closed": false, "url": "https://www.yelp.com/biz/amali-new-york-3?adjust_creative=9gNmiWYX8uTbFBeTTvJMdA&utm_campaign=yelp_api_v3&utm_medium=api_v3_business_search&utm_source=9gNmiWYX8uTbFBeTTvJMdA", "review_count": 498, "categories": [{"alias": "mediterranean", "title": "Mediterranean"}, {"alias": "italian", "title": "Italian"}, {"alias": "venues", "title": "Venues & Event Spaces"}], "rating": 4.0, "coordinates": {"latitude": 40.7633557384716, "longitude": -73.9686296877489}, "transactions": ["pickup", "delivery"], "price": "$$$", "location": {"address1": "115 E 60th St", "address2": null, "address3": "", "city": "New York", "zip_code": "10022", "country": "US", "state": "NY", "display_address": ["115 E 60th St", "New York, NY 10022"]}, "phone": "+12123398363", "display_phone": "(212) 339-8363", "distance": 471.6625469539665}, {"id": "ZamvzoxEKiJEboO0ZUdogw", "alias": "amici-ristorante-new-york-3", "name": "Amici Ristorante", "image_url": "https://s3-media4.fl.yelpcdn.com/bphoto/dR39Lx6HmiLNtYaAhzC85Q/o.jpg", "is_closed": false, "url": "https://www.yelp.com/biz/amici-ristorante-new-york-3?adjust_creative=9gNmiWYX8uTbFBeTTvJMdA&utm_campaign=yelp_api_v3&utm_medium=api_v3_business_search&utm_source=9gNmiWYX8uTbFBeTTvJMdA", "review_count": 174, "categories": [{"alias": "italian", "title": "Italian"}], "rating": 4.5, "coordinates": {"latitude": 40.71981, "longitude": -73.99722}, "transactions": ["pickup", "delivery"], "price": "$$", "location": {"address1": "165 Mulberry St", "address2": "", "address3": null, "city": "New York", "zip_code": "10013", "country": "US", "state": "NY", "display_address": ["165 Mulberry St", "New York, NY 10013"]}, "phone": "+12122032766", "display_phone": "(212) 203-2766", "distance": 4959.255872793255}, {"id": "TWH4MjLtN1fKlF-7n6YXHg", "alias": "lil-frankies-new-york", "name": "Lil Frankie's", "image_url": "https://s3-media3.fl.yelpcdn.com/bphoto/t0OsEVlzDWgM_NMGVHmPiA/o.jpg", "is_closed": false, "url": "https://www.yelp.com/biz/lil-frankies-new-york?adjust_creative=9gNmiWYX8uTbFBeTTvJMdA&utm_campaign=yelp_api_v3&utm_medium=api_v3_business_search&utm_source=9gNmiWYX8uTbFBeTTvJMdA", "review_count": 1431, "categories": [{"alias": "pizza", "title": "Pizza"}, {"alias": "italian", "title": "Italian"}], "rating": 4.0, "coordinates": {"latitude": 40.723625, "longitude": -73.988555}, "transactions": ["pickup", "delivery"], "price": "$$", "location": {"address1": "19 1st Ave", "address2": "", "address3": "", "city": "New York", "zip_code": "10003", "country": "US", "state": "NY", "display_address": ["19 1st Ave", "New York, NY 10003"]}, "phone": "+12124204900", "display_phone": "(212) 420-4900", "distance": 4262.103811888818}, {"id": "r2nIYBSyXny1-7XvsL2PVg", "alias": "lenas-italian-kitchen-new-york", "name": "Lena's Italian Kitchen", "image_url": "https://s3-media2.fl.yelpcdn.com/bphoto/hyeBNxepNriR3FbYi1fgvw/o.jpg", "is_closed": false, "url": "https://www.yelp.com/biz/lenas-italian-kitchen-new-york?adjust_creative=9gNmiWYX8uTbFBeTTvJMdA&utm_campaign=yelp_api_v3&utm_medium=api_v3_business_search&utm_source=9gNmiWYX8uTbFBeTTvJMdA", "review_count": 325, "categories": [{"alias": "italian", "title": "Italian"}], "rating": 4.5, "coordinates": {"latitude": 40.742664, "longitude": -73.977783}, "transactions": ["pickup", "delivery"], "price": "$$", "location": {"address1": "551 2nd Ave", "address2": null, "address3": "", "city": "New York", "zip_code": "10016", "country": "US", "state": "NY", "display_address": ["551 2nd Ave", "New York, NY 10016"]}, "phone": "+16468465362", "display_phone": "(646) 846-5362", "distance": 1962.8586832471597}, {"id": "aSprnLY-6GkMk1cuv0TMeA", "alias": "al-di-la-trattoria-brooklyn", "name": "Al Di La Trattoria", "image_url": "https://s3-media2.fl.yelpcdn.com/bphoto/TI4jHag_Csy6vRr5IbZ0_w/o.jpg", "is_closed": false, "url": "https://www.yelp.com/biz/al-di-la-trattoria-brooklyn?adjust_creative=9gNmiWYX8uTbFBeTTvJMdA&utm_campaign=yelp_api_v3&utm_medium=api_v3_business_search&utm_source=9gNmiWYX8uTbFBeTTvJMdA", "review_count": 956, "categories": [{"alias": "italian", "title": "Italian"}], "rating": 4.0, "coordinates": {"latitude": 40.675332643247, "longitude": -73.981340475038}, "transactions": ["pickup", "delivery"], "price": "$$$", "location": {"address1": "248 5th Ave", "address2": "", "address3": "", "city": "Brooklyn", "zip_code": "11215", "country": "US", "state": "NY", "display_address": ["248 5th Ave", "Brooklyn, NY 11215"]}, "phone": "+17187834565", "display_phone": "(718) 783-4565", "distance": 9375.39506821473}, {"id": "x4wqaJwv0MNnsyfV8pWsCg", "alias": "bellini-at-harry-s-table-new-york", "name": "Bellini At Harry\u2019s Table", "image_url": "https://s3-media2.fl.yelpcdn.com/bphoto/lmp-s-xeNZWHhRobR5wdew/o.jpg", "is_closed": false, "url": "https://www.yelp.com/biz/bellini-at-harry-s-table-new-york?adjust_creative=9gNmiWYX8uTbFBeTTvJMdA&utm_campaign=yelp_api_v3&utm_medium=api_v3_business_search&utm_source=9gNmiWYX8uTbFBeTTvJMdA", "review_count": 12, "categories": [{"alias": "italian", "title": "Italian"}, {"alias": "cocktailbars", "title": "Cocktail Bars"}, {"alias": "breakfast_brunch", "title": "Breakfast & Brunch"}], "rating": 4.5, "coordinates": {"latitude": 40.773654170283265, "longitude": -73.99188599957809}, "transactions": [], "location": {"address1": "20 Riverside Blvd", "address2": "", "address3": null, "city": "New York", "zip_code": "10069", "country": "US", "state": "NY", "display_address": ["20 Riverside Blvd", "New York, NY 10069"]}, "phone": "+12127506690", "display_phone": "(212) 750-6690", "distance": 2474.474796212317}, {"id": "kIK1DBH6ODkSouhvz-4VWA", "alias": "il-tinello-new-york", "name": "Il Tinello", "image_url": "https://s3-media3.fl.yelpcdn.com/bphoto/Y_MsaVHWpN2mPCSWuRgkJA/o.jpg", "is_closed": false, "url": "https://www.yelp.com/biz/il-tinello-new-york?adjust_creative=9gNmiWYX8uTbFBeTTvJMdA&utm_campaign=yelp_api_v3&utm_medium=api_v3_business_search&utm_source=9gNmiWYX8uTbFBeTTvJMdA", "review_count": 13, "categories": [{"alias": "italian", "title": "Italian"}], "rating": 5.0, "coordinates": {"latitude": 40.75265874754987, "longitude": -73.97093351560888}, "transactions": ["pickup", "delivery"], "location": {"address1": "244 East 46th St", "address2": null, "address3": "", "city": "New York", "zip_code": "10017", "country": "US", "state": "NY", "display_address": ["244 East 46th St", "New York, NY 10017"]}, "phone": "+16466827284", "display_phone": "(646) 682-7284", "distance": 733.5344024245883}, {"id": "YE4pvo8ectzEaRYGqUgFcA", "alias": "felice-64-new-york", "name": "Felice 64", "image_url": "https://s3-media1.fl.yelpcdn.com/bphoto/q2xjywuEazHmhj9C--syKA/o.jpg", "is_closed": false, "url": "https://www.yelp.com/biz/felice-64-new-york?adjust_creative=9gNmiWYX8uTbFBeTTvJMdA&utm_campaign=yelp_api_v3&utm_medium=api_v3_business_search&utm_source=9gNmiWYX8uTbFBeTTvJMdA", "review_count": 391, "categories": [{"alias": "wine_bars", "title": "Wine Bars"}, {"alias": "italian", "title": "Italian"}, {"alias": "venues", "title": "Venues & Event Spaces"}], "rating": 4.0, "coordinates": {"latitude": 40.76256, "longitude": -73.9596}, "transactions": ["pickup", "delivery"], "price": "$$", "location": {"address1": "1166 1st Ave", "address2": "", "address3": "", "city": "New York", "zip_code": "10065", "country": "US", "state": "NY", "display_address": ["1166 1st Ave", "New York, NY 10065"]}, "phone": "+12125932223", "display_phone": "(212) 593-2223", "distance": 923.6291528530817}, {"id": "pk89jzL1RsE9U0thf_z6tw", "alias": "locanda-verde-new-york", "name": "Locanda Verde", "image_url": "https://s3-media2.fl.yelpcdn.com/bphoto/jQ7yiW8VycqVXkozFiYM8Q/o.jpg", "is_closed": false, "url": "https://www.yelp.com/biz/locanda-verde-new-york?adjust_creative=9gNmiWYX8uTbFBeTTvJMdA&utm_campaign=yelp_api_v3&utm_medium=api_v3_business_search&utm_source=9gNmiWYX8uTbFBeTTvJMdA", "review_count": 1815, "categories": [{"alias": "italian", "title": "Italian"}, {"alias": "cocktailbars", "title": "Cocktail Bars"}, {"alias": "breakfast_brunch", "title": "Breakfast & Brunch"}], "rating": 4.0, "coordinates": {"latitude": 40.7198601300801, "longitude": -74.010039072422}, "transactions": ["pickup", "delivery"], "price": "$$$", "location": {"address1": "377 Greenwich St", "address2": "", "address3": "", "city": "New York", "zip_code": "10013", "country": "US", "state": "NY", "display_address": ["377 Greenwich St", "New York, NY 10013"]}, "phone": "+12129253797", "display_phone": "(212) 925-3797", "distance": 5543.769069517058}, {"id": "abZ-mEvF6Tj4hfyIg0lKwQ", "alias": "vite-vinosteria-astoria", "name": "Vite Vinosteria", "image_url": "https://s3-media4.fl.yelpcdn.com/bphoto/Z2U2-iaqlyf5lZub8Hk2bg/o.jpg", "is_closed": false, "url": "https://www.yelp.com/biz/vite-vinosteria-astoria?adjust_creative=9gNmiWYX8uTbFBeTTvJMdA&utm_campaign=yelp_api_v3&utm_medium=api_v3_business_search&utm_source=9gNmiWYX8uTbFBeTTvJMdA", "review_count": 681, "categories": [{"alias": "italian", "title": "Italian"}, {"alias": "wine_bars", "title": "Wine Bars"}], "rating": 4.5, "coordinates": {"latitude": 40.7629734277725, "longitude": -73.92119564116}, "transactions": ["pickup", "delivery"], "price": "$$", "location": {"address1": "31-05 34th St", "address2": "", "address3": "", "city": "Astoria", "zip_code": "11106", "country": "US", "state": "NY", "display_address": ["31-05 34th St", "Astoria, NY 11106"]}, "phone": "+17182788483", "display_phone": "(718) 278-8483", "distance": 4096.292606572324}, {"id": "4eGCuMwKRCCrYHOobEsFpA", "alias": "lusardis-new-york", "name": "Lusardi's", "image_url": "https://s3-media1.fl.yelpcdn.com/bphoto/zMWAuAg8__KHjJ1FYk5PaQ/o.jpg", "is_closed": false, "url": "https://www.yelp.com/biz/lusardis-new-york?adjust_creative=9gNmiWYX8uTbFBeTTvJMdA&utm_campaign=yelp_api_v3&utm_medium=api_v3_business_search&utm_source=9gNmiWYX8uTbFBeTTvJMdA", "review_count": 259, "categories": [{"alias": "italian", "title": "Italian"}, {"alias": "wine_bars", "title": "Wine Bars"}], "rating": 4.5, "coordinates": {"latitude": 40.7724199, "longitude": -73.9555}, "transactions": ["delivery", "restaurant_reservation"], "price": "$$$", "location": {"address1": "1494 2nd Ave", "address2": "", "address3": "", "city": "New York", "zip_code": "10075", "country": "US", "state": "NY", "display_address": ["1494 2nd Ave", "New York, NY 10075"]}, "phone": "+12122492020", "display_phone": "(212) 249-2020", "distance": 1890.9758869275854}, {"id": "ePJlqiIhoVKIJW69IE53rg", "alias": "botte-brooklyn-brooklyn", "name": "Botte Brooklyn", "image_url": "https://s3-media1.fl.yelpcdn.com/bphoto/qajQ25IAYZ71tQ0Nvshj9Q/o.jpg", "is_closed": false, "url": "https://www.yelp.com/biz/botte-brooklyn-brooklyn?adjust_creative=9gNmiWYX8uTbFBeTTvJMdA&utm_campaign=yelp_api_v3&utm_medium=api_v3_business_search&utm_source=9gNmiWYX8uTbFBeTTvJMdA", "review_count": 45, "categories": [{"alias": "italian", "title": "Italian"}, {"alias": "pizza", "title": "Pizza"}], "rating": 4.5, "coordinates": {"latitude": 40.69446, "longitude": -73.98316}, "transactions": ["pickup", "delivery"], "location": {"address1": "327 Gold St", "address2": null, "address3": "", "city": "Brooklyn", "zip_code": "11201", "country": "US", "state": "NY", "display_address": ["327 Gold St", "Brooklyn, NY 11201"]}, "phone": "+17185865090", "display_phone": "(718) 586-5090", "distance": 7284.4712248813075}, {"id": "q3_FgDWWuXcVGiNuo_OPBQ", "alias": "fiaschetteria-pistoia-new-york", "name": "Fiaschetteria Pistoia", "image_url": "https://s3-media3.fl.yelpcdn.com/bphoto/keA5JWvuzRmM8tWR_p7Qmw/o.jpg", "is_closed": false, "url": "https://www.yelp.com/biz/fiaschetteria-pistoia-new-york?adjust_creative=9gNmiWYX8uTbFBeTTvJMdA&utm_campaign=yelp_api_v3&utm_medium=api_v3_business_search&utm_source=9gNmiWYX8uTbFBeTTvJMdA", "review_count": 249, "categories": [{"alias": "tuscan", "title": "Tuscan"}, {"alias": "pastashops", "title": "Pasta Shops"}], "rating": 4.0, "coordinates": {"latitude": 40.72666, "longitude": -73.9773}, "transactions": ["pickup", "delivery"], "price": "$$", "location": {"address1": "647 E 11th St", "address2": "", "address3": null, "city": "New York", "zip_code": "10009", "country": "US", "state": "NY", "display_address": ["647 E 11th St", "New York, NY 10009"]}, "phone": "+12127773355", "display_phone": "(212) 777-3355", "distance": 3672.310785239295}, {"id": "15d_Y6TVOQFD2KRVkxuAjw", "alias": "baci-and-abbracci-brooklyn", "name": "Baci & Abbracci", "image_url": "https://s3-media3.fl.yelpcdn.com/bphoto/sKM13yG4MDhsmhQOoBNOtQ/o.jpg", "is_closed": false, "url": "https://www.yelp.com/biz/baci-and-abbracci-brooklyn?adjust_creative=9gNmiWYX8uTbFBeTTvJMdA&utm_campaign=yelp_api_v3&utm_medium=api_v3_business_search&utm_source=9gNmiWYX8uTbFBeTTvJMdA", "review_count": 347, "categories": [{"alias": "pizza", "title": "Pizza"}, {"alias": "italian", "title": "Italian"}], "rating": 4.0, "coordinates": {"latitude": 40.7139015197754, "longitude": -73.96044921875}, "transactions": ["pickup", "delivery"], "price": "$$", "location": {"address1": "204 Grand St", "address2": "", "address3": "", "city": "Brooklyn", "zip_code": "11211", "country": "US", "state": "NY", "display_address": ["204 Grand St", "Brooklyn, NY 11211"]}, "phone": "+17185996599", "display_phone": "(718) 599-6599", "distance": 5088.151896210471}, {"id": "pTWFuMYed409y99N0zY05Q", "alias": "barbaresco-restaurant-new-york", "name": "Barbaresco Restaurant", "image_url": "https://s3-media2.fl.yelpcdn.com/bphoto/GeLhtgrEZOOBjCM8edObfw/o.jpg", "is_closed": false, "url": "https://www.yelp.com/biz/barbaresco-restaurant-new-york?adjust_creative=9gNmiWYX8uTbFBeTTvJMdA&utm_campaign=yelp_api_v3&utm_medium=api_v3_business_search&utm_source=9gNmiWYX8uTbFBeTTvJMdA", "review_count": 103, "categories": [{"alias": "italian", "title": "Italian"}], "rating": 4.0, "coordinates": {"latitude": 40.76539, "longitude": -73.96556}, "transactions": ["delivery"], "price": "$$", "location": {"address1": "843 Lexington Ave", "address2": "", "address3": "", "city": "New York", "zip_code": "10065", "country": "US", "state": "NY", "display_address": ["843 Lexington Ave", "New York, NY 10065"]}, "phone": "+12125172288", "display_phone": "(212) 517-2288", "distance": 768.5285082617779}, {"id": "dIyKvfhjtm3NuKrMVVt0TA", "alias": "lucciola-italian-restaurant-new-york", "name": "Lucciola Italian Restaurant", "image_url": "https://s3-media1.fl.yelpcdn.com/bphoto/htcyJA68o7BVE3HmP5OAsQ/o.jpg", "is_closed": false, "url": "https://www.yelp.com/biz/lucciola-italian-restaurant-new-york?adjust_creative=9gNmiWYX8uTbFBeTTvJMdA&utm_campaign=yelp_api_v3&utm_medium=api_v3_business_search&utm_source=9gNmiWYX8uTbFBeTTvJMdA", "review_count": 83, "categories": [{"alias": "italian", "title": "Italian"}, {"alias": "beer_and_wine", "title": "Beer, Wine & Spirits"}], "rating": 4.5, "coordinates": {"latitude": 40.790362, "longitude": -73.972629}, "transactions": [], "price": "$$$$", "location": {"address1": "621 Amsterdam Ave", "address2": null, "address3": "", "city": "New York", "zip_code": "10024", "country": "US", "state": "NY", "display_address": ["621 Amsterdam Ave", "New York, NY 10024"]}, "phone": "+13475361335", "display_phone": "(347) 536-1335", "distance": 3473.118415310936}, {"id": "y8XaPw0U9WzUj8MUaW6HmA", "alias": "mikey-pomodoro-new-york", "name": "Mikey Pomodoro", "image_url": "https://s3-media3.fl.yelpcdn.com/bphoto/ucWqXsH4eNEhab9-wuqG8w/o.jpg", "is_closed": false, "url": "https://www.yelp.com/biz/mikey-pomodoro-new-york?adjust_creative=9gNmiWYX8uTbFBeTTvJMdA&utm_campaign=yelp_api_v3&utm_medium=api_v3_business_search&utm_source=9gNmiWYX8uTbFBeTTvJMdA", "review_count": 20, "categories": [{"alias": "comfortfood", "title": "Comfort Food"}, {"alias": "newamerican", "title": "American (New)"}, {"alias": "italian", "title": "Italian"}], "rating": 5.0, "coordinates": {"latitude": 40.754804468873886, "longitude": -73.97603280212049}, "transactions": ["pickup", "delivery"], "location": {"address1": "230 Park Ave", "address2": null, "address3": null, "city": "New York", "zip_code": "10169", "country": "US", "state": "NY", "display_address": ["230 Park Ave", "New York, NY 10169"]}, "phone": "+16467470818", "display_phone": "(646) 747-0818", "distance": 729.4515562974287}, {"id": "kr5fRwdHtVwPPwSJxm9Fkg", "alias": "il-posto-accanto-new-york", "name": "Il Posto Accanto", "image_url": "https://s3-media4.fl.yelpcdn.com/bphoto/l57H-S0EhaQEKGuseqeOaQ/o.jpg", "is_closed": false, "url": "https://www.yelp.com/biz/il-posto-accanto-new-york?adjust_creative=9gNmiWYX8uTbFBeTTvJMdA&utm_campaign=yelp_api_v3&utm_medium=api_v3_business_search&utm_source=9gNmiWYX8uTbFBeTTvJMdA", "review_count": 300, "categories": [{"alias": "italian", "title": "Italian"}, {"alias": "wine_bars", "title": "Wine Bars"}, {"alias": "cocktailbars", "title": "Cocktail Bars"}], "rating": 4.0, "coordinates": {"latitude": 40.72238, "longitude": -73.98403}, "transactions": ["pickup", "delivery"], "price": "$$$", "location": {"address1": "190 E 2nd St", "address2": "", "address3": "", "city": "New York", "zip_code": "10009", "country": "US", "state": "NY", "display_address": ["190 E 2nd St", "New York, NY 10009"]}, "phone": "+12122283562", "display_phone": "(212) 228-3562", "distance": 4265.836068056684}, {"id": "vFsjObMTImsnM_DzVo4N3g", "alias": "bocca-cucina-and-bar-new-york-2", "name": "Bocca Cucina and Bar", "image_url": "https://s3-media2.fl.yelpcdn.com/bphoto/uc0RcgxfXJxEPiiqo5ghdQ/o.jpg", "is_closed": false, "url": "https://www.yelp.com/biz/bocca-cucina-and-bar-new-york-2?adjust_creative=9gNmiWYX8uTbFBeTTvJMdA&utm_campaign=yelp_api_v3&utm_medium=api_v3_business_search&utm_source=9gNmiWYX8uTbFBeTTvJMdA", "review_count": 442, "categories": [{"alias": "italian", "title": "Italian"}, {"alias": "desserts", "title": "Desserts"}, {"alias": "cocktailbars", "title": "Cocktail Bars"}], "rating": 4.0, "coordinates": {"latitude": 40.73826, "longitude": -73.98886}, "transactions": ["pickup", "delivery"], "price": "$$", "location": {"address1": "39 E 19th St", "address2": "", "address3": "", "city": "New York", "zip_code": "10003", "country": "US", "state": "NY", "display_address": ["39 E 19th St", "New York, NY 10003"]}, "phone": "+12123871200", "display_phone": "(212) 387-1200", "distance": 2836.324370021861}, {"id": "xrTwutv3Y5I4lySFOaKa2A", "alias": "longo-bros-new-york", "name": "Longo Bros", "image_url": "https://s3-media4.fl.yelpcdn.com/bphoto/91OKGph-jvZ0QAskHINlxQ/o.jpg", "is_closed": false, "url": "https://www.yelp.com/biz/longo-bros-new-york?adjust_creative=9gNmiWYX8uTbFBeTTvJMdA&utm_campaign=yelp_api_v3&utm_medium=api_v3_business_search&utm_source=9gNmiWYX8uTbFBeTTvJMdA", "review_count": 69, "categories": [{"alias": "pizza", "title": "Pizza"}, {"alias": "cocktailbars", "title": "Cocktail Bars"}, {"alias": "italian", "title": "Italian"}], "rating": 4.0, "coordinates": {"latitude": 40.754825, "longitude": -73.994862}, "transactions": ["pickup", "delivery"], "price": "$$$", "location": {"address1": "474 9th Ave", "address2": null, "address3": "", "city": "New York", "zip_code": "10018", "country": "US", "state": "NY", "display_address": ["474 9th Ave", "New York, NY 10018"]}, "phone": "+13322053568", "display_phone": "(332) 205-3568", "distance": 2188.4197019145117}], "total": 4600, "region": {"center": {"longitude": -73.96957397460938, "latitude": 40.75917470627005}}}