{"businesses": [{"id": "idxD3X7WfLFPZMoFnCRIQQ", "alias": "il-cantinori-new-york", "name": "Il Cantinori", "image_url": "https://s3-media4.fl.yelpcdn.com/bphoto/-LKNk4aQn4Vp83T9z1GU_g/o.jpg", "is_closed": false, "url": "https://www.yelp.com/biz/il-cantinori-new-york?adjust_creative=9gNmiWYX8uTbFBeTTvJMdA&utm_campaign=yelp_api_v3&utm_medium=api_v3_business_search&utm_source=9gNmiWYX8uTbFBeTTvJMdA", "review_count": 283, "categories": [{"alias": "italian", "title": "Italian"}], "rating": 4.0, "coordinates": {"latitude": 40.7322779619352, "longitude": -73.9929321762328}, "transactions": ["pickup", "delivery"], "price": "$$$", "location": {"address1": "32 E 10th St", "address2": "", "address3": "", "city": "New York", "zip_code": "10003", "country": "US", "state": "NY", "display_address": ["32 E 10th St", "New York, NY 10003"]}, "phone": "+12126736044", "display_phone": "(212) 673-6044", "distance": 3580.059454039197}, {"id": "vEYEs9McRtRdKBp2XfRNZA", "alias": "finestra-restaurant-new-york", "name": "Finestra Restaurant", "image_url": "https://s3-media3.fl.yelpcdn.com/bphoto/eBc0peV7x2DdC2xjBRBLGw/o.jpg", "is_closed": false, "url": "https://www.yelp.com/biz/finestra-restaurant-new-york?adjust_creative=9gNmiWYX8uTbFBeTTvJMdA&utm_campaign=yelp_api_v3&utm_medium=api_v3_business_search&utm_source=9gNmiWYX8uTbFBeTTvJMdA", "review_count": 118, "categories": [{"alias": "italian", "title": "Italian"}, {"alias": "seafood", "title": "Seafood"}], "rating": 4.0, "coordinates": {"latitude": 40.76751, "longitude": -73.95288}, "transactions": ["pickup", "delivery"], "price": "$$", "location": {"address1": "1370 York Ave", "address2": "", "address3": "", "city": "New York", "zip_code": "10021", "country": "US", "state": "NY", "display_address": ["1370 York Ave", "New York, NY 10021"]}, "phone": "+12127178595", "display_phone": "(212) 717-8595", "distance": 1685.448331814697}, {"id": "o5mMVFk4Hcpk2FuKfgTgdg", "alias": "malaparte-new-york", "name": "Malaparte", "image_url": "https://s3-media2.fl.yelpcdn.com/bphoto/0eKjdu-nn-WqYYp9PMXFsg/o.jpg", "is_closed": false, "url": "https://www.yelp.com/biz/malaparte-new-york?adjust_creative=9gNmiWYX8uTbFBeTTvJMdA&utm_campaign=yelp_api_v3&utm_medium=api_v3_business_search&utm_source=9gNmiWYX8uTbFBeTTvJMdA", "review_count": 394, "categories": [{"alias": "italian", "title": "Italian"}, {"alias": "coffee", "title": "Coffee & Tea"}, {"alias": "pizza", "title": "Pizza"}], "rating": 4.0, "coordinates": {"latitude": 40.73687, "longitude": -74.00812}, "transactions": ["pickup", "delivery"], "price": "$$", "location": {"address1": "753 Washington St", "address2": "", "address3": "", "city": "New York", "zip_code": "10014", "country": "US", "state": "NY", "display_address": ["753 Washington St", "New York, NY 10014"]}, "phone": "+12122552122", "display_phone": "(212) 255-2122", "distance": 4083.408685402965}, {"id": "lwfCl81r5a0mjxDNxNGC9w", "alias": "il-buco-new-york-2", "name": "Il Buco", "image_url": "https://s3-media3.fl.yelpcdn.com/bphoto/Stk9ssPZ24tVQRd-Bs7gsQ/o.jpg", "is_closed": false, "url": "https://www.yelp.com/biz/il-buco-new-york-2?adjust_creative=9gNmiWYX8uTbFBeTTvJMdA&utm_campaign=yelp_api_v3&utm_medium=api_v3_business_search&utm_source=9gNmiWYX8uTbFBeTTvJMdA", "review_count": 780, "categories": [{"alias": "italian", "title": "Italian"}, {"alias": "mediterranean", "title": "Mediterranean"}], "rating": 4.0, "coordinates": {"latitude": 40.72583, "longitude": -73.99299}, "transactions": ["pickup", "delivery"], "price": "$$$", "location": {"address1": "47 Bond St", "address2": "", "address3": "", "city": "New York", "zip_code": "10012", "country": "US", "state": "NY", "display_address": ["47 Bond St", "New York, NY 10012"]}, "phone": "+12125331932", "display_phone": "(212) 533-1932", "distance": 4207.239434110958}, {"id": "Fit_iIDn__NPVZpVlKFBFQ", "alias": "osteria-106-new-york", "name": "Osteria 106", "image_url": "https://s3-media3.fl.yelpcdn.com/bphoto/wtQCH7OgoOrTYPLb0C0d-g/o.jpg", "is_closed": false, "url": "https://www.yelp.com/biz/osteria-106-new-york?adjust_creative=9gNmiWYX8uTbFBeTTvJMdA&utm_campaign=yelp_api_v3&utm_medium=api_v3_business_search&utm_source=9gNmiWYX8uTbFBeTTvJMdA", "review_count": 199, "categories": [{"alias": "italian", "title": "Italian"}], "rating": 4.5, "coordinates": {"latitude": 40.79894, "longitude": -73.96174}, "transactions": ["pickup", "delivery"], "price": "$$", "location": {"address1": "53 W 106 St", "address2": null, "address3": "", "city": "New York", "zip_code": "10025", "country": "US", "state": "NY", "display_address": ["53 W 106 St", "New York, NY 10025"]}, "phone": "+16468337614", "display_phone": "(646) 833-7614", "distance": 4481.935094149952}, {"id": "dh5r9-SbN8xJ76XvnayWLQ", "alias": "giano-restaurant-new-york", "name": "Giano Restaurant", "image_url": "https://s3-media1.fl.yelpcdn.com/bphoto/0PrOZ5stl86k6V1SzHcjNA/o.jpg", "is_closed": false, "url": "https://www.yelp.com/biz/giano-restaurant-new-york?adjust_creative=9gNmiWYX8uTbFBeTTvJMdA&utm_campaign=yelp_api_v3&utm_medium=api_v3_business_search&utm_source=9gNmiWYX8uTbFBeTTvJMdA", "review_count": 696, "categories": [{"alias": "italian", "title": "Italian"}], "rating": 4.5, "coordinates": {"latitude": 40.7262256596862, "longitude": -73.9840574049125}, "transactions": ["pickup", "delivery"], "price": "$$", "location": {"address1": "126 E 7th St", "address2": "", "address3": "", "city": "New York", "zip_code": "10009", "country": "US", "state": "NY", "display_address": ["126 E 7th St", "New York, NY 10009"]}, "phone": "+12126737200", "display_phone": "(212) 673-7200", "distance": 3861.605078098774}, {"id": "riykDqJw_NPGssLgqCeD-Q", "alias": "aunt-jakes-new-york-4", "name": "Aunt Jake's", "image_url": "https://s3-media2.fl.yelpcdn.com/bphoto/_MHL1qqORdglxU6FQNsAEw/o.jpg", "is_closed": false, "url": "https://www.yelp.com/biz/aunt-jakes-new-york-4?adjust_creative=9gNmiWYX8uTbFBeTTvJMdA&utm_campaign=yelp_api_v3&utm_medium=api_v3_business_search&utm_source=9gNmiWYX8uTbFBeTTvJMdA", "review_count": 180, "categories": [{"alias": "italian", "title": "Italian"}, {"alias": "wine_bars", "title": "Wine Bars"}, {"alias": "pastashops", "title": "Pasta Shops"}], "rating": 4.5, "coordinates": {"latitude": 40.774587, "longitude": -73.954513}, "transactions": ["pickup", "delivery"], "price": "$$", "location": {"address1": "1555 2nd Ave", "address2": null, "address3": "", "city": "New York", "zip_code": "10028", "country": "US", "state": "NY", "display_address": ["1555 2nd Ave", "New York, NY 10028"]}, "phone": "+19172615040", "display_phone": "(917) 261-5040", "distance": 2132.4779670992}, {"id": "MeUq9lombxM9alxs64tejQ", "alias": "pepolino-restaurant-new-york", "name": "Pepolino Restaurant", "image_url": "https://s3-media4.fl.yelpcdn.com/bphoto/zYEflDG6eiUHvqAgXnH3Xw/o.jpg", "is_closed": false, "url": "https://www.yelp.com/biz/pepolino-restaurant-new-york?adjust_creative=9gNmiWYX8uTbFBeTTvJMdA&utm_campaign=yelp_api_v3&utm_medium=api_v3_business_search&utm_source=9gNmiWYX8uTbFBeTTvJMdA", "review_count": 619, "categories": [{"alias": "tuscan", "title": "Tuscan"}], "rating": 4.0, "coordinates": {"latitude": 40.720756, "longitude": -74.004885}, "transactions": ["pickup", "delivery"], "price": "$$$", "location": {"address1": "281 W Broadway", "address2": "", "address3": null, "city": "New York", "zip_code": "10013", "country": "US", "state": "NY", "display_address": ["281 W Broadway", "New York, NY 10013"]}, "phone": "+12129669983", "display_phone": "(212) 966-9983", "distance": 5205.765641284464}, {"id": "fmdEiai0e4agyTEqFUWJmw", "alias": "amarone-ny-new-york-2", "name": "Amarone NY", "image_url": "https://s3-media4.fl.yelpcdn.com/bphoto/04f35BWgZYHpUE_hhIyaPQ/o.jpg", "is_closed": false, "url": "https://www.yelp.com/biz/amarone-ny-new-york-2?adjust_creative=9gNmiWYX8uTbFBeTTvJMdA&utm_campaign=yelp_api_v3&utm_medium=api_v3_business_search&utm_source=9gNmiWYX8uTbFBeTTvJMdA", "review_count": 344, "categories": [{"alias": "italian", "title": "Italian"}, {"alias": "seafood", "title": "Seafood"}], "rating": 4.0, "coordinates": {"latitude": 40.7617199, "longitude": -73.99002}, "transactions": ["pickup", "delivery"], "price": "$$", "location": {"address1": "686 9th Ave", "address2": "Ste 1", "address3": "", "city": "New York", "zip_code": "10036", "country": "US", "state": "NY", "display_address": ["686 9th Ave", "Ste 1", "New York, NY 10036"]}, "phone": "+12122456060", "display_phone": "(212) 245-6060", "distance": 1739.6937515162192}, {"id": "ntQ7O1YPMIOrQkynhXRBVg", "alias": "manducatis-long-island-city", "name": "Manducatis", "image_url": "https://s3-media2.fl.yelpcdn.com/bphoto/8YCY3yZZuH1z-_VOuA-1iA/o.jpg", "is_closed": false, "url": "https://www.yelp.com/biz/manducatis-long-island-city?adjust_creative=9gNmiWYX8uTbFBeTTvJMdA&utm_campaign=yelp_api_v3&utm_medium=api_v3_business_search&utm_source=9gNmiWYX8uTbFBeTTvJMdA", "review_count": 164, "categories": [{"alias": "italian", "title": "Italian"}], "rating": 4.0, "coordinates": {"latitude": 40.7445948529884, "longitude": -73.9490695847509}, "transactions": [], "price": "$$", "location": {"address1": "13-27 Jackson Ave", "address2": "", "address3": "", "city": "Long Island City", "zip_code": "11101", "country": "US", "state": "NY", "display_address": ["13-27 Jackson Ave", "Long Island City, NY 11101"]}, "phone": "+17187294602", "display_phone": "(718) 729-4602", "distance": 2368.8543678747433}, {"id": "FKzpfWUpyupl4q74Jt8fTA", "alias": "don-antonio-new-york-5", "name": "Don Antonio", "image_url": "https://s3-media1.fl.yelpcdn.com/bphoto/PexNBI8I2mYz8_8AuJgBVQ/o.jpg", "is_closed": false, "url": "https://www.yelp.com/biz/don-antonio-new-york-5?adjust_creative=9gNmiWYX8uTbFBeTTvJMdA&utm_campaign=yelp_api_v3&utm_medium=api_v3_business_search&utm_source=9gNmiWYX8uTbFBeTTvJMdA", "review_count": 1632, "categories": [{"alias": "pizza", "title": "Pizza"}, {"alias": "italian", "title": "Italian"}, {"alias": "cocktailbars", "title": "Cocktail Bars"}], "rating": 4.0, "coordinates": {"latitude": 40.762711, "longitude": -73.986708}, "transactions": ["pickup", "delivery"], "price": "$$", "location": {"address1": "309 W 50th St", "address2": "", "address3": "", "city": "New York", "zip_code": "10019", "country": "US", "state": "NY", "display_address": ["309 W 50th St", "New York, NY 10019"]}, "phone": "+16467191043", "display_phone": "(646) 719-1043", "distance": 1495.6998602280514}, {"id": "c3D2ckzacnPtdGIM8tb-_w", "alias": "b-side-pizza-and-wine-bar-new-york", "name": "B Side Pizza & Wine Bar", "image_url": "https://s3-media2.fl.yelpcdn.com/bphoto/uhnhZvb2ZnwvpT2TIDd1xg/o.jpg", "is_closed": false, "url": "https://www.yelp.com/biz/b-side-pizza-and-wine-bar-new-york?adjust_creative=9gNmiWYX8uTbFBeTTvJMdA&utm_campaign=yelp_api_v3&utm_medium=api_v3_business_search&utm_source=9gNmiWYX8uTbFBeTTvJMdA", "review_count": 1274, "categories": [{"alias": "pizza", "title": "Pizza"}, {"alias": "wine_bars", "title": "Wine Bars"}, {"alias": "cocktailbars", "title": "Cocktail Bars"}], "rating": 4.5, "coordinates": {"latitude": 40.76388, "longitude": -73.98821}, "transactions": ["pickup", "delivery"], "price": "$$", "location": {"address1": "370 W 51st St", "address2": null, "address3": "", "city": "New York", "zip_code": "10019", "country": "US", "state": "NY", "display_address": ["370 W 51st St", "New York, NY 10019"]}, "phone": "+16466797225", "display_phone": "(646) 679-7225", "distance": 1654.4823157538337}, {"id": "Li4N7-v4a7cXV5TT1OFOWw", "alias": "luchini-italian-new-york", "name": "Luchini Italian", "image_url": "https://s3-media4.fl.yelpcdn.com/bphoto/1W-P9aMGt4jDkmfgaGxWPw/o.jpg", "is_closed": false, "url": "https://www.yelp.com/biz/luchini-italian-new-york?adjust_creative=9gNmiWYX8uTbFBeTTvJMdA&utm_campaign=yelp_api_v3&utm_medium=api_v3_business_search&utm_source=9gNmiWYX8uTbFBeTTvJMdA", "review_count": 19, "categories": [{"alias": "italian", "title": "Italian"}, {"alias": "chicken_wings", "title": "Chicken Wings"}, {"alias": "pizza", "title": "Pizza"}], "rating": 4.0, "coordinates": {"latitude": 40.7629313, "longitude": -73.9714374}, "transactions": ["pickup", "delivery"], "location": {"address1": "39 E 58th St", "address2": null, "address3": null, "city": "New York", "zip_code": "10022", "country": "US", "state": "NY", "display_address": ["39 E 58th St", "New York, NY 10022"]}, "phone": "+19177803844", "display_phone": "(917) 780-3844", "distance": 446.2242655088971}, {"id": "PajKY49h4SpvSr-TW3lwCQ", "alias": "rafele-ristorante-new-york", "name": "Rafele Ristorante", "image_url": "https://s3-media2.fl.yelpcdn.com/bphoto/5IMPuuwXz8oX3djBIo0oNQ/o.jpg", "is_closed": false, "url": "https://www.yelp.com/biz/rafele-ristorante-new-york?adjust_creative=9gNmiWYX8uTbFBeTTvJMdA&utm_campaign=yelp_api_v3&utm_medium=api_v3_business_search&utm_source=9gNmiWYX8uTbFBeTTvJMdA", "review_count": 528, "categories": [{"alias": "italian", "title": "Italian"}], "rating": 4.0, "coordinates": {"latitude": 40.7309471231405, "longitude": -74.0041171779098}, "transactions": ["pickup", "delivery"], "price": "$$$", "location": {"address1": "29 7th Ave S", "address2": "", "address3": "", "city": "New York", "zip_code": "10014", "country": "US", "state": "NY", "display_address": ["29 7th Ave S", "New York, NY 10014"]}, "phone": "+12122421999", "display_phone": "(212) 242-1999", "distance": 4280.205747177171}, {"id": "4RhrQpbhjDmOyXT3qz7v2g", "alias": "osteria-carlina-new-york", "name": "Osteria Carlina", "image_url": "https://s3-media4.fl.yelpcdn.com/bphoto/FYnhUVR7EXcmfIxsbuU0Rg/o.jpg", "is_closed": false, "url": "https://www.yelp.com/biz/osteria-carlina-new-york?adjust_creative=9gNmiWYX8uTbFBeTTvJMdA&utm_campaign=yelp_api_v3&utm_medium=api_v3_business_search&utm_source=9gNmiWYX8uTbFBeTTvJMdA", "review_count": 82, "categories": [{"alias": "italian", "title": "Italian"}], "rating": 4.0, "coordinates": {"latitude": 40.731409, "longitude": -74.006984}, "transactions": ["pickup", "delivery"], "location": {"address1": "455 Hudson St", "address2": null, "address3": "", "city": "New York", "zip_code": "10014", "country": "US", "state": "NY", "display_address": ["455 Hudson St", "New York, NY 10014"]}, "phone": "+16465595137", "display_phone": "(646) 559-5137", "distance": 4412.392276174566}, {"id": "kMQ0IXs5mdjDeUvpWSHgRg", "alias": "il-mulino-new-york-tribeca-new-york", "name": "Il Mulino New York - Tribeca", "image_url": "https://s3-media1.fl.yelpcdn.com/bphoto/GNwphnltrQIm7NHjCFsM1Q/o.jpg", "is_closed": false, "url": "https://www.yelp.com/biz/il-mulino-new-york-tribeca-new-york?adjust_creative=9gNmiWYX8uTbFBeTTvJMdA&utm_campaign=yelp_api_v3&utm_medium=api_v3_business_search&utm_source=9gNmiWYX8uTbFBeTTvJMdA", "review_count": 50, "categories": [{"alias": "italian", "title": "Italian"}, {"alias": "desserts", "title": "Desserts"}, {"alias": "bars", "title": "Bars"}], "rating": 4.0, "coordinates": {"latitude": 40.71904, "longitude": -74.01016}, "transactions": ["pickup", "delivery"], "price": "$$$", "location": {"address1": "361 Greenwich St", "address2": null, "address3": "", "city": "New York", "zip_code": "10013", "country": "US", "state": "NY", "display_address": ["361 Greenwich St", "New York, NY 10013"]}, "phone": "+12122239114", "display_phone": "(212) 223-9114", "distance": 5617.786421025602}, {"id": "gkoAJruMnKVuoKVqorgFCA", "alias": "trovo-nyc-thin-crust-pizza-new-york", "name": "TROVO NYC Thin Crust Pizza", "image_url": "https://s3-media2.fl.yelpcdn.com/bphoto/UZBaD0IWDowUe9Kol4EDNg/o.jpg", "is_closed": false, "url": "https://www.yelp.com/biz/trovo-nyc-thin-crust-pizza-new-york?adjust_creative=9gNmiWYX8uTbFBeTTvJMdA&utm_campaign=yelp_api_v3&utm_medium=api_v3_business_search&utm_source=9gNmiWYX8uTbFBeTTvJMdA", "review_count": 5, "categories": [{"alias": "pizza", "title": "Pizza"}, {"alias": "italian", "title": "Italian"}, {"alias": "salad", "title": "Salad"}], "rating": 4.0, "coordinates": {"latitude": 40.7589, "longitude": -73.96875}, "transactions": ["pickup", "delivery"], "location": {"address1": "906 3rd Ave", "address2": "", "address3": null, "city": "New York", "zip_code": "10022", "country": "US", "state": "NY", "display_address": ["906 3rd Ave", "New York, NY 10022"]}, "phone": "+19174512220", "display_phone": "(917) 451-2220", "distance": 62.207429194906915}, {"id": "HodL0fXoF08C3Ir-kLeTtw", "alias": "forma-pasta-factory-brooklyn", "name": "Forma Pasta Factory", "image_url": "https://s3-media3.fl.yelpcdn.com/bphoto/ZvsKs9c9dWVGYeTwNHR0Kw/o.jpg", "is_closed": false, "url": "https://www.yelp.com/biz/forma-pasta-factory-brooklyn?adjust_creative=9gNmiWYX8uTbFBeTTvJMdA&utm_campaign=yelp_api_v3&utm_medium=api_v3_business_search&utm_source=9gNmiWYX8uTbFBeTTvJMdA", "review_count": 518, "categories": [{"alias": "pastashops", "title": "Pasta Shops"}, {"alias": "italian", "title": "Italian"}, {"alias": "salad", "title": "Salad"}], "rating": 4.5, "coordinates": {"latitude": 40.72371, "longitude": -73.95157}, "transactions": ["pickup", "delivery"], "price": "$$", "location": {"address1": "14 Bedford Ave", "address2": null, "address3": "", "city": "Brooklyn", "zip_code": "11222", "country": "US", "state": "NY", "display_address": ["14 Bedford Ave", "Brooklyn, NY 11222"]}, "phone": "+17183492009", "display_phone": "(718) 349-2009", "distance": 4213.560909195014}, {"id": "VqxwHMcof6G5RIw45dMpGQ", "alias": "serafina-italian-restaurant-in-the-sky-new-york", "name": "Serafina Italian Restaurant In the Sky", "image_url": "https://s3-media4.fl.yelpcdn.com/bphoto/iAQurnvOXw_Q97N00u2Asg/o.jpg", "is_closed": false, "url": "https://www.yelp.com/biz/serafina-italian-restaurant-in-the-sky-new-york?adjust_creative=9gNmiWYX8uTbFBeTTvJMdA&utm_campaign=yelp_api_v3&utm_medium=api_v3_business_search&utm_source=9gNmiWYX8uTbFBeTTvJMdA", "review_count": 22, "categories": [{"alias": "italian", "title": "Italian"}, {"alias": "bars", "title": "Bars"}], "rating": 3.5, "coordinates": {"latitude": 40.75845, "longitude": -73.99308}, "transactions": [], "location": {"address1": "400 West 42nd St", "address2": null, "address3": "", "city": "New York", "zip_code": "10036", "country": "US", "state": "NY", "display_address": ["400 West 42nd St", "New York, NY 10036"]}, "phone": "+12127764140", "display_phone": "(212) 776-4140", "distance": 1987.4078347960726}, {"id": "yc4vsT-Q4Ej1_9hr94DxkQ", "alias": "sotto-13-new-york-7", "name": "Sotto 13", "image_url": "https://s3-media2.fl.yelpcdn.com/bphoto/mCE2TARhbLRvR1eqSn9DsA/o.jpg", "is_closed": false, "url": "https://www.yelp.com/biz/sotto-13-new-york-7?adjust_creative=9gNmiWYX8uTbFBeTTvJMdA&utm_campaign=yelp_api_v3&utm_medium=api_v3_business_search&utm_source=9gNmiWYX8uTbFBeTTvJMdA", "review_count": 1033, "categories": [{"alias": "italian", "title": "Italian"}, {"alias": "pizza", "title": "Pizza"}, {"alias": "breakfast_brunch", "title": "Breakfast & Brunch"}], "rating": 4.0, "coordinates": {"latitude": 40.7372, "longitude": -73.99919}, "transactions": ["pickup", "delivery"], "price": "$$", "location": {"address1": "140 W 13th St", "address2": "", "address3": "", "city": "New York", "zip_code": "10011", "country": "US", "state": "NY", "display_address": ["140 W 13th St", "New York, NY 10011"]}, "phone": "+12126471001", "display_phone": "(212) 647-1001", "distance": 3489.9551742362078}, {"id": "n_NIY1KTi-R5DPkduEUKIw", "alias": "ovest-pizzoteca-by-luzzos-new-york", "name": "Ovest Pizzoteca by Luzzo's", "image_url": "https://s3-media3.fl.yelpcdn.com/bphoto/fX8rfb6ijpA_eFigGqMGZA/o.jpg", "is_closed": false, "url": "https://www.yelp.com/biz/ovest-pizzoteca-by-luzzos-new-york?adjust_creative=9gNmiWYX8uTbFBeTTvJMdA&utm_campaign=yelp_api_v3&utm_medium=api_v3_business_search&utm_source=9gNmiWYX8uTbFBeTTvJMdA", "review_count": 594, "categories": [{"alias": "italian", "title": "Italian"}, {"alias": "bars", "title": "Bars"}, {"alias": "breakfast_brunch", "title": "Breakfast & Brunch"}], "rating": 4.0, "coordinates": {"latitude": 40.7507476806641, "longitude": -74.0030212402344}, "transactions": ["pickup", "delivery"], "price": "$$", "location": {"address1": "513 W 27th St", "address2": "", "address3": "", "city": "New York", "zip_code": "10001", "country": "US", "state": "NY", "display_address": ["513 W 27th St", "New York, NY 10001"]}, "phone": "+12129674392", "display_phone": "(212) 967-4392", "distance": 2966.171185244096}, {"id": "OLa3-KQO9rHjswo55E3Jgg", "alias": "trattoria-la-sorrentina-north-bergen", "name": "Trattoria La Sorrentina", "image_url": "https://s3-media3.fl.yelpcdn.com/bphoto/AP9NpHVEnbxLEuezXCspHg/o.jpg", "is_closed": false, "url": "https://www.yelp.com/biz/trattoria-la-sorrentina-north-bergen?adjust_creative=9gNmiWYX8uTbFBeTTvJMdA&utm_campaign=yelp_api_v3&utm_medium=api_v3_business_search&utm_source=9gNmiWYX8uTbFBeTTvJMdA", "review_count": 647, "categories": [{"alias": "italian", "title": "Italian"}, {"alias": "pizza", "title": "Pizza"}], "rating": 4.5, "coordinates": {"latitude": 40.80174, "longitude": -74.00698}, "transactions": ["pickup", "delivery"], "price": "$$", "location": {"address1": "7831 Bergenline Ave", "address2": "", "address3": "", "city": "North Bergen", "zip_code": "07047", "country": "US", "state": "NJ", "display_address": ["7831 Bergenline Ave", "North Bergen, NJ 07047"]}, "phone": "+12018698100", "display_phone": "(201) 869-8100", "distance": 5684.66895176241}, {"id": "-Gc5sTFxoXM3Tiv_dkSJZg", "alias": "cecconis-dumbo-brooklyn", "name": "Cecconi's Dumbo", "image_url": "https://s3-media4.fl.yelpcdn.com/bphoto/39iIx_iSeCTk3PIwaKFBAw/o.jpg", "is_closed": false, "url": "https://www.yelp.com/biz/cecconis-dumbo-brooklyn?adjust_creative=9gNmiWYX8uTbFBeTTvJMdA&utm_campaign=yelp_api_v3&utm_medium=api_v3_business_search&utm_source=9gNmiWYX8uTbFBeTTvJMdA", "review_count": 1015, "categories": [{"alias": "italian", "title": "Italian"}], "rating": 3.5, "coordinates": {"latitude": 40.7033063330116, "longitude": -73.9916549604523}, "transactions": ["delivery"], "price": "$$$", "location": {"address1": "55 Water St", "address2": "", "address3": null, "city": "Brooklyn", "zip_code": "11201", "country": "US", "state": "NY", "display_address": ["55 Water St", "Brooklyn, NY 11201"]}, "phone": "+17186503900", "display_phone": "(718) 650-3900", "distance": 6484.908779955993}, {"id": "mkS--Oq4UYJMQizSaKJXEw", "alias": "enzos-of-arthur-avenue-bronx-2", "name": "Enzos of Arthur Avenue", "image_url": "https://s3-media3.fl.yelpcdn.com/bphoto/m4hEhgf1s2gc8u0JJlpZ6w/o.jpg", "is_closed": false, "url": "https://www.yelp.com/biz/enzos-of-arthur-avenue-bronx-2?adjust_creative=9gNmiWYX8uTbFBeTTvJMdA&utm_campaign=yelp_api_v3&utm_medium=api_v3_business_search&utm_source=9gNmiWYX8uTbFBeTTvJMdA", "review_count": 388, "categories": [{"alias": "italian", "title": "Italian"}, {"alias": "pizza", "title": "Pizza"}, {"alias": "venues", "title": "Venues & Event Spaces"}], "rating": 4.0, "coordinates": {"latitude": 40.854716697326715, "longitude": -73.8887236}, "transactions": ["delivery"], "price": "$$", "location": {"address1": "2339 Arthur Ave", "address2": null, "address3": "", "city": "Bronx", "zip_code": "10458", "country": "US", "state": "NY", "display_address": ["2339 Arthur Ave", "Bronx, NY 10458"]}, "phone": "+17187334455", "display_phone": "(718) 733-4455", "distance": 12616.241529742303}, {"id": "ZUrGqOG2cetGI-KKXk3c2g", "alias": "chazz-palminteri-italian-restaurant-new-york-new-york", "name": "Chazz Palminteri Italian Restaurant - New York", "image_url": "https://s3-media2.fl.yelpcdn.com/bphoto/wyFPi7SoU4t6-OUy2UhSMA/o.jpg", "is_closed": false, "url": "https://www.yelp.com/biz/chazz-palminteri-italian-restaurant-new-york-new-york?adjust_creative=9gNmiWYX8uTbFBeTTvJMdA&utm_campaign=yelp_api_v3&utm_medium=api_v3_business_search&utm_source=9gNmiWYX8uTbFBeTTvJMdA", "review_count": 336, "categories": [{"alias": "italian", "title": "Italian"}, {"alias": "bars", "title": "Bars"}, {"alias": "venues", "title": "Venues & Event Spaces"}], "rating": 4.0, "coordinates": {"latitude": 40.756473, "longitude": -73.980563}, "transactions": ["pickup", "delivery"], "price": "$$$", "location": {"address1": "30 West 46th St", "address2": null, "address3": "", "city": "New York", "zip_code": "10036", "country": "US", "state": "NY", "display_address": ["30 West 46th St", "New York, NY 10036"]}, "phone": "+12123555540", "display_phone": "(212) 355-5540", "distance": 973.1094379365909}, {"id": "78TCGIG1eHMYdyvMpFdDbQ", "alias": "follia-new-york", "name": "Follia", "image_url": "https://s3-media1.fl.yelpcdn.com/bphoto/wpf_6eIsOO219K91kn4LhQ/o.jpg", "is_closed": false, "url": "https://www.yelp.com/biz/follia-new-york?adjust_creative=9gNmiWYX8uTbFBeTTvJMdA&utm_campaign=yelp_api_v3&utm_medium=api_v3_business_search&utm_source=9gNmiWYX8uTbFBeTTvJMdA", "review_count": 276, "categories": [{"alias": "wine_bars", "title": "Wine Bars"}, {"alias": "italian", "title": "Italian"}, {"alias": "pizza", "title": "Pizza"}], "rating": 4.0, "coordinates": {"latitude": 40.7349243164062, "longitude": -73.9855880737305}, "transactions": ["pickup", "delivery"], "price": "$$$", "location": {"address1": "179 3rd Ave", "address2": "", "address3": null, "city": "New York", "zip_code": "10003", "country": "US", "state": "NY", "display_address": ["179 3rd Ave", "New York, NY 10003"]}, "phone": "+12124774100", "display_phone": "(212) 477-4100", "distance": 3014.997479911615}, {"id": "oLg2HxLYChgvMRTK5ZSdKQ", "alias": "kurant-new-york-2", "name": "Kurant", "image_url": "https://s3-media1.fl.yelpcdn.com/bphoto/sRkE3nrS31dtpz0jxwR6IQ/o.jpg", "is_closed": false, "url": "https://www.yelp.com/biz/kurant-new-york-2?adjust_creative=9gNmiWYX8uTbFBeTTvJMdA&utm_campaign=yelp_api_v3&utm_medium=api_v3_business_search&utm_source=9gNmiWYX8uTbFBeTTvJMdA", "review_count": 243, "categories": [{"alias": "wine_bars", "title": "Wine Bars"}, {"alias": "newamerican", "title": "American (New)"}, {"alias": "italian", "title": "Italian"}], "rating": 4.0, "coordinates": {"latitude": 40.75971, "longitude": -73.96521}, "transactions": ["pickup", "delivery"], "price": "$$", "location": {"address1": "1091 2nd Ave", "address2": "", "address3": "", "city": "New York", "zip_code": "10022", "country": "US", "state": "NY", "display_address": ["1091 2nd Ave", "New York, NY 10022"]}, "phone": "+16463706928", "display_phone": "(646) 370-6928", "distance": 368.5408602357376}, {"id": "06tnwnEQM2j9A6dC3HC_TQ", "alias": "capizzi-new-york", "name": "Capizzi", "image_url": "https://s3-media2.fl.yelpcdn.com/bphoto/OgdmDyVlGM2Ao_Q3VAOnmw/o.jpg", "is_closed": false, "url": "https://www.yelp.com/biz/capizzi-new-york?adjust_creative=9gNmiWYX8uTbFBeTTvJMdA&utm_campaign=yelp_api_v3&utm_medium=api_v3_business_search&utm_source=9gNmiWYX8uTbFBeTTvJMdA", "review_count": 887, "categories": [{"alias": "pizza", "title": "Pizza"}, {"alias": "desserts", "title": "Desserts"}, {"alias": "beer_and_wine", "title": "Beer, Wine & Spirits"}], "rating": 4.0, "coordinates": {"latitude": 40.75744, "longitude": -73.99357}, "transactions": ["pickup", "delivery"], "price": "$$", "location": {"address1": "547 9th Ave", "address2": "", "address3": "", "city": "New York", "zip_code": "10018", "country": "US", "state": "NY", "display_address": ["547 9th Ave", "New York, NY 10018"]}, "phone": "+16464765120", "display_phone": "(646) 476-5120", "distance": 2036.5527468132825}, {"id": "kQuTJxm0KAX1AsS46vhC_g", "alias": "barbuto-new-york-2", "name": "Barbuto", "image_url": "https://s3-media1.fl.yelpcdn.com/bphoto/RQLZ4PCBHQIURHy3GMMa1A/o.jpg", "is_closed": false, "url": "https://www.yelp.com/biz/barbuto-new-york-2?adjust_creative=9gNmiWYX8uTbFBeTTvJMdA&utm_campaign=yelp_api_v3&utm_medium=api_v3_business_search&utm_source=9gNmiWYX8uTbFBeTTvJMdA", "review_count": 81, "categories": [{"alias": "italian", "title": "Italian"}, {"alias": "newamerican", "title": "American (New)"}], "rating": 4.0, "coordinates": {"latitude": 40.73885, "longitude": -74.00932}, "transactions": [], "location": {"address1": "113 Horatio St", "address2": "", "address3": null, "city": "New York", "zip_code": "10014", "country": "US", "state": "NY", "display_address": ["113 Horatio St", "New York, NY 10014"]}, "phone": "+12129249700", "display_phone": "(212) 924-9700", "distance": 4033.7877447660526}, {"id": "UVQ1GxmhlDVDM2acLexJ7A", "alias": "robertos-ii-ristorante-edgewater", "name": "Roberto's II Ristorante", "image_url": "https://s3-media1.fl.yelpcdn.com/bphoto/mQvl2xzU1JhezCepDW0cGg/o.jpg", "is_closed": false, "url": "https://www.yelp.com/biz/robertos-ii-ristorante-edgewater?adjust_creative=9gNmiWYX8uTbFBeTTvJMdA&utm_campaign=yelp_api_v3&utm_medium=api_v3_business_search&utm_source=9gNmiWYX8uTbFBeTTvJMdA", "review_count": 115, "categories": [{"alias": "italian", "title": "Italian"}], "rating": 4.0, "coordinates": {"latitude": 40.826943, "longitude": -73.973692}, "transactions": ["delivery"], "price": "$$", "location": {"address1": "936 River Rd", "address2": "", "address3": "", "city": "Edgewater", "zip_code": "07020", "country": "US", "state": "NJ", "display_address": ["936 River Rd", "Edgewater, NJ 07020"]}, "phone": "+12012242524", "display_phone": "(201) 224-2524", "distance": 7543.451997034275}, {"id": "twHJyFgUSd7wzioKQjE7Jw", "alias": "galli-new-york-5", "name": "Galli", "image_url": "https://s3-media4.fl.yelpcdn.com/bphoto/NriJMGzJm4mZn-Pj2oRm3Q/o.jpg", "is_closed": false, "url": "https://www.yelp.com/biz/galli-new-york-5?adjust_creative=9gNmiWYX8uTbFBeTTvJMdA&utm_campaign=yelp_api_v3&utm_medium=api_v3_business_search&utm_source=9gNmiWYX8uTbFBeTTvJMdA", "review_count": 1038, "categories": [{"alias": "italian", "title": "Italian"}, {"alias": "cocktailbars", "title": "Cocktail Bars"}, {"alias": "wine_bars", "title": "Wine Bars"}], "rating": 4.0, "coordinates": {"latitude": 40.72161, "longitude": -74.00127}, "transactions": ["pickup", "delivery"], "price": "$$", "location": {"address1": "45 Mercer St", "address2": "", "address3": null, "city": "New York", "zip_code": "10013", "country": "US", "state": "NY", "display_address": ["45 Mercer St", "New York, NY 10013"]}, "phone": "+12129669288", "display_phone": "(212) 966-9288", "distance": 4956.23808614568}, {"id": "f_1BjTChf6bobreSRpqhsw", "alias": "arco-cafe-new-york", "name": "Arco Cafe", "image_url": "https://s3-media2.fl.yelpcdn.com/bphoto/oNW76vEP9B2sGldRq7lnAA/o.jpg", "is_closed": false, "url": "https://www.yelp.com/biz/arco-cafe-new-york?adjust_creative=9gNmiWYX8uTbFBeTTvJMdA&utm_campaign=yelp_api_v3&utm_medium=api_v3_business_search&utm_source=9gNmiWYX8uTbFBeTTvJMdA", "review_count": 340, "categories": [{"alias": "italian", "title": "Italian"}, {"alias": "seafood", "title": "Seafood"}, {"alias": "pastashops", "title": "Pasta Shops"}], "rating": 4.5, "coordinates": {"latitude": 40.7988462, "longitude": -73.967065}, "transactions": ["pickup", "delivery"], "price": "$$", "location": {"address1": "886 Amsterdam Ave", "address2": null, "address3": "", "city": "New York", "zip_code": "10025", "country": "US", "state": "NY", "display_address": ["886 Amsterdam Ave", "New York, NY 10025"]}, "phone": "+16467819080", "display_phone": "(646) 781-9080", "distance": 4401.870336655182}, {"id": "9T8Ootw4aqmaO42gI-wBSA", "alias": "botte-ues-new-york", "name": "Botte UES", "image_url": "https://s3-media1.fl.yelpcdn.com/bphoto/4BpOBdvaPfJmeDz2C3ojug/o.jpg", "is_closed": false, "url": "https://www.yelp.com/biz/botte-ues-new-york?adjust_creative=9gNmiWYX8uTbFBeTTvJMdA&utm_campaign=yelp_api_v3&utm_medium=api_v3_business_search&utm_source=9gNmiWYX8uTbFBeTTvJMdA", "review_count": 96, "categories": [{"alias": "italian", "title": "Italian"}, {"alias": "pizza", "title": "Pizza"}, {"alias": "cocktailbars", "title": "Cocktail Bars"}], "rating": 4.0, "coordinates": {"latitude": 40.775079766410514, "longitude": -73.95047928303218}, "transactions": ["pickup", "delivery"], "location": {"address1": "1606 1st Ave", "address2": null, "address3": "", "city": "New York", "zip_code": "10028", "country": "US", "state": "NY", "display_address": ["1606 1st Ave", "New York, NY 10028"]}, "phone": "+12122070052", "display_phone": "(212) 207-0052", "distance": 2390.33384098038}, {"id": "1mp7uP6Kz_Zz4UClVfnjFQ", "alias": "testo-brooklyn-2", "name": "Testo", "image_url": "https://s3-media2.fl.yelpcdn.com/bphoto/moZamt6s8gWDX1QMX20OiA/o.jpg", "is_closed": false, "url": "https://www.yelp.com/biz/testo-brooklyn-2?adjust_creative=9gNmiWYX8uTbFBeTTvJMdA&utm_campaign=yelp_api_v3&utm_medium=api_v3_business_search&utm_source=9gNmiWYX8uTbFBeTTvJMdA", "review_count": 232, "categories": [{"alias": "italian", "title": "Italian"}, {"alias": "gluten_free", "title": "Gluten-Free"}, {"alias": "breakfast_brunch", "title": "Breakfast & Brunch"}], "rating": 4.5, "coordinates": {"latitude": 40.708337, "longitude": -73.946965}, "transactions": ["pickup", "delivery"], "price": "$$", "location": {"address1": "141 Leonard St", "address2": null, "address3": "", "city": "Brooklyn", "zip_code": "11206", "country": "US", "state": "NY", "display_address": ["141 Leonard St", "Brooklyn, NY 11206"]}, "phone": "+17183884810", "display_phone": "(718) 388-4810", "distance": 5965.645040021256}, {"id": "rJJiGJx3kfMAxtD7P7okHQ", "alias": "celeste-restaurant-new-york-4", "name": "Celeste Restaurant", "image_url": "https://s3-media2.fl.yelpcdn.com/bphoto/UzwzOZdV5veaq0QdUGcmKA/o.jpg", "is_closed": false, "url": "https://www.yelp.com/biz/celeste-restaurant-new-york-4?adjust_creative=9gNmiWYX8uTbFBeTTvJMdA&utm_campaign=yelp_api_v3&utm_medium=api_v3_business_search&utm_source=9gNmiWYX8uTbFBeTTvJMdA", "review_count": 963, "categories": [{"alias": "italian", "title": "Italian"}, {"alias": "pizza", "title": "Pizza"}], "rating": 3.5, "coordinates": {"latitude": 40.78666, "longitude": -73.97599}, "transactions": ["pickup", "delivery"], "price": "$$", "location": {"address1": "502 Amsterdam Ave", "address2": "", "address3": "", "city": "New York", "zip_code": "10024", "country": "US", "state": "NY", "display_address": ["502 Amsterdam Ave", "New York, NY 10024"]}, "phone": "+12128744559", "display_phone": "(212) 874-4559", "distance": 3109.4206794455754}, {"id": "NGyFpNCrzqEG3B0Z0drKfw", "alias": "amarone-scarlatto-new-york", "name": "Amarone Scarlatto", "image_url": "https://s3-media3.fl.yelpcdn.com/bphoto/VEA-DXFwFpXVklxQuqSChA/o.jpg", "is_closed": false, "url": "https://www.yelp.com/biz/amarone-scarlatto-new-york?adjust_creative=9gNmiWYX8uTbFBeTTvJMdA&utm_campaign=yelp_api_v3&utm_medium=api_v3_business_search&utm_source=9gNmiWYX8uTbFBeTTvJMdA", "review_count": 57, "categories": [{"alias": "italian", "title": "Italian"}], "rating": 4.0, "coordinates": {"latitude": 40.76171494384402, "longitude": -73.9899636}, "transactions": ["pickup", "delivery"], "price": "$$", "location": {"address1": "686 Ninth Ave West 47 Street", "address2": "", "address3": null, "city": "New York", "zip_code": "10036", "country": "US", "state": "NY", "display_address": ["686 Ninth Ave West 47 Street", "New York, NY 10036"]}, "phone": "+12127304535", "display_phone": "(212) 730-4535", "distance": 1740.371559079598}, {"id": "QhRQE6nOMLd00kV2k-IsbQ", "alias": "augustinos-kitchen-and-bar-hoboken-2", "name": "Augustinos kitchen and bar", "image_url": "https://s3-media3.fl.yelpcdn.com/bphoto/5M1RmrJsjrLEZzsBKN6eTw/o.jpg", "is_closed": false, "url": "https://www.yelp.com/biz/augustinos-kitchen-and-bar-hoboken-2?adjust_creative=9gNmiWYX8uTbFBeTTvJMdA&utm_campaign=yelp_api_v3&utm_medium=api_v3_business_search&utm_source=9gNmiWYX8uTbFBeTTvJMdA", "review_count": 363, "categories": [{"alias": "italian", "title": "Italian"}], "rating": 4.0, "coordinates": {"latitude": 40.75024, "longitude": -74.02732}, "transactions": ["delivery"], "price": "$$$", "location": {"address1": "1104 Washington St", "address2": "", "address3": "", "city": "Hoboken", "zip_code": "07030", "country": "US", "state": "NJ", "display_address": ["1104 Washington St", "Hoboken, NJ 07030"]}, "phone": "+12014200104", "display_phone": "(201) 420-0104", "distance": 4960.0605273988485}, {"id": "JyXn_GCGM2DsNYIzgzQrDw", "alias": "da-gennaro-new-york", "name": "Da Gennaro", "image_url": "https://s3-media3.fl.yelpcdn.com/bphoto/RkC0BOn79I16tRHBt9hgbg/o.jpg", "is_closed": false, "url": "https://www.yelp.com/biz/da-gennaro-new-york?adjust_creative=9gNmiWYX8uTbFBeTTvJMdA&utm_campaign=yelp_api_v3&utm_medium=api_v3_business_search&utm_source=9gNmiWYX8uTbFBeTTvJMdA", "review_count": 1245, "categories": [{"alias": "italian", "title": "Italian"}, {"alias": "pizza", "title": "Pizza"}, {"alias": "gluten_free", "title": "Gluten-Free"}], "rating": 4.0, "coordinates": {"latitude": 40.71832, "longitude": -73.99794}, "transactions": ["pickup", "delivery"], "price": "$$$", "location": {"address1": "129 Mulberry St", "address2": "", "address3": "", "city": "New York", "zip_code": "10013", "country": "US", "state": "NY", "display_address": ["129 Mulberry St", "New York, NY 10013"]}, "phone": "+12124313934", "display_phone": "(212) 431-3934", "distance": 5129.4256986027285}, {"id": "fyC2cBsQ0FsMJmv0jSworg", "alias": "donna-margherita-new-york", "name": "Donna Margherita", "image_url": "https://s3-media4.fl.yelpcdn.com/bphoto/4chLqGmT-geUbtlsjf5wzg/o.jpg", "is_closed": false, "url": "https://www.yelp.com/biz/donna-margherita-new-york?adjust_creative=9gNmiWYX8uTbFBeTTvJMdA&utm_campaign=yelp_api_v3&utm_medium=api_v3_business_search&utm_source=9gNmiWYX8uTbFBeTTvJMdA", "review_count": 164, "categories": [{"alias": "pizza", "title": "Pizza"}, {"alias": "italian", "title": "Italian"}, {"alias": "salad", "title": "Salad"}], "rating": 4.5, "coordinates": {"latitude": 40.76652, "longitude": -73.9598}, "transactions": ["pickup", "delivery"], "price": "$$", "location": {"address1": "1304 2nd Ave", "address2": "Ste A", "address3": null, "city": "New York", "zip_code": "10065", "country": "US", "state": "NY", "display_address": ["1304 2nd Ave", "Ste A", "New York, NY 10065"]}, "phone": "+12127721169", "display_phone": "(212) 772-1169", "distance": 1158.3024402854205}, {"id": "H5L18XZRHh_13HaeeHH_sQ", "alias": "casa-di-napoli-union-city", "name": "Casa Di Napoli", "image_url": "https://s3-media3.fl.yelpcdn.com/bphoto/7zqggMqqnk7hQDGHkj2CEA/o.jpg", "is_closed": false, "url": "https://www.yelp.com/biz/casa-di-napoli-union-city?adjust_creative=9gNmiWYX8uTbFBeTTvJMdA&utm_campaign=yelp_api_v3&utm_medium=api_v3_business_search&utm_source=9gNmiWYX8uTbFBeTTvJMdA", "review_count": 149, "categories": [{"alias": "italian", "title": "Italian"}], "rating": 4.5, "coordinates": {"latitude": 40.773718, "longitude": -74.0306062996387}, "transactions": [], "price": "$$", "location": {"address1": "703 32nd St", "address2": "", "address3": "", "city": "Union City", "zip_code": "07087", "country": "US", "state": "NJ", "display_address": ["703 32nd St", "Union City, NJ 07087"]}, "phone": "+12018671934", "display_phone": "(201) 867-1934", "distance": 5388.318251794103}, {"id": "1XK53gaHMFQIA4VW3B6k1Q", "alias": "abaita-new-york", "name": "Abaita", "image_url": "https://s3-media2.fl.yelpcdn.com/bphoto/lW_JX7BOlexEIPivVdx9Jw/o.jpg", "is_closed": false, "url": "https://www.yelp.com/biz/abaita-new-york?adjust_creative=9gNmiWYX8uTbFBeTTvJMdA&utm_campaign=yelp_api_v3&utm_medium=api_v3_business_search&utm_source=9gNmiWYX8uTbFBeTTvJMdA", "review_count": 110, "categories": [{"alias": "mediterranean", "title": "Mediterranean"}, {"alias": "kosher", "title": "Kosher"}, {"alias": "pizza", "title": "Pizza"}], "rating": 4.5, "coordinates": {"latitude": 40.755541483222, "longitude": -73.9718742367706}, "transactions": ["pickup", "delivery"], "location": {"address1": "145 E 49th St", "address2": null, "address3": "", "city": "New York", "zip_code": "10017", "country": "US", "state": "NY", "display_address": ["145 E 49th St", "New York, NY 10017"]}, "phone": "+16468085518", "display_phone": "(646) 808-5518", "distance": 448.0513942317947}, {"id": "vjj3MMPkULJUCv8xf3XRiA", "alias": "san-matteo-takeaway-new-york", "name": "San Matteo Takeaway", "image_url": "https://s3-media1.fl.yelpcdn.com/bphoto/qDn8afUUK3NOACQXKM4sWg/o.jpg", "is_closed": false, "url": "https://www.yelp.com/biz/san-matteo-takeaway-new-york?adjust_creative=9gNmiWYX8uTbFBeTTvJMdA&utm_campaign=yelp_api_v3&utm_medium=api_v3_business_search&utm_source=9gNmiWYX8uTbFBeTTvJMdA", "review_count": 163, "categories": [{"alias": "italian", "title": "Italian"}, {"alias": "pizza", "title": "Pizza"}, {"alias": "salad", "title": "Salad"}], "rating": 4.0, "coordinates": {"latitude": 40.7801684, "longitude": -73.9502899}, "transactions": ["pickup", "delivery"], "price": "$$", "location": {"address1": "1731 2nd Ave", "address2": "", "address3": "", "city": "New York", "zip_code": "10128", "country": "US", "state": "NY", "display_address": ["1731 2nd Ave", "New York, NY 10128"]}, "phone": "+16468526876", "display_phone": "(646) 852-6876", "distance": 2843.697050350669}, {"id": "Vm6_cXz8hbvZhot0m1aaRg", "alias": "italianissimo-ristorante-new-york-2", "name": "Italianissimo Ristorante", "image_url": "https://s3-media1.fl.yelpcdn.com/bphoto/8LfUSG8eG4hC5mQZW-BilA/o.jpg", "is_closed": false, "url": "https://www.yelp.com/biz/italianissimo-ristorante-new-york-2?adjust_creative=9gNmiWYX8uTbFBeTTvJMdA&utm_campaign=yelp_api_v3&utm_medium=api_v3_business_search&utm_source=9gNmiWYX8uTbFBeTTvJMdA", "review_count": 145, "categories": [{"alias": "italian", "title": "Italian"}, {"alias": "wine_bars", "title": "Wine Bars"}], "rating": 4.0, "coordinates": {"latitude": 40.7765, "longitude": -73.95197}, "transactions": ["pickup", "delivery"], "price": "$$$", "location": {"address1": "307 E 84th St", "address2": "", "address3": "", "city": "New York", "zip_code": "10028", "country": "US", "state": "NY", "display_address": ["307 E 84th St", "New York, NY 10028"]}, "phone": "+12126288603", "display_phone": "(212) 628-8603", "distance": 2437.1699885286084}, {"id": "MoyxzhaYIsJx-p9IuGGK4w", "alias": "stella-34-trattoria-new-york", "name": "Stella 34 Trattoria", "image_url": "https://s3-media4.fl.yelpcdn.com/bphoto/C_SKMxA5m1ZjIE8zHd3FZA/o.jpg", "is_closed": false, "url": "https://www.yelp.com/biz/stella-34-trattoria-new-york?adjust_creative=9gNmiWYX8uTbFBeTTvJMdA&utm_campaign=yelp_api_v3&utm_medium=api_v3_business_search&utm_source=9gNmiWYX8uTbFBeTTvJMdA", "review_count": 731, "categories": [{"alias": "italian", "title": "Italian"}, {"alias": "cocktailbars", "title": "Cocktail Bars"}, {"alias": "venues", "title": "Venues & Event Spaces"}], "rating": 3.5, "coordinates": {"latitude": 40.75049486336486, "longitude": -73.98798861987918}, "transactions": ["delivery"], "price": "$$$", "location": {"address1": "151 West 34th St", "address2": "Fl 6", "address3": "Macy's Herald Square", "city": "New York", "zip_code": "10001", "country": "US", "state": "NY", "display_address": ["151 West 34th St", "Fl 6", "Macy's Herald Square", "New York, NY 10001"]}, "phone": "+12129679251", "display_phone": "(212) 967-9251", "distance": 1826.8530394708214}, {"id": "3P8hb1ZOCA8IjEGfqpSpxg", "alias": "sfoglia-restaurant-new-york", "name": "Sfoglia Restaurant", "image_url": "https://s3-media3.fl.yelpcdn.com/bphoto/eZOKCHwk8j39PZcYYHnsBQ/o.jpg", "is_closed": false, "url": "https://www.yelp.com/biz/sfoglia-restaurant-new-york?adjust_creative=9gNmiWYX8uTbFBeTTvJMdA&utm_campaign=yelp_api_v3&utm_medium=api_v3_business_search&utm_source=9gNmiWYX8uTbFBeTTvJMdA", "review_count": 313, "categories": [{"alias": "italian", "title": "Italian"}], "rating": 4.0, "coordinates": {"latitude": 40.783535, "longitude": -73.952719}, "transactions": ["delivery"], "price": "$$$", "location": {"address1": "1402 Lexington Ave", "address2": "", "address3": "", "city": "New York", "zip_code": "10128", "country": "US", "state": "NY", "display_address": ["1402 Lexington Ave", "New York, NY 10128"]}, "phone": "+12128311402", "display_phone": "(212) 831-1402", "distance": 3058.0791903237186}, {"id": "XyICIfSun7HWtBEUFux2PQ", "alias": "bocca-di-bacco-new-york-4", "name": "Bocca Di Bacco", "image_url": "https://s3-media2.fl.yelpcdn.com/bphoto/fOhik0ndilNo4AkxZhN5tA/o.jpg", "is_closed": false, "url": "https://www.yelp.com/biz/bocca-di-bacco-new-york-4?adjust_creative=9gNmiWYX8uTbFBeTTvJMdA&utm_campaign=yelp_api_v3&utm_medium=api_v3_business_search&utm_source=9gNmiWYX8uTbFBeTTvJMdA", "review_count": 237, "categories": [{"alias": "italian", "title": "Italian"}, {"alias": "bars", "title": "Bars"}, {"alias": "breakfast_brunch", "title": "Breakfast & Brunch"}], "rating": 3.5, "coordinates": {"latitude": 40.7445631, "longitude": -74.0030779}, "transactions": ["pickup", "delivery"], "price": "$$", "location": {"address1": "169 9th Ave", "address2": "", "address3": "", "city": "New York", "zip_code": "10011", "country": "US", "state": "NY", "display_address": ["169 9th Ave", "New York, NY 10011"]}, "phone": "+12129898400", "display_phone": "(212) 989-8400", "distance": 3256.4671698858306}, {"id": "EZNw56hywTm1PJNYOMbfHQ", "alias": "morso-new-york", "name": "Morso", "image_url": "https://s3-media2.fl.yelpcdn.com/bphoto/lIXUsC53TSpDpQ1Ee1mIQQ/o.jpg", "is_closed": false, "url": "https://www.yelp.com/biz/morso-new-york?adjust_creative=9gNmiWYX8uTbFBeTTvJMdA&utm_campaign=yelp_api_v3&utm_medium=api_v3_business_search&utm_source=9gNmiWYX8uTbFBeTTvJMdA", "review_count": 153, "categories": [{"alias": "italian", "title": "Italian"}], "rating": 3.5, "coordinates": {"latitude": 40.758765, "longitude": -73.960929}, "transactions": ["pickup", "delivery"], "price": "$$$", "location": {"address1": "420 E 59th St", "address2": "", "address3": "", "city": "New York", "zip_code": "10022", "country": "US", "state": "NY", "display_address": ["420 E 59th St", "New York, NY 10022"]}, "phone": "+12127592706", "display_phone": "(212) 759-2706", "distance": 729.8927872172056}, {"id": "b6jOwyX4iaagw8YjXqq1sA", "alias": "antonios-trattoria-bronx", "name": "Antonio's Trattoria", "image_url": "https://s3-media3.fl.yelpcdn.com/bphoto/2JkIBHCbbUTlqdul0mwa1A/o.jpg", "is_closed": false, "url": "https://www.yelp.com/biz/antonios-trattoria-bronx?adjust_creative=9gNmiWYX8uTbFBeTTvJMdA&utm_campaign=yelp_api_v3&utm_medium=api_v3_business_search&utm_source=9gNmiWYX8uTbFBeTTvJMdA", "review_count": 1012, "categories": [{"alias": "italian", "title": "Italian"}, {"alias": "pizza", "title": "Pizza"}, {"alias": "desserts", "title": "Desserts"}], "rating": 4.5, "coordinates": {"latitude": 40.854131, "longitude": -73.886601}, "transactions": ["pickup", "delivery"], "price": "$$", "location": {"address1": "2370 Belmont Ave", "address2": null, "address3": "", "city": "Bronx", "zip_code": "10458", "country": "US", "state": "NY", "display_address": ["2370 Belmont Ave", "Bronx, NY 10458"]}, "phone": "+17187336630", "display_phone": "(718) 733-6630", "distance": 12659.13465177431}, {"id": "XHhRAKq6DArQXYhkgvwaow", "alias": "spaghetti-incident-new-york-2", "name": "Spaghetti Incident", "image_url": "https://s3-media4.fl.yelpcdn.com/bphoto/p5gt4VvPJnobk0HpF53Ong/o.jpg", "is_closed": false, "url": "https://www.yelp.com/biz/spaghetti-incident-new-york-2?adjust_creative=9gNmiWYX8uTbFBeTTvJMdA&utm_campaign=yelp_api_v3&utm_medium=api_v3_business_search&utm_source=9gNmiWYX8uTbFBeTTvJMdA", "review_count": 647, "categories": [{"alias": "italian", "title": "Italian"}, {"alias": "salad", "title": "Salad"}, {"alias": "pastashops", "title": "Pasta Shops"}], "rating": 4.0, "coordinates": {"latitude": 40.7223153441439, "longitude": -73.9899454318763}, "transactions": ["pickup", "delivery"], "price": "$$", "location": {"address1": "231 Eldridge St", "address2": "", "address3": "", "city": "New York", "zip_code": "10002", "country": "US", "state": "NY", "display_address": ["231 Eldridge St", "New York, NY 10002"]}, "phone": "+16468961446", "display_phone": "(646) 896-1446", "distance": 4443.40772610194}, {"id": "6n7D4amt9vEruR73tt3S9w", "alias": "cafe-fiorello-new-york", "name": "Cafe Fiorello", "image_url": "https://s3-media3.fl.yelpcdn.com/bphoto/OHmrhx2JP6E496ZeWldNWQ/o.jpg", "is_closed": false, "url": "https://www.yelp.com/biz/cafe-fiorello-new-york?adjust_creative=9gNmiWYX8uTbFBeTTvJMdA&utm_campaign=yelp_api_v3&utm_medium=api_v3_business_search&utm_source=9gNmiWYX8uTbFBeTTvJMdA", "review_count": 912, "categories": [{"alias": "italian", "title": "Italian"}, {"alias": "pizza", "title": "Pizza"}, {"alias": "tradamerican", "title": "American (Traditional)"}], "rating": 3.5, "coordinates": {"latitude": 40.77175902009792, "longitude": -73.98185582596686}, "transactions": ["pickup", "delivery"], "price": "$$$", "location": {"address1": "1900 Broadway", "address2": "", "address3": "", "city": "New York", "zip_code": "10023", "country": "US", "state": "NY", "display_address": ["1900 Broadway", "New York, NY 10023"]}, "phone": "+12125955330", "display_phone": "(212) 595-5330", "distance": 1740.099863256593}], "total": 4600, "region": {"center": {"longitude": -73.96957397460938, "latitude": 40.75917470627005}}}