{"businesses": [{"id": "kvWSD8qHKugLcmDsNBMdfQ", "alias": "paolas-osteria-new-york", "name": "Paola's Osteria", "image_url": "https://s3-media3.fl.yelpcdn.com/bphoto/nE04UKpyIeWaW9FwsoZGOw/o.jpg", "is_closed": false, "url": "https://www.yelp.com/biz/paolas-osteria-new-york?adjust_creative=9gNmiWYX8uTbFBeTTvJMdA&utm_campaign=yelp_api_v3&utm_medium=api_v3_business_search&utm_source=9gNmiWYX8uTbFBeTTvJMdA", "review_count": 70, "categories": [{"alias": "italian", "title": "Italian"}, {"alias": "pizza", "title": "Pizza"}], "rating": 3.5, "coordinates": {"latitude": 40.78318, "longitude": -73.9573}, "transactions": ["delivery", "pickup"], "location": {"address1": "1246 Madison Ave", "address2": "", "address3": null, "city": "New York", "zip_code": "10128", "country": "US", "state": "NY", "display_address": ["1246 Madison Ave", "New York, NY 10128"]}, "phone": "+12129235820", "display_phone": "(212) 923-5820", "distance": 2865.9740474356836}, {"id": "HSKcCmRFqzqG542Hy_eftw", "alias": "siena-cafe-new-york-3", "name": "Siena Cafe", "image_url": "https://s3-media2.fl.yelpcdn.com/bphoto/J3Fmbs1oQLWxKv-Y18Lf7Q/o.jpg", "is_closed": false, "url": "https://www.yelp.com/biz/siena-cafe-new-york-3?adjust_creative=9gNmiWYX8uTbFBeTTvJMdA&utm_campaign=yelp_api_v3&utm_medium=api_v3_business_search&utm_source=9gNmiWYX8uTbFBeTTvJMdA", "review_count": 287, "categories": [{"alias": "italian", "title": "Italian"}, {"alias": "seafood", "title": "Seafood"}, {"alias": "cocktailbars", "title": "Cocktail Bars"}], "rating": 3.5, "coordinates": {"latitude": 40.78073, "longitude": -73.953}, "transactions": ["delivery", "pickup"], "price": "$$", "location": {"address1": "1580 3rd Ave", "address2": "", "address3": null, "city": "New York", "zip_code": "10128", "country": "US", "state": "NY", "display_address": ["1580 3rd Ave", "New York, NY 10128"]}, "phone": "+12124105588", "display_phone": "(212) 410-5588", "distance": 2772.4066449996562}, {"id": "iEUXrUUqGfUhpgYYSr5Zig", "alias": "da-nico-ristorante-new-york", "name": "Da Nico Ristorante", "image_url": "https://s3-media4.fl.yelpcdn.com/bphoto/OVSLJdqJQFLDzO_pAfQWkw/o.jpg", "is_closed": false, "url": "https://www.yelp.com/biz/da-nico-ristorante-new-york?adjust_creative=9gNmiWYX8uTbFBeTTvJMdA&utm_campaign=yelp_api_v3&utm_medium=api_v3_business_search&utm_source=9gNmiWYX8uTbFBeTTvJMdA", "review_count": 986, "categories": [{"alias": "italian", "title": "Italian"}], "rating": 4.0, "coordinates": {"latitude": 40.71963, "longitude": -73.99691}, "transactions": ["delivery", "pickup"], "price": "$$", "location": {"address1": "164 Mulberry St", "address2": "", "address3": "", "city": "New York", "zip_code": "10013", "country": "US", "state": "NY", "display_address": ["164 Mulberry St", "New York, NY 10013"]}, "phone": "+12123431212", "display_phone": "(212) 343-1212", "distance": 4963.277163341475}, {"id": "9lDqOfKeEB15AWfsWIq8mA", "alias": "marios-restaurant-bronx-2", "name": "Mario's Restaurant", "image_url": "https://s3-media4.fl.yelpcdn.com/bphoto/qqPWDE5PxbH8LKIMY7oxmQ/o.jpg", "is_closed": false, "url": "https://www.yelp.com/biz/marios-restaurant-bronx-2?adjust_creative=9gNmiWYX8uTbFBeTTvJMdA&utm_campaign=yelp_api_v3&utm_medium=api_v3_business_search&utm_source=9gNmiWYX8uTbFBeTTvJMdA", "review_count": 320, "categories": [{"alias": "italian", "title": "Italian"}, {"alias": "seafood", "title": "Seafood"}], "rating": 4.0, "coordinates": {"latitude": 40.8542, "longitude": -73.88857}, "transactions": ["delivery", "pickup"], "price": "$$", "location": {"address1": "2342 Arthur Ave", "address2": "", "address3": "", "city": "Bronx", "zip_code": "10458", "country": "US", "state": "NY", "display_address": ["2342 Arthur Ave", "Bronx, NY 10458"]}, "phone": "+17185841188", "display_phone": "(718) 584-1188", "distance": 12573.015970603312}, {"id": "eMSTTuOUlKEnSOr8lPp3Xg", "alias": "ammazzacaff\u00e8-brooklyn", "name": "Ammazzacaff\u00e8", "image_url": "https://s3-media2.fl.yelpcdn.com/bphoto/Nf76L8uhSsD0bZAvqM_yCg/o.jpg", "is_closed": false, "url": "https://www.yelp.com/biz/ammazzacaff%C3%A8-brooklyn?adjust_creative=9gNmiWYX8uTbFBeTTvJMdA&utm_campaign=yelp_api_v3&utm_medium=api_v3_business_search&utm_source=9gNmiWYX8uTbFBeTTvJMdA", "review_count": 283, "categories": [{"alias": "cocktailbars", "title": "Cocktail Bars"}, {"alias": "italian", "title": "Italian"}, {"alias": "wine_bars", "title": "Wine Bars"}], "rating": 4.5, "coordinates": {"latitude": 40.7113172, "longitude": -73.9446243}, "transactions": ["delivery", "pickup"], "price": "$$", "location": {"address1": "702 Grand St", "address2": null, "address3": "", "city": "Brooklyn", "zip_code": "11211", "country": "US", "state": "NY", "display_address": ["702 Grand St", "Brooklyn, NY 11211"]}, "phone": "+19292502875", "display_phone": "(929) 250-2875", "distance": 5721.669214675663}, {"id": "eWMuXtaBzf0H5u0Vf_zpjw", "alias": "ciccio-new-york-11", "name": "Ciccio", "image_url": "https://s3-media3.fl.yelpcdn.com/bphoto/de3iLL9qvaq_Dw3ReKJ3mg/o.jpg", "is_closed": false, "url": "https://www.yelp.com/biz/ciccio-new-york-11?adjust_creative=9gNmiWYX8uTbFBeTTvJMdA&utm_campaign=yelp_api_v3&utm_medium=api_v3_business_search&utm_source=9gNmiWYX8uTbFBeTTvJMdA", "review_count": 308, "categories": [{"alias": "italian", "title": "Italian"}, {"alias": "cocktailbars", "title": "Cocktail Bars"}, {"alias": "diners", "title": "Diners"}], "rating": 4.5, "coordinates": {"latitude": 40.7263263267119, "longitude": -74.0034471165676}, "transactions": ["delivery"], "price": "$$", "location": {"address1": "190 6th Ave", "address2": "", "address3": "", "city": "New York", "zip_code": "10013", "country": "US", "state": "NY", "display_address": ["190 6th Ave", "New York, NY 10013"]}, "phone": "+16464769498", "display_phone": "(646) 476-9498", "distance": 4635.172316895964}, {"id": "nSk_zCJESMKGLHyJTPPlZA", "alias": "bottino-new-york", "name": "Bottino", "image_url": "https://s3-media4.fl.yelpcdn.com/bphoto/eEA4iBov7Q6juRKDiUoJrQ/o.jpg", "is_closed": false, "url": "https://www.yelp.com/biz/bottino-new-york?adjust_creative=9gNmiWYX8uTbFBeTTvJMdA&utm_campaign=yelp_api_v3&utm_medium=api_v3_business_search&utm_source=9gNmiWYX8uTbFBeTTvJMdA", "review_count": 387, "categories": [{"alias": "italian", "title": "Italian"}], "rating": 4.0, "coordinates": {"latitude": 40.74848569625031, "longitude": -74.00331301292165}, "transactions": ["delivery", "pickup"], "price": "$$", "location": {"address1": "246 10th Ave", "address2": "", "address3": "", "city": "New York", "zip_code": "10001", "country": "US", "state": "NY", "display_address": ["246 10th Ave", "New York, NY 10001"]}, "phone": "+12122066766", "display_phone": "(212) 206-6766", "distance": 3080.454137098246}, {"id": "kLJfizeHMQqesp1K9mfUtg", "alias": "via-quadronno-new-york", "name": "Via Quadronno", "image_url": "https://s3-media4.fl.yelpcdn.com/bphoto/snxeBbk3nLg67D85usWn9w/o.jpg", "is_closed": false, "url": "https://www.yelp.com/biz/via-quadronno-new-york?adjust_creative=9gNmiWYX8uTbFBeTTvJMdA&utm_campaign=yelp_api_v3&utm_medium=api_v3_business_search&utm_source=9gNmiWYX8uTbFBeTTvJMdA", "review_count": 607, "categories": [{"alias": "sandwiches", "title": "Sandwiches"}, {"alias": "italian", "title": "Italian"}], "rating": 4.0, "coordinates": {"latitude": 40.77277, "longitude": -73.96514}, "transactions": ["delivery", "pickup"], "price": "$$", "location": {"address1": "25 E 73rd St", "address2": null, "address3": "", "city": "New York", "zip_code": "10021", "country": "US", "state": "NY", "display_address": ["25 E 73rd St", "New York, NY 10021"]}, "phone": "+12126509880", "display_phone": "(212) 650-9880", "distance": 1557.1839417691785}, {"id": "J38XGzriEkMsDfCMt6et_g", "alias": "vezzo-nycthincrust-pizza-new-york-2", "name": "VEZZO NYCThinCrust Pizza", "image_url": "https://s3-media2.fl.yelpcdn.com/bphoto/UaxaZPmEk5diurSZpu2mzw/o.jpg", "is_closed": false, "url": "https://www.yelp.com/biz/vezzo-nycthincrust-pizza-new-york-2?adjust_creative=9gNmiWYX8uTbFBeTTvJMdA&utm_campaign=yelp_api_v3&utm_medium=api_v3_business_search&utm_source=9gNmiWYX8uTbFBeTTvJMdA", "review_count": 1385, "categories": [{"alias": "pizza", "title": "Pizza"}, {"alias": "italian", "title": "Italian"}, {"alias": "sandwiches", "title": "Sandwiches"}], "rating": 4.0, "coordinates": {"latitude": 40.744435447210506, "longitude": -73.9814189}, "transactions": ["delivery", "pickup"], "price": "$$", "location": {"address1": "178 Lexington Ave", "address2": null, "address3": "", "city": "New York", "zip_code": "10016", "country": "US", "state": "NY", "display_address": ["178 Lexington Ave", "New York, NY 10016"]}, "phone": "+12128398300", "display_phone": "(212) 839-8300", "distance": 1918.751667516298}, {"id": "s5nPO911cYB2chdwqSqT9g", "alias": "la-nonna-ristorante-and-bar-brooklyn", "name": "La Nonna Ristorante & Bar", "image_url": "https://s3-media4.fl.yelpcdn.com/bphoto/n3p5ObmiOBDK11PICT05uw/o.jpg", "is_closed": false, "url": "https://www.yelp.com/biz/la-nonna-ristorante-and-bar-brooklyn?adjust_creative=9gNmiWYX8uTbFBeTTvJMdA&utm_campaign=yelp_api_v3&utm_medium=api_v3_business_search&utm_source=9gNmiWYX8uTbFBeTTvJMdA", "review_count": 409, "categories": [{"alias": "italian", "title": "Italian"}, {"alias": "bars", "title": "Bars"}], "rating": 4.0, "coordinates": {"latitude": 40.71848683628801, "longitude": -73.96404187764361}, "transactions": ["restaurant_reservation", "delivery", "pickup"], "price": "$$", "location": {"address1": "184 Kent Ave", "address2": "", "address3": "", "city": "Brooklyn", "zip_code": "11249", "country": "US", "state": "NY", "display_address": ["184 Kent Ave", "Brooklyn, NY 11249"]}, "phone": "+17183021100", "display_phone": "(718) 302-1100", "distance": 4548.224266559036}, {"id": "CFR-HzVHKWRMpMAR3LAhzg", "alias": "montesacro-pinseria-brooklyn-brooklyn", "name": "Montesacro Pinseria Brooklyn", "image_url": "https://s3-media4.fl.yelpcdn.com/bphoto/8ZR7ZKxf_RaZyuwMv5VD8g/o.jpg", "is_closed": false, "url": "https://www.yelp.com/biz/montesacro-pinseria-brooklyn-brooklyn?adjust_creative=9gNmiWYX8uTbFBeTTvJMdA&utm_campaign=yelp_api_v3&utm_medium=api_v3_business_search&utm_source=9gNmiWYX8uTbFBeTTvJMdA", "review_count": 228, "categories": [{"alias": "italian", "title": "Italian"}, {"alias": "pizza", "title": "Pizza"}, {"alias": "bars", "title": "Bars"}], "rating": 4.5, "coordinates": {"latitude": 40.71338, "longitude": -73.95136}, "transactions": ["delivery", "pickup"], "price": "$$", "location": {"address1": "432 Union Ave", "address2": null, "address3": "", "city": "Brooklyn", "zip_code": "11211", "country": "US", "state": "NY", "display_address": ["432 Union Ave", "Brooklyn, NY 11211"]}, "phone": "+13479161062", "display_phone": "(347) 916-1062", "distance": 5319.146972031872}, {"id": "v1M1HIQBVwYatEF_iOmedw", "alias": "viceversa-new-york", "name": "ViceVersa", "image_url": "https://s3-media1.fl.yelpcdn.com/bphoto/ThXjCN_CIER8iNN72O9HhA/o.jpg", "is_closed": false, "url": "https://www.yelp.com/biz/viceversa-new-york?adjust_creative=9gNmiWYX8uTbFBeTTvJMdA&utm_campaign=yelp_api_v3&utm_medium=api_v3_business_search&utm_source=9gNmiWYX8uTbFBeTTvJMdA", "review_count": 293, "categories": [{"alias": "italian", "title": "Italian"}], "rating": 4.0, "coordinates": {"latitude": 40.7635858415079, "longitude": -73.9866799425418}, "transactions": ["delivery", "pickup"], "price": "$$", "location": {"address1": "325 W 51st St", "address2": "", "address3": "", "city": "New York", "zip_code": "10019", "country": "US", "state": "NY", "display_address": ["325 W 51st St", "New York, NY 10019"]}, "phone": "+12123999291", "display_phone": "(212) 399-9291", "distance": 1521.9203980568768}, {"id": "4WDHrSodF1Xidv9ezS6Sgg", "alias": "tuscany-steakhouse-new-york", "name": "Tuscany Steakhouse", "image_url": "https://s3-media4.fl.yelpcdn.com/bphoto/-ntrLHjqTqc7-M-7YNsOoQ/o.jpg", "is_closed": false, "url": "https://www.yelp.com/biz/tuscany-steakhouse-new-york?adjust_creative=9gNmiWYX8uTbFBeTTvJMdA&utm_campaign=yelp_api_v3&utm_medium=api_v3_business_search&utm_source=9gNmiWYX8uTbFBeTTvJMdA", "review_count": 204, "categories": [{"alias": "steak", "title": "Steakhouses"}, {"alias": "italian", "title": "Italian"}, {"alias": "seafood", "title": "Seafood"}], "rating": 4.5, "coordinates": {"latitude": 40.76546, "longitude": -73.97724}, "transactions": ["restaurant_reservation", "delivery", "pickup"], "price": "$$$", "location": {"address1": "117 W 58th St", "address2": null, "address3": "", "city": "New York", "zip_code": "10019", "country": "US", "state": "NY", "display_address": ["117 W 58th St", "New York, NY 10019"]}, "phone": "+12127578630", "display_phone": "(212) 757-8630", "distance": 957.1396303729564}, {"id": "4bHtiA1md69LDag55kv8lg", "alias": "isabelles-osteria-new-york-2", "name": "Isabelle's Osteria", "image_url": "https://s3-media2.fl.yelpcdn.com/bphoto/-nhW1UTW05kmMAPn6IAMfg/o.jpg", "is_closed": false, "url": "https://www.yelp.com/biz/isabelles-osteria-new-york-2?adjust_creative=9gNmiWYX8uTbFBeTTvJMdA&utm_campaign=yelp_api_v3&utm_medium=api_v3_business_search&utm_source=9gNmiWYX8uTbFBeTTvJMdA", "review_count": 157, "categories": [{"alias": "italian", "title": "Italian"}, {"alias": "mediterranean", "title": "Mediterranean"}], "rating": 4.0, "coordinates": {"latitude": 40.737985, "longitude": -73.987703}, "transactions": ["delivery", "pickup"], "location": {"address1": "245 Park Ave S", "address2": null, "address3": null, "city": "New York", "zip_code": "10003", "country": "US", "state": "NY", "display_address": ["245 Park Ave S", "New York, NY 10003"]}, "phone": "+12123881145", "display_phone": "(212) 388-1145", "distance": 2807.671938038932}, {"id": "ZIlCi38S2pcWuHlpMxvG7w", "alias": "montebello-ristorante-italiano-new-york", "name": "Montebello Ristorante Italiano", "image_url": "https://s3-media2.fl.yelpcdn.com/bphoto/mNG0j7cV98_Sw3HpdKB_2g/o.jpg", "is_closed": false, "url": "https://www.yelp.com/biz/montebello-ristorante-italiano-new-york?adjust_creative=9gNmiWYX8uTbFBeTTvJMdA&utm_campaign=yelp_api_v3&utm_medium=api_v3_business_search&utm_source=9gNmiWYX8uTbFBeTTvJMdA", "review_count": 97, "categories": [{"alias": "italian", "title": "Italian"}, {"alias": "bars", "title": "Bars"}], "rating": 3.5, "coordinates": {"latitude": 40.760504, "longitude": -73.970625}, "transactions": ["delivery", "pickup"], "price": "$$$", "location": {"address1": "120 E 56th St", "address2": "", "address3": "", "city": "New York", "zip_code": "10022", "country": "US", "state": "NY", "display_address": ["120 E 56th St", "New York, NY 10022"]}, "phone": "+12127531447", "display_phone": "(212) 753-1447", "distance": 172.290975930088}, {"id": "2MuvmwOuwvGOWkBimhniLA", "alias": "la-bellezza-new-york", "name": "La Bellezza", "image_url": "https://s3-media2.fl.yelpcdn.com/bphoto/75SVEMwv8WbLIB4eYzPdLA/o.jpg", "is_closed": false, "url": "https://www.yelp.com/biz/la-bellezza-new-york?adjust_creative=9gNmiWYX8uTbFBeTTvJMdA&utm_campaign=yelp_api_v3&utm_medium=api_v3_business_search&utm_source=9gNmiWYX8uTbFBeTTvJMdA", "review_count": 294, "categories": [{"alias": "pizza", "title": "Pizza"}], "rating": 4.0, "coordinates": {"latitude": 40.7557792663574, "longitude": -73.9720153808594}, "transactions": ["delivery", "pickup"], "price": "$", "location": {"address1": "145 E 49th St", "address2": "", "address3": "", "city": "New York", "zip_code": "10017", "country": "US", "state": "NY", "display_address": ["145 E 49th St", "New York, NY 10017"]}, "phone": "+12128713223", "display_phone": "(212) 871-3223", "distance": 426.901060768092}, {"id": "YmUKLOG4sTAShvyURuq2zw", "alias": "trattoria-bianca-new-york-3", "name": "Trattoria Bianca", "image_url": "https://s3-media1.fl.yelpcdn.com/bphoto/Gsc6R65Rg3muihUyR9YVSw/o.jpg", "is_closed": false, "url": "https://www.yelp.com/biz/trattoria-bianca-new-york-3?adjust_creative=9gNmiWYX8uTbFBeTTvJMdA&utm_campaign=yelp_api_v3&utm_medium=api_v3_business_search&utm_source=9gNmiWYX8uTbFBeTTvJMdA", "review_count": 166, "categories": [{"alias": "italian", "title": "Italian"}], "rating": 3.5, "coordinates": {"latitude": 40.752702, "longitude": -73.993694}, "transactions": ["delivery", "pickup"], "price": "$$", "location": {"address1": "481 8th Ave", "address2": "", "address3": "", "city": "New York", "zip_code": "10001", "country": "US", "state": "NY", "display_address": ["481 8th Ave", "New York, NY 10001"]}, "phone": "+12122688460", "display_phone": "(212) 268-8460", "distance": 2146.339126111541}, {"id": "cyLw0vW5MrsF35-A6Dy03w", "alias": "saggio-new-york-2", "name": "Saggio", "image_url": "https://s3-media2.fl.yelpcdn.com/bphoto/hv2ieOgWhJQeAprDwcMKQw/o.jpg", "is_closed": false, "url": "https://www.yelp.com/biz/saggio-new-york-2?adjust_creative=9gNmiWYX8uTbFBeTTvJMdA&utm_campaign=yelp_api_v3&utm_medium=api_v3_business_search&utm_source=9gNmiWYX8uTbFBeTTvJMdA", "review_count": 677, "categories": [{"alias": "italian", "title": "Italian"}], "rating": 4.0, "coordinates": {"latitude": 40.8514099281625, "longitude": -73.9395604556239}, "transactions": ["delivery", "pickup"], "price": "$$", "location": {"address1": "829 W 181st St", "address2": "", "address3": "", "city": "New York", "zip_code": "10033", "country": "US", "state": "NY", "display_address": ["829 W 181st St", "New York, NY 10033"]}, "phone": "+12127953080", "display_phone": "(212) 795-3080", "distance": 10562.602532506047}, {"id": "-vBfKWJ1v9YdJQT5XUbcBQ", "alias": "le-botaniste-new-york", "name": "Le Botaniste", "image_url": "https://s3-media2.fl.yelpcdn.com/bphoto/mG_LIOy39RWq4Uy1ZHdXqg/o.jpg", "is_closed": false, "url": "https://www.yelp.com/biz/le-botaniste-new-york?adjust_creative=9gNmiWYX8uTbFBeTTvJMdA&utm_campaign=yelp_api_v3&utm_medium=api_v3_business_search&utm_source=9gNmiWYX8uTbFBeTTvJMdA", "review_count": 455, "categories": [{"alias": "wine_bars", "title": "Wine Bars"}, {"alias": "organic_stores", "title": "Organic Stores"}], "rating": 4.5, "coordinates": {"latitude": 40.7649986274526, "longitude": -73.9659830279587}, "transactions": ["delivery", "pickup"], "price": "$$", "location": {"address1": "833 Lexington Ave", "address2": "", "address3": "", "city": "New York", "zip_code": "10065", "country": "US", "state": "NY", "display_address": ["833 Lexington Ave", "New York, NY 10065"]}, "phone": "+19172620766", "display_phone": "(917) 262-0766", "distance": 714.7310130700531}, {"id": "HV8xairb2qct7wSHqNwqXw", "alias": "levante-long-island-city", "name": "Levante", "image_url": "https://s3-media4.fl.yelpcdn.com/bphoto/684bF9EC12x0Yy9JjmGXqw/o.jpg", "is_closed": false, "url": "https://www.yelp.com/biz/levante-long-island-city?adjust_creative=9gNmiWYX8uTbFBeTTvJMdA&utm_campaign=yelp_api_v3&utm_medium=api_v3_business_search&utm_source=9gNmiWYX8uTbFBeTTvJMdA", "review_count": 326, "categories": [{"alias": "pizza", "title": "Pizza"}, {"alias": "bars", "title": "Bars"}, {"alias": "italian", "title": "Italian"}], "rating": 4.0, "coordinates": {"latitude": 40.74764, "longitude": -73.94173}, "transactions": ["delivery", "pickup"], "price": "$$", "location": {"address1": "26-21 Jackson Ave", "address2": "", "address3": null, "city": "Long Island City", "zip_code": "11101", "country": "US", "state": "NY", "display_address": ["26-21 Jackson Ave", "Long Island City, NY 11101"]}, "phone": "+17183923885", "display_phone": "(718) 392-3885", "distance": 2674.4238228770228}, {"id": "X8Hl9OezX-Yr9Jir3fsF7g", "alias": "posto-nycthincrust-pizza-new-york", "name": "POSTO NYCThinCrust Pizza", "image_url": "https://s3-media3.fl.yelpcdn.com/bphoto/rgBNi6hg-8jy5E-vj8lt2Q/o.jpg", "is_closed": false, "url": "https://www.yelp.com/biz/posto-nycthincrust-pizza-new-york?adjust_creative=9gNmiWYX8uTbFBeTTvJMdA&utm_campaign=yelp_api_v3&utm_medium=api_v3_business_search&utm_source=9gNmiWYX8uTbFBeTTvJMdA", "review_count": 660, "categories": [{"alias": "pizza", "title": "Pizza"}, {"alias": "italian", "title": "Italian"}, {"alias": "wine_bars", "title": "Wine Bars"}], "rating": 4.0, "coordinates": {"latitude": 40.73483, "longitude": -73.98282}, "transactions": ["delivery", "pickup"], "price": "$$", "location": {"address1": "310 2nd Ave", "address2": null, "address3": "", "city": "New York", "zip_code": "10003", "country": "US", "state": "NY", "display_address": ["310 2nd Ave", "New York, NY 10003"]}, "phone": "+12127161200", "display_phone": "(212) 716-1200", "distance": 2927.992846902458}, {"id": "U91Lj5NUG42zweY_LKjKbQ", "alias": "fasano-restaurant-new-york-new-york", "name": "Fasano Restaurant New York", "image_url": "https://s3-media2.fl.yelpcdn.com/bphoto/im8mx9zBZlOBCLibvGJiBg/o.jpg", "is_closed": false, "url": "https://www.yelp.com/biz/fasano-restaurant-new-york-new-york?adjust_creative=9gNmiWYX8uTbFBeTTvJMdA&utm_campaign=yelp_api_v3&utm_medium=api_v3_business_search&utm_source=9gNmiWYX8uTbFBeTTvJMdA", "review_count": 18, "categories": [{"alias": "italian", "title": "Italian"}, {"alias": "cocktailbars", "title": "Cocktail Bars"}, {"alias": "coffee", "title": "Coffee & Tea"}], "rating": 4.0, "coordinates": {"latitude": 40.75675458251292, "longitude": -73.9755649}, "transactions": [], "location": {"address1": "280 Park Ave Entrance On 49th St", "address2": "", "address3": null, "city": "New York", "zip_code": "10017", "country": "US", "state": "NY", "display_address": ["280 Park Ave Entrance On 49th St", "New York, NY 10017"]}, "phone": "+16468695400", "display_phone": "(646) 869-5400", "distance": 571.8720260486781}, {"id": "bEXTA_Gwo2oVg4gnFd9fNA", "alias": "ai-fiori-new-york", "name": "Ai Fiori", "image_url": "https://s3-media3.fl.yelpcdn.com/bphoto/1UdIOOfNsa-FPb9FXKuAxA/o.jpg", "is_closed": false, "url": "https://www.yelp.com/biz/ai-fiori-new-york?adjust_creative=9gNmiWYX8uTbFBeTTvJMdA&utm_campaign=yelp_api_v3&utm_medium=api_v3_business_search&utm_source=9gNmiWYX8uTbFBeTTvJMdA", "review_count": 1451, "categories": [{"alias": "italian", "title": "Italian"}, {"alias": "french", "title": "French"}, {"alias": "cocktailbars", "title": "Cocktail Bars"}], "rating": 4.0, "coordinates": {"latitude": 40.7500752, "longitude": -73.9837835}, "transactions": [], "price": "$$$$", "location": {"address1": "400 5th Ave", "address2": "Ste 2", "address3": "", "city": "New York", "zip_code": "10018", "country": "US", "state": "NY", "display_address": ["400 5th Ave", "Ste 2", "New York, NY 10018"]}, "phone": "+12126138660", "display_phone": "(212) 613-8660", "distance": 1567.2643995841395}, {"id": "gAMETn5mltwjn2QLt6bWjw", "alias": "isabella-new-york-2", "name": "Isabella", "image_url": "https://s3-media1.fl.yelpcdn.com/bphoto/2CR_tByfPNcgxwLoEnKang/o.jpg", "is_closed": false, "url": "https://www.yelp.com/biz/isabella-new-york-2?adjust_creative=9gNmiWYX8uTbFBeTTvJMdA&utm_campaign=yelp_api_v3&utm_medium=api_v3_business_search&utm_source=9gNmiWYX8uTbFBeTTvJMdA", "review_count": 14, "categories": [{"alias": "italian", "title": "Italian"}, {"alias": "pizza", "title": "Pizza"}], "rating": 5.0, "coordinates": {"latitude": 40.726966, "longitude": -73.984334}, "transactions": ["delivery", "pickup"], "location": {"address1": "110 St Marks Pl", "address2": null, "address3": "", "city": "New York", "zip_code": "10009", "country": "US", "state": "NY", "display_address": ["110 St Marks Pl", "New York, NY 10009"]}, "phone": "+16466783206", "display_phone": "(646) 678-3206", "distance": 3798.076295371955}, {"id": "YFvF4r2D-wJOgJAOvanaZQ", "alias": "gnoccheria-by-luzzos-new-york", "name": "Gnoccheria By Luzzo's", "image_url": "https://s3-media2.fl.yelpcdn.com/bphoto/czqK6BtyIrUIl60H6p11hQ/o.jpg", "is_closed": false, "url": "https://www.yelp.com/biz/gnoccheria-by-luzzos-new-york?adjust_creative=9gNmiWYX8uTbFBeTTvJMdA&utm_campaign=yelp_api_v3&utm_medium=api_v3_business_search&utm_source=9gNmiWYX8uTbFBeTTvJMdA", "review_count": 512, "categories": [{"alias": "italian", "title": "Italian"}, {"alias": "wine_bars", "title": "Wine Bars"}], "rating": 4.0, "coordinates": {"latitude": 40.723315, "longitude": -73.983139}, "transactions": ["delivery", "pickup"], "price": "$$", "location": {"address1": "234 E 4th St", "address2": "", "address3": "", "city": "New York", "zip_code": "10009", "country": "US", "state": "NY", "display_address": ["234 E 4th St", "New York, NY 10009"]}, "phone": "+12122543638", "display_phone": "(212) 254-3638", "distance": 4147.954412552764}, {"id": "clOFor0bFSjse7EUfdRacg", "alias": "faro-brooklyn", "name": "Faro", "image_url": "https://s3-media3.fl.yelpcdn.com/bphoto/BrquhlTVxUBSLZVcmijrkw/o.jpg", "is_closed": false, "url": "https://www.yelp.com/biz/faro-brooklyn?adjust_creative=9gNmiWYX8uTbFBeTTvJMdA&utm_campaign=yelp_api_v3&utm_medium=api_v3_business_search&utm_source=9gNmiWYX8uTbFBeTTvJMdA", "review_count": 326, "categories": [{"alias": "pastashops", "title": "Pasta Shops"}], "rating": 4.0, "coordinates": {"latitude": 40.707407, "longitude": -73.922839}, "transactions": ["delivery", "pickup"], "price": "$$$", "location": {"address1": "436 Jefferson St", "address2": "", "address3": "", "city": "Brooklyn", "zip_code": "11237", "country": "US", "state": "NY", "display_address": ["436 Jefferson St", "Brooklyn, NY 11237"]}, "phone": "+17183818201", "display_phone": "(718) 381-8201", "distance": 6974.578114763673}, {"id": "l7Z0p-PkSwIDPLPY1TRl8A", "alias": "emilios-ballato-new-york", "name": "Emilio's Ballato", "image_url": "https://s3-media2.fl.yelpcdn.com/bphoto/MsoYj6sZi8ZI_7xv4UGQxQ/o.jpg", "is_closed": false, "url": "https://www.yelp.com/biz/emilios-ballato-new-york?adjust_creative=9gNmiWYX8uTbFBeTTvJMdA&utm_campaign=yelp_api_v3&utm_medium=api_v3_business_search&utm_source=9gNmiWYX8uTbFBeTTvJMdA", "review_count": 481, "categories": [{"alias": "italian", "title": "Italian"}], "rating": 4.0, "coordinates": {"latitude": 40.7244923, "longitude": -73.9944022}, "transactions": ["delivery"], "price": "$$$", "location": {"address1": "55 E Houston St", "address2": "", "address3": "", "city": "New York", "zip_code": "10012", "country": "US", "state": "NY", "display_address": ["55 E Houston St", "New York, NY 10012"]}, "phone": "+12122748881", "display_phone": "(212) 274-8881", "distance": 4387.243666640194}, {"id": "ZVa3-O6LMxZXSpKG0J1h-w", "alias": "piccolo-angolo-restaurant-new-york", "name": "Piccolo Angolo Restaurant", "image_url": "https://s3-media4.fl.yelpcdn.com/bphoto/q536opZ7gIL0oLxztUd2Gw/o.jpg", "is_closed": false, "url": "https://www.yelp.com/biz/piccolo-angolo-restaurant-new-york?adjust_creative=9gNmiWYX8uTbFBeTTvJMdA&utm_campaign=yelp_api_v3&utm_medium=api_v3_business_search&utm_source=9gNmiWYX8uTbFBeTTvJMdA", "review_count": 607, "categories": [{"alias": "italian", "title": "Italian"}], "rating": 4.0, "coordinates": {"latitude": 40.7378601855952, "longitude": -74.0058052539825}, "transactions": ["delivery", "pickup"], "price": "$$", "location": {"address1": "621 Hudson St", "address2": "", "address3": "", "city": "New York", "zip_code": "10014", "country": "US", "state": "NY", "display_address": ["621 Hudson St", "New York, NY 10014"]}, "phone": "+12122299177", "display_phone": "(212) 229-9177", "distance": 3864.2558293831607}, {"id": "b42PcC1nCP602fiXF0a9Xg", "alias": "barbalu-restaurant-new-york", "name": "Barbalu Restaurant", "image_url": "https://s3-media3.fl.yelpcdn.com/bphoto/mvnFFktZ84f6RPYblshm4g/o.jpg", "is_closed": false, "url": "https://www.yelp.com/biz/barbalu-restaurant-new-york?adjust_creative=9gNmiWYX8uTbFBeTTvJMdA&utm_campaign=yelp_api_v3&utm_medium=api_v3_business_search&utm_source=9gNmiWYX8uTbFBeTTvJMdA", "review_count": 338, "categories": [{"alias": "italian", "title": "Italian"}, {"alias": "cocktailbars", "title": "Cocktail Bars"}, {"alias": "fooddeliveryservices", "title": "Food Delivery Services"}], "rating": 4.0, "coordinates": {"latitude": 40.7074747, "longitude": -74.0020404}, "transactions": ["delivery", "pickup"], "price": "$$", "location": {"address1": "225-227 Front St", "address2": "", "address3": "", "city": "New York", "zip_code": "10038", "country": "US", "state": "NY", "display_address": ["225-227 Front St", "New York, NY 10038"]}, "phone": "+16469186565", "display_phone": "(646) 918-6565", "distance": 6366.452547921689}, {"id": "0Tvwk0hvgaY0QVIsZGTZKQ", "alias": "antica-ristorante-new-york", "name": "Antica Ristorante", "image_url": "https://s3-media4.fl.yelpcdn.com/bphoto/dpafX6Y8gKwE1MR2WJDpsw/o.jpg", "is_closed": false, "url": "https://www.yelp.com/biz/antica-ristorante-new-york?adjust_creative=9gNmiWYX8uTbFBeTTvJMdA&utm_campaign=yelp_api_v3&utm_medium=api_v3_business_search&utm_source=9gNmiWYX8uTbFBeTTvJMdA", "review_count": 545, "categories": [{"alias": "italian", "title": "Italian"}], "rating": 4.5, "coordinates": {"latitude": 40.7039355145338, "longitude": -74.0121731758117}, "transactions": ["restaurant_reservation", "delivery", "pickup"], "price": "$$$", "location": {"address1": "8 Stone St", "address2": "", "address3": "", "city": "New York", "zip_code": "10004", "country": "US", "state": "NY", "display_address": ["8 Stone St", "New York, NY 10004"]}, "phone": "+12124803880", "display_phone": "(212) 480-3880", "distance": 7114.213637673929}, {"id": "3uyBZNbDk2vRFBBWZOdIUA", "alias": "dominicks-restaurant-bronx", "name": "Dominick's Restaurant", "image_url": "https://s3-media2.fl.yelpcdn.com/bphoto/eOPOtCPNZiA4QyDRGsYdMQ/o.jpg", "is_closed": false, "url": "https://www.yelp.com/biz/dominicks-restaurant-bronx?adjust_creative=9gNmiWYX8uTbFBeTTvJMdA&utm_campaign=yelp_api_v3&utm_medium=api_v3_business_search&utm_source=9gNmiWYX8uTbFBeTTvJMdA", "review_count": 413, "categories": [{"alias": "italian", "title": "Italian"}], "rating": 4.0, "coordinates": {"latitude": 40.85434, "longitude": -73.889}, "transactions": [], "price": "$$", "location": {"address1": "2335 Arthur Ave", "address2": "", "address3": "", "city": "Bronx", "zip_code": "10458", "country": "US", "state": "NY", "display_address": ["2335 Arthur Ave", "Bronx, NY 10458"]}, "phone": "+17187332807", "display_phone": "(718) 733-2807", "distance": 12570.556347334927}, {"id": "DtnlLLvcqeEUIyZTypHnzw", "alias": "il-mulino-new-york-downtown-new-york-2", "name": "Il Mulino New York - Downtown", "image_url": "https://s3-media3.fl.yelpcdn.com/bphoto/jj-mGg_SXi6ofH01acFpFw/o.jpg", "is_closed": false, "url": "https://www.yelp.com/biz/il-mulino-new-york-downtown-new-york-2?adjust_creative=9gNmiWYX8uTbFBeTTvJMdA&utm_campaign=yelp_api_v3&utm_medium=api_v3_business_search&utm_source=9gNmiWYX8uTbFBeTTvJMdA", "review_count": 617, "categories": [{"alias": "italian", "title": "Italian"}], "rating": 4.0, "coordinates": {"latitude": 40.729807, "longitude": -73.999159}, "transactions": ["delivery", "pickup"], "price": "$$$", "location": {"address1": "86 W 3rd St", "address2": "", "address3": "", "city": "New York", "zip_code": "10012", "country": "US", "state": "NY", "display_address": ["86 W 3rd St", "New York, NY 10012"]}, "phone": "+12126733783", "display_phone": "(212) 673-3783", "distance": 4107.995773271035}, {"id": "WIhm0W9197f_rRtDziq5qQ", "alias": "lombardis-pizza-new-york-4", "name": "Lombardi's Pizza", "image_url": "https://s3-media1.fl.yelpcdn.com/bphoto/ihrIxJAXefvyHB4-Z25WNw/o.jpg", "is_closed": false, "url": "https://www.yelp.com/biz/lombardis-pizza-new-york-4?adjust_creative=9gNmiWYX8uTbFBeTTvJMdA&utm_campaign=yelp_api_v3&utm_medium=api_v3_business_search&utm_source=9gNmiWYX8uTbFBeTTvJMdA", "review_count": 6534, "categories": [{"alias": "pizza", "title": "Pizza"}], "rating": 4.0, "coordinates": {"latitude": 40.7215934960083, "longitude": -73.9955956044561}, "transactions": ["delivery", "pickup"], "price": "$$", "location": {"address1": "32 Spring St", "address2": "", "address3": "", "city": "New York", "zip_code": "10012", "country": "US", "state": "NY", "display_address": ["32 Spring St", "New York, NY 10012"]}, "phone": "+12129417994", "display_phone": "(212) 941-7994", "distance": 4718.99145813924}, {"id": "OkfqS1xsv26xa7siRZZqbw", "alias": "gabriels-bar-and-restaurant-new-york-3", "name": "Gabriels Bar and Restaurant", "image_url": "https://s3-media2.fl.yelpcdn.com/bphoto/4VIwM5eV6hLy0Cyuzzp-cA/o.jpg", "is_closed": false, "url": "https://www.yelp.com/biz/gabriels-bar-and-restaurant-new-york-3?adjust_creative=9gNmiWYX8uTbFBeTTvJMdA&utm_campaign=yelp_api_v3&utm_medium=api_v3_business_search&utm_source=9gNmiWYX8uTbFBeTTvJMdA", "review_count": 33, "categories": [{"alias": "bars", "title": "Bars"}, {"alias": "italian", "title": "Italian"}], "rating": 4.0, "coordinates": {"latitude": 40.76523, "longitude": -73.97557}, "transactions": ["delivery", "pickup"], "location": {"address1": "40 Central Park S", "address2": "", "address3": null, "city": "New York", "zip_code": "10019", "country": "US", "state": "NY", "display_address": ["40 Central Park S", "New York, NY 10019"]}, "phone": "+12129564600", "display_phone": "(212) 956-4600", "distance": 840.1458388851252}, {"id": "5EQOEAkH2Qh3Rv1TcnE7yA", "alias": "fiaschetteria-pistoia-new-york-2", "name": "Fiaschetteria Pistoia", "image_url": "https://s3-media4.fl.yelpcdn.com/bphoto/J7DZeireWwY3X6_p89Y8UA/o.jpg", "is_closed": false, "url": "https://www.yelp.com/biz/fiaschetteria-pistoia-new-york-2?adjust_creative=9gNmiWYX8uTbFBeTTvJMdA&utm_campaign=yelp_api_v3&utm_medium=api_v3_business_search&utm_source=9gNmiWYX8uTbFBeTTvJMdA", "review_count": 116, "categories": [{"alias": "tuscan", "title": "Tuscan"}, {"alias": "pastashops", "title": "Pasta Shops"}], "rating": 4.0, "coordinates": {"latitude": 40.73316, "longitude": -74.00537}, "transactions": ["delivery", "pickup"], "location": {"address1": "114 Christopher St", "address2": "", "address3": null, "city": "New York", "zip_code": "10014", "country": "US", "state": "NY", "display_address": ["114 Christopher St", "New York, NY 10014"]}, "phone": "+16466092911", "display_phone": "(646) 609-2911", "distance": 4178.65510435927}, {"id": "gU6_qALmeWysg2YXMzMrtw", "alias": "serafina-fabulous-pizza-new-york-2", "name": "Serafina Fabulous Pizza", "image_url": "https://s3-media4.fl.yelpcdn.com/bphoto/gVAn4BGN3X_Ey1cVCVXX7A/o.jpg", "is_closed": false, "url": "https://www.yelp.com/biz/serafina-fabulous-pizza-new-york-2?adjust_creative=9gNmiWYX8uTbFBeTTvJMdA&utm_campaign=yelp_api_v3&utm_medium=api_v3_business_search&utm_source=9gNmiWYX8uTbFBeTTvJMdA", "review_count": 407, "categories": [{"alias": "italian", "title": "Italian"}, {"alias": "pizza", "title": "Pizza"}, {"alias": "desserts", "title": "Desserts"}], "rating": 3.0, "coordinates": {"latitude": 40.7762350782493, "longitude": -73.9623423504256}, "transactions": ["delivery", "pickup"], "price": "$$", "location": {"address1": "1022 Madison Ave", "address2": "", "address3": "", "city": "New York", "zip_code": "10075", "country": "US", "state": "NY", "display_address": ["1022 Madison Ave", "New York, NY 10075"]}, "phone": "+12127342676", "display_phone": "(212) 734-2676", "distance": 1992.3845371799778}, {"id": "f8TZ_ctcSwxwW8S69YKnwg", "alias": "il-bambino-astoria", "name": "Il Bambino", "image_url": "https://s3-media3.fl.yelpcdn.com/bphoto/ciZB3RuiM95WjjsYfsIhRQ/o.jpg", "is_closed": false, "url": "https://www.yelp.com/biz/il-bambino-astoria?adjust_creative=9gNmiWYX8uTbFBeTTvJMdA&utm_campaign=yelp_api_v3&utm_medium=api_v3_business_search&utm_source=9gNmiWYX8uTbFBeTTvJMdA", "review_count": 1306, "categories": [{"alias": "italian", "title": "Italian"}, {"alias": "sandwiches", "title": "Sandwiches"}, {"alias": "tapas", "title": "Tapas Bars"}], "rating": 4.5, "coordinates": {"latitude": 40.76281, "longitude": -73.92089}, "transactions": ["delivery", "pickup"], "price": "$$", "location": {"address1": "34-08 31st Ave", "address2": "", "address3": "", "city": "Astoria", "zip_code": "11106", "country": "US", "state": "NY", "display_address": ["34-08 31st Ave", "Astoria, NY 11106"]}, "phone": "+17186260087", "display_phone": "(718) 626-0087", "distance": 4122.485787992725}, {"id": "IOHaEgK1zDvUvB3SfKuGCw", "alias": "parker-and-quinn-new-york", "name": "Parker & Quinn", "image_url": "https://s3-media4.fl.yelpcdn.com/bphoto/6xuN0yyAi9PaxSAVVAgfrg/o.jpg", "is_closed": false, "url": "https://www.yelp.com/biz/parker-and-quinn-new-york?adjust_creative=9gNmiWYX8uTbFBeTTvJMdA&utm_campaign=yelp_api_v3&utm_medium=api_v3_business_search&utm_source=9gNmiWYX8uTbFBeTTvJMdA", "review_count": 1594, "categories": [{"alias": "newamerican", "title": "American (New)"}, {"alias": "bars", "title": "Bars"}, {"alias": "breakfast_brunch", "title": "Breakfast & Brunch"}], "rating": 4.0, "coordinates": {"latitude": 40.752586217581296, "longitude": -73.9850713153442}, "transactions": ["delivery", "pickup"], "price": "$$", "location": {"address1": "64 W 39th St", "address2": "", "address3": "", "city": "New York", "zip_code": "10018", "country": "US", "state": "NY", "display_address": ["64 W 39th St", "New York, NY 10018"]}, "phone": "+12127290277", "display_phone": "(212) 729-0277", "distance": 1496.86998970733}, {"id": "WYhRkUATHRyXZrE55MArbA", "alias": "scalini-fedeli-new-york", "name": "Scalini Fedeli", "image_url": "https://s3-media3.fl.yelpcdn.com/bphoto/WxrAnaPADiHlAQZfDrAYfg/o.jpg", "is_closed": false, "url": "https://www.yelp.com/biz/scalini-fedeli-new-york?adjust_creative=9gNmiWYX8uTbFBeTTvJMdA&utm_campaign=yelp_api_v3&utm_medium=api_v3_business_search&utm_source=9gNmiWYX8uTbFBeTTvJMdA", "review_count": 351, "categories": [{"alias": "italian", "title": "Italian"}], "rating": 4.5, "coordinates": {"latitude": 40.71741473500126, "longitude": -74.00943235989747}, "transactions": ["delivery"], "price": "$$$$", "location": {"address1": "165 Duane St", "address2": "", "address3": "", "city": "New York", "zip_code": "10013", "country": "US", "state": "NY", "display_address": ["165 Duane St", "New York, NY 10013"]}, "phone": "+12125280400", "display_phone": "(212) 528-0400", "distance": 5730.5503972464}, {"id": "00V7oJIc_wZKM2cjGrL1HQ", "alias": "bar-cicchetti-by-fabio-viviani-new-york", "name": "Bar Cicchetti by Fabio Viviani", "image_url": "https://s3-media1.fl.yelpcdn.com/bphoto/TnCvHqg1_HjZUGlj5LtLpQ/o.jpg", "is_closed": false, "url": "https://www.yelp.com/biz/bar-cicchetti-by-fabio-viviani-new-york?adjust_creative=9gNmiWYX8uTbFBeTTvJMdA&utm_campaign=yelp_api_v3&utm_medium=api_v3_business_search&utm_source=9gNmiWYX8uTbFBeTTvJMdA", "review_count": 37, "categories": [{"alias": "italian", "title": "Italian"}, {"alias": "bars", "title": "Bars"}], "rating": 4.0, "coordinates": {"latitude": 40.743973307837564, "longitude": -73.99300677914937}, "transactions": [], "location": {"address1": "113 W 24th St", "address2": null, "address3": "", "city": "New York", "zip_code": "10011", "country": "US", "state": "NY", "display_address": ["113 W 24th St", "New York, NY 10011"]}, "phone": "+12126688624", "display_phone": "(212) 668-8624", "distance": 2598.7168897882443}, {"id": "eQdjZQaLnjItmn9suEEeIA", "alias": "patricias-bronx", "name": "Patricia's", "image_url": "https://s3-media3.fl.yelpcdn.com/bphoto/PygasAzZ_zO3bY1NvMBwgg/o.jpg", "is_closed": false, "url": "https://www.yelp.com/biz/patricias-bronx?adjust_creative=9gNmiWYX8uTbFBeTTvJMdA&utm_campaign=yelp_api_v3&utm_medium=api_v3_business_search&utm_source=9gNmiWYX8uTbFBeTTvJMdA", "review_count": 605, "categories": [{"alias": "pizza", "title": "Pizza"}, {"alias": "italian", "title": "Italian"}, {"alias": "bars", "title": "Bars"}], "rating": 4.0, "coordinates": {"latitude": 40.84912, "longitude": -73.8533099}, "transactions": ["delivery", "pickup"], "price": "$$", "location": {"address1": "1082 Morris Park Ave", "address2": "", "address3": "", "city": "Bronx", "zip_code": "10461", "country": "US", "state": "NY", "display_address": ["1082 Morris Park Ave", "Bronx, NY 10461"]}, "phone": "+17184099069", "display_phone": "(718) 409-9069", "distance": 13993.839896171366}, {"id": "Z67mgMkN3RfdPEX5mXsyYA", "alias": "piacere-new-york", "name": "Piacere", "image_url": "https://s3-media2.fl.yelpcdn.com/bphoto/-K9j_VJwmeFNi9ffA5V0aQ/o.jpg", "is_closed": false, "url": "https://www.yelp.com/biz/piacere-new-york?adjust_creative=9gNmiWYX8uTbFBeTTvJMdA&utm_campaign=yelp_api_v3&utm_medium=api_v3_business_search&utm_source=9gNmiWYX8uTbFBeTTvJMdA", "review_count": 713, "categories": [{"alias": "pizza", "title": "Pizza"}, {"alias": "italian", "title": "Italian"}, {"alias": "wine_bars", "title": "Wine Bars"}], "rating": 4.0, "coordinates": {"latitude": 40.7196979, "longitude": -73.9951175}, "transactions": ["delivery", "pickup"], "price": "$$", "location": {"address1": "351 Broome St", "address2": "", "address3": "", "city": "New York", "zip_code": "10013", "country": "US", "state": "NY", "display_address": ["351 Broome St", "New York, NY 10013"]}, "phone": "+12122194080", "display_phone": "(212) 219-4080", "distance": 4888.771213146155}, {"id": "QgEre4IFSHxbUvHMe8S12g", "alias": "pinocchio-restaurant-new-york-3", "name": "Pinocchio Restaurant", "image_url": "https://s3-media2.fl.yelpcdn.com/bphoto/ljZqS598teM8M5jllBYyww/o.jpg", "is_closed": false, "url": "https://www.yelp.com/biz/pinocchio-restaurant-new-york-3?adjust_creative=9gNmiWYX8uTbFBeTTvJMdA&utm_campaign=yelp_api_v3&utm_medium=api_v3_business_search&utm_source=9gNmiWYX8uTbFBeTTvJMdA", "review_count": 220, "categories": [{"alias": "italian", "title": "Italian"}, {"alias": "seafood", "title": "Seafood"}], "rating": 4.0, "coordinates": {"latitude": 40.781448901412105, "longitude": -73.94866582944772}, "transactions": ["delivery"], "price": "$$$", "location": {"address1": "300 East 92 St", "address2": "", "address3": "", "city": "New York", "zip_code": "10128", "country": "US", "state": "NY", "display_address": ["300 East 92 St", "New York, NY 10128"]}, "phone": "+12128285810", "display_phone": "(212) 828-5810", "distance": 3038.8325800075686}, {"id": "iS5UhBr3RuXQntsAH2XMNA", "alias": "pep-s-on-grand-new-york", "name": "Pep\u2019s On Grand", "image_url": "https://s3-media3.fl.yelpcdn.com/bphoto/Pw3ePfF8uMs8wX5kth5URA/o.jpg", "is_closed": false, "url": "https://www.yelp.com/biz/pep-s-on-grand-new-york?adjust_creative=9gNmiWYX8uTbFBeTTvJMdA&utm_campaign=yelp_api_v3&utm_medium=api_v3_business_search&utm_source=9gNmiWYX8uTbFBeTTvJMdA", "review_count": 29, "categories": [{"alias": "italian", "title": "Italian"}, {"alias": "pizza", "title": "Pizza"}, {"alias": "pastashops", "title": "Pasta Shops"}], "rating": 4.5, "coordinates": {"latitude": 40.71897, "longitude": -73.99693}, "transactions": [], "location": {"address1": "197 Grand St", "address2": "", "address3": null, "city": "New York", "zip_code": "10013", "country": "US", "state": "NY", "display_address": ["197 Grand St", "New York, NY 10013"]}, "phone": "+19174093030", "display_phone": "(917) 409-3030", "distance": 5022.52957758287}, {"id": "DCiEo7qucPaEj7Gtdj1U9A", "alias": "sant-ambroeus-new-york", "name": "Sant Ambroeus", "image_url": "https://s3-media3.fl.yelpcdn.com/bphoto/7B4Ntnr-UGLiowyhJ4U2vA/o.jpg", "is_closed": false, "url": "https://www.yelp.com/biz/sant-ambroeus-new-york?adjust_creative=9gNmiWYX8uTbFBeTTvJMdA&utm_campaign=yelp_api_v3&utm_medium=api_v3_business_search&utm_source=9gNmiWYX8uTbFBeTTvJMdA", "review_count": 495, "categories": [{"alias": "italian", "title": "Italian"}, {"alias": "coffee", "title": "Coffee & Tea"}, {"alias": "breakfast_brunch", "title": "Breakfast & Brunch"}], "rating": 4.0, "coordinates": {"latitude": 40.77541, "longitude": -73.96297}, "transactions": ["delivery"], "price": "$$$", "location": {"address1": "1000 Madison Ave", "address2": null, "address3": "", "city": "New York", "zip_code": "10021", "country": "US", "state": "NY", "display_address": ["1000 Madison Ave", "New York, NY 10021"]}, "phone": "+12125702211", "display_phone": "(212) 570-2211", "distance": 1889.8707765669067}, {"id": "uYHN9Vw3V1ajDGRnNDtbYw", "alias": "michaels-of-brooklyn-brooklyn", "name": "Michael's of Brooklyn", "image_url": "https://s3-media1.fl.yelpcdn.com/bphoto/zFgpF0iJGSdQMVkI2RBecQ/o.jpg", "is_closed": false, "url": "https://www.yelp.com/biz/michaels-of-brooklyn-brooklyn?adjust_creative=9gNmiWYX8uTbFBeTTvJMdA&utm_campaign=yelp_api_v3&utm_medium=api_v3_business_search&utm_source=9gNmiWYX8uTbFBeTTvJMdA", "review_count": 347, "categories": [{"alias": "italian", "title": "Italian"}], "rating": 4.5, "coordinates": {"latitude": 40.6076329987397, "longitude": -73.9428921973385}, "transactions": ["delivery", "pickup"], "price": "$$$", "location": {"address1": "2929 Ave R", "address2": "", "address3": "", "city": "Brooklyn", "zip_code": "11229", "country": "US", "state": "NY", "display_address": ["2929 Ave R", "Brooklyn, NY 11229"]}, "phone": "+17189987851", "display_phone": "(718) 998-7851", "distance": 17000.18333972984}, {"id": "bEloKDe-QVkwakAwmFKbbA", "alias": "frying-pan-new-york", "name": "Frying Pan", "image_url": "https://s3-media2.fl.yelpcdn.com/bphoto/HgBT-gGv_X8Ae-d4JNvNBw/o.jpg", "is_closed": false, "url": "https://www.yelp.com/biz/frying-pan-new-york?adjust_creative=9gNmiWYX8uTbFBeTTvJMdA&utm_campaign=yelp_api_v3&utm_medium=api_v3_business_search&utm_source=9gNmiWYX8uTbFBeTTvJMdA", "review_count": 1618, "categories": [{"alias": "bars", "title": "Bars"}], "rating": 4.0, "coordinates": {"latitude": 40.7521174043978, "longitude": -74.0090024471283}, "transactions": [], "price": "$$", "location": {"address1": "207 12th Avenue", "address2": "", "address3": "Big Red Boat in Park", "city": "New York", "zip_code": "10001", "country": "US", "state": "NY", "display_address": ["207 12th Avenue", "Big Red Boat in Park", "New York, NY 10001"]}, "phone": "+12129896363", "display_phone": "(212) 989-6363", "distance": 3412.519027800089}, {"id": "3n96VKiKG5Tte8z-U-TaLg", "alias": "soleluna-restaurant-sunnyside", "name": "SoleLuna Restaurant", "image_url": "https://s3-media3.fl.yelpcdn.com/bphoto/Ns_tU-FtNJyYbTncKXPWcA/o.jpg", "is_closed": false, "url": "https://www.yelp.com/biz/soleluna-restaurant-sunnyside?adjust_creative=9gNmiWYX8uTbFBeTTvJMdA&utm_campaign=yelp_api_v3&utm_medium=api_v3_business_search&utm_source=9gNmiWYX8uTbFBeTTvJMdA", "review_count": 481, "categories": [{"alias": "cafes", "title": "Cafes"}, {"alias": "italian", "title": "Italian"}, {"alias": "breakfast_brunch", "title": "Breakfast & Brunch"}], "rating": 4.5, "coordinates": {"latitude": 40.7439934462309, "longitude": -73.9240421354771}, "transactions": ["delivery", "pickup"], "price": "$$", "location": {"address1": "40-01 Queens Blvd", "address2": "", "address3": "", "city": "Sunnyside", "zip_code": "11104", "country": "US", "state": "NY", "display_address": ["40-01 Queens Blvd", "Sunnyside, NY 11104"]}, "phone": "+19292963942", "display_phone": "(929) 296-3942", "distance": 4185.990677955178}, {"id": "WNOUPEZ6J8SZVSaK6Q3e-A", "alias": "porto-by-antonio-north-bergen-2", "name": "Porto By Antonio", "image_url": "https://s3-media3.fl.yelpcdn.com/bphoto/UUY1iUsZphgBeO47CciD0g/o.jpg", "is_closed": false, "url": "https://www.yelp.com/biz/porto-by-antonio-north-bergen-2?adjust_creative=9gNmiWYX8uTbFBeTTvJMdA&utm_campaign=yelp_api_v3&utm_medium=api_v3_business_search&utm_source=9gNmiWYX8uTbFBeTTvJMdA", "review_count": 921, "categories": [{"alias": "italian", "title": "Italian"}, {"alias": "pizza", "title": "Pizza"}], "rating": 4.5, "coordinates": {"latitude": 40.8048834508642, "longitude": -73.9934416639218}, "transactions": ["delivery", "pickup"], "price": "$$", "location": {"address1": "8921 Old River Rd", "address2": null, "address3": "", "city": "North Bergen", "zip_code": "07047", "country": "US", "state": "NJ", "display_address": ["8921 Old River Rd", "North Bergen, NJ 07047"]}, "phone": "+12019417107", "display_phone": "(201) 941-7107", "distance": 5465.435129117344}, {"id": "QgClXDNikG0wRpIZ-Rcm7A", "alias": "la-devozione-new-york", "name": "La Devozione", "image_url": "https://s3-media1.fl.yelpcdn.com/bphoto/y5BHHhxiZbTaNhOu6WfNsA/o.jpg", "is_closed": false, "url": "https://www.yelp.com/biz/la-devozione-new-york?adjust_creative=9gNmiWYX8uTbFBeTTvJMdA&utm_campaign=yelp_api_v3&utm_medium=api_v3_business_search&utm_source=9gNmiWYX8uTbFBeTTvJMdA", "review_count": 53, "categories": [{"alias": "italian", "title": "Italian"}, {"alias": "pastashops", "title": "Pasta Shops"}], "rating": 3.5, "coordinates": {"latitude": 40.742463072401314, "longitude": -74.0059581}, "transactions": [], "location": {"address1": "75 9th Ave", "address2": "", "address3": null, "city": "New York", "zip_code": "10011", "country": "US", "state": "NY", "display_address": ["75 9th Ave", "New York, NY 10011"]}, "phone": "+16467200215", "display_phone": "(646) 720-0215", "distance": 3584.1961776026196}], "total": 4600, "region": {"center": {"longitude": -73.96957397460938, "latitude": 40.75917470627005}}}