{"businesses": [{"id": "E5rmVdrCn-0uwD2M9nkXdw", "alias": "da-capo-new-york-2", "name": "Da Capo", "image_url": "https://s3-media2.fl.yelpcdn.com/bphoto/tDXIjKxkzxidjxLyb-ekww/o.jpg", "is_closed": false, "url": "https://www.yelp.com/biz/da-capo-new-york-2?adjust_creative=9gNmiWYX8uTbFBeTTvJMdA&utm_campaign=yelp_api_v3&utm_medium=api_v3_business_search&utm_source=9gNmiWYX8uTbFBeTTvJMdA", "review_count": 223, "categories": [{"alias": "wine_bars", "title": "Wine Bars"}, {"alias": "cocktailbars", "title": "Cocktail Bars"}, {"alias": "italian", "title": "Italian"}], "rating": 4.5, "coordinates": {"latitude": 40.7877696714384, "longitude": -73.9538384601474}, "transactions": ["delivery", "pickup"], "price": "$$", "location": {"address1": "1392 Madison Ave", "address2": "", "address3": "", "city": "New York", "zip_code": "10029", "country": "US", "state": "NY", "display_address": ["1392 Madison Ave", "New York, NY 10029"]}, "phone": "+16467070684", "display_phone": "(646) 707-0684", "distance": 3444.6602743491076}, {"id": "megxpLA5KciBJbW-jNm2RQ", "alias": "arno-ristorante-new-york", "name": "Arno Ristorante", "image_url": "https://s3-media2.fl.yelpcdn.com/bphoto/bAnowIYgakhXyuH57zLA-g/o.jpg", "is_closed": false, "url": "https://www.yelp.com/biz/arno-ristorante-new-york?adjust_creative=9gNmiWYX8uTbFBeTTvJMdA&utm_campaign=yelp_api_v3&utm_medium=api_v3_business_search&utm_source=9gNmiWYX8uTbFBeTTvJMdA", "review_count": 266, "categories": [{"alias": "italian", "title": "Italian"}, {"alias": "wine_bars", "title": "Wine Bars"}, {"alias": "venues", "title": "Venues & Event Spaces"}], "rating": 3.5, "coordinates": {"latitude": 40.7534599, "longitude": -73.98842}, "transactions": ["pickup", "delivery", "restaurant_reservation"], "price": "$$$", "location": {"address1": "141 W 38th St", "address2": "", "address3": "", "city": "New York", "zip_code": "10018", "country": "US", "state": "NY", "display_address": ["141 W 38th St", "New York, NY 10018"]}, "phone": "+12129447420", "display_phone": "(212) 944-7420", "distance": 1681.674701755849}, {"id": "NGzwDLroGL4JvG81BWliNw", "alias": "armondos-italian-restaurant-jackson-heights-2", "name": "Armondo's Italian Restaurant", "image_url": "https://s3-media1.fl.yelpcdn.com/bphoto/TWLmgGgAZiWsBC_zR-XY5g/o.jpg", "is_closed": false, "url": "https://www.yelp.com/biz/armondos-italian-restaurant-jackson-heights-2?adjust_creative=9gNmiWYX8uTbFBeTTvJMdA&utm_campaign=yelp_api_v3&utm_medium=api_v3_business_search&utm_source=9gNmiWYX8uTbFBeTTvJMdA", "review_count": 77, "categories": [{"alias": "italian", "title": "Italian"}], "rating": 4.5, "coordinates": {"latitude": 40.7545652, "longitude": -73.8934414}, "transactions": ["delivery"], "price": "$$$", "location": {"address1": "7316 Northern Blvd", "address2": "", "address3": "", "city": "Jackson Heights", "zip_code": "11372", "country": "US", "state": "NY", "display_address": ["7316 Northern Blvd", "Jackson Heights, NY 11372"]}, "phone": "+17188980113", "display_phone": "(718) 898-0113", "distance": 6458.5834323127265}, {"id": "muX5xoh3aOleCrSja_T_FA", "alias": "il-tavolo-di-palmisano-hoboken-2", "name": "IL Tavolo di\u2019 Palmisano", "image_url": "https://s3-media3.fl.yelpcdn.com/bphoto/8VzV1rQgLNuBT3cfU2bL_g/o.jpg", "is_closed": false, "url": "https://www.yelp.com/biz/il-tavolo-di-palmisano-hoboken-2?adjust_creative=9gNmiWYX8uTbFBeTTvJMdA&utm_campaign=yelp_api_v3&utm_medium=api_v3_business_search&utm_source=9gNmiWYX8uTbFBeTTvJMdA", "review_count": 205, "categories": [{"alias": "italian", "title": "Italian"}], "rating": 4.0, "coordinates": {"latitude": 40.74571, "longitude": -74.03346}, "transactions": ["delivery", "pickup"], "price": "$$", "location": {"address1": "700 Clinton St", "address2": null, "address3": null, "city": "Hoboken", "zip_code": "07030", "country": "US", "state": "NJ", "display_address": ["700 Clinton St", "Hoboken, NJ 07030"]}, "phone": "+12012530591", "display_phone": "(201) 253-0591", "distance": 5587.305046137971}, {"id": "q8myw-sQtrmn0w-tKSC5cA", "alias": "cucina-alba-new-york", "name": "Cucina Alba", "image_url": "https://s3-media1.fl.yelpcdn.com/bphoto/HckXyCsbLLxR6a2i7Bnmmw/o.jpg", "is_closed": false, "url": "https://www.yelp.com/biz/cucina-alba-new-york?adjust_creative=9gNmiWYX8uTbFBeTTvJMdA&utm_campaign=yelp_api_v3&utm_medium=api_v3_business_search&utm_source=9gNmiWYX8uTbFBeTTvJMdA", "review_count": 41, "categories": [{"alias": "italian", "title": "Italian"}], "rating": 4.0, "coordinates": {"latitude": 40.7451419, "longitude": -74.0069681}, "transactions": [], "location": {"address1": "511 W 18th St", "address2": "", "address3": null, "city": "New York", "zip_code": "10011", "country": "US", "state": "NY", "display_address": ["511 W 18th St", "New York, NY 10011"]}, "phone": "+12127598080", "display_phone": "(212) 759-8080", "distance": 3515.1811663499006}, {"id": "JSexQM-wn8HvWmfxu_m5ZA", "alias": "gnocco-new-york", "name": "Gnocco", "image_url": "https://s3-media3.fl.yelpcdn.com/bphoto/skREbzShzKqLzHcvPTP-YQ/o.jpg", "is_closed": false, "url": "https://www.yelp.com/biz/gnocco-new-york?adjust_creative=9gNmiWYX8uTbFBeTTvJMdA&utm_campaign=yelp_api_v3&utm_medium=api_v3_business_search&utm_source=9gNmiWYX8uTbFBeTTvJMdA", "review_count": 567, "categories": [{"alias": "italian", "title": "Italian"}, {"alias": "pizza", "title": "Pizza"}, {"alias": "bars", "title": "Bars"}], "rating": 4.0, "coordinates": {"latitude": 40.72713, "longitude": -73.9802799}, "transactions": ["delivery", "pickup"], "price": "$$", "location": {"address1": "337 E 10th St", "address2": "", "address3": "", "city": "New York", "zip_code": "10009", "country": "US", "state": "NY", "display_address": ["337 E 10th St", "New York, NY 10009"]}, "phone": "+12126771913", "display_phone": "(212) 677-1913", "distance": 3672.240514284927}, {"id": "jku9Fg8JsUbv_LQzg6PK4g", "alias": "lavagna-new-york", "name": "Lavagna", "image_url": "https://s3-media4.fl.yelpcdn.com/bphoto/HtbVRtgaxzrLfImGh85eHw/o.jpg", "is_closed": false, "url": "https://www.yelp.com/biz/lavagna-new-york?adjust_creative=9gNmiWYX8uTbFBeTTvJMdA&utm_campaign=yelp_api_v3&utm_medium=api_v3_business_search&utm_source=9gNmiWYX8uTbFBeTTvJMdA", "review_count": 429, "categories": [{"alias": "italian", "title": "Italian"}, {"alias": "bars", "title": "Bars"}], "rating": 4.0, "coordinates": {"latitude": 40.72406, "longitude": -73.98226}, "transactions": ["delivery", "pickup"], "price": "$$$", "location": {"address1": "545 E 5th St", "address2": "", "address3": "", "city": "New York", "zip_code": "10009", "country": "US", "state": "NY", "display_address": ["545 E 5th St", "New York, NY 10009"]}, "phone": "+12129791005", "display_phone": "(212) 979-1005", "distance": 4042.6325784921287}, {"id": "gObd5Qhhv5yL1zBjRoltxg", "alias": "via-toscana-new-york", "name": "Via Toscana", "image_url": "https://s3-media4.fl.yelpcdn.com/bphoto/2je7jnn-5r8vNVvhimdEuw/o.jpg", "is_closed": false, "url": "https://www.yelp.com/biz/via-toscana-new-york?adjust_creative=9gNmiWYX8uTbFBeTTvJMdA&utm_campaign=yelp_api_v3&utm_medium=api_v3_business_search&utm_source=9gNmiWYX8uTbFBeTTvJMdA", "review_count": 2, "categories": [{"alias": "tapas", "title": "Tapas Bars"}, {"alias": "tuscan", "title": "Tuscan"}, {"alias": "pizza", "title": "Pizza"}], "rating": 5.0, "coordinates": {"latitude": 40.7639195, "longitude": -73.98683660000002}, "transactions": ["delivery", "pickup"], "location": {"address1": "344 W 52nd St", "address2": "", "address3": null, "city": "New York", "zip_code": "10019", "country": "US", "state": "NY", "display_address": ["344 W 52nd St", "New York, NY 10019"]}, "phone": "+16469063192", "display_phone": "(646) 906-3192", "distance": 1546.672377815389}, {"id": "u5zbsITgkFbAlRq0j-XE-g", "alias": "serafina-italian-restaurant-broadway-new-york-2", "name": "Serafina Italian Restaurant Broadway", "image_url": "https://s3-media2.fl.yelpcdn.com/bphoto/l5i104-fJ5pzz-0XrgtzPQ/o.jpg", "is_closed": false, "url": "https://www.yelp.com/biz/serafina-italian-restaurant-broadway-new-york-2?adjust_creative=9gNmiWYX8uTbFBeTTvJMdA&utm_campaign=yelp_api_v3&utm_medium=api_v3_business_search&utm_source=9gNmiWYX8uTbFBeTTvJMdA", "review_count": 696, "categories": [{"alias": "italian", "title": "Italian"}, {"alias": "pizza", "title": "Pizza"}], "rating": 3.0, "coordinates": {"latitude": 40.764415484123354, "longitude": -73.9819469}, "transactions": ["delivery", "pickup"], "price": "$$", "location": {"address1": "210 W 55th St", "address2": null, "address3": "", "city": "New York", "zip_code": "10019", "country": "US", "state": "NY", "display_address": ["210 W 55th St", "New York, NY 10019"]}, "phone": "+12123151700", "display_phone": "(212) 315-1700", "distance": 1193.9507593856194}, {"id": "7S8g0G_Ndc3DS-kqsozq8Q", "alias": "83-1-2-new-york", "name": "83 1/2", "image_url": "https://s3-media1.fl.yelpcdn.com/bphoto/pr44P3Qhum9vBwLoH_n5Xw/o.jpg", "is_closed": false, "url": "https://www.yelp.com/biz/83-1-2-new-york?adjust_creative=9gNmiWYX8uTbFBeTTvJMdA&utm_campaign=yelp_api_v3&utm_medium=api_v3_business_search&utm_source=9gNmiWYX8uTbFBeTTvJMdA", "review_count": 225, "categories": [{"alias": "italian", "title": "Italian"}], "rating": 4.0, "coordinates": {"latitude": 40.775354, "longitude": -73.951216}, "transactions": ["delivery", "pickup"], "price": "$$$", "location": {"address1": "345 E 83rd St", "address2": null, "address3": "", "city": "New York", "zip_code": "10028", "country": "US", "state": "NY", "display_address": ["345 E 83rd St", "New York, NY 10028"]}, "phone": "+12127378312", "display_phone": "(212) 737-8312", "distance": 2372.084443450575}, {"id": "fuS39acPaRi38DhSSwEI4Q", "alias": "felice-15-gold-new-york", "name": "Felice 15 Gold", "image_url": "https://s3-media2.fl.yelpcdn.com/bphoto/RjmwyXZWgYk0IPqigCTjzw/o.jpg", "is_closed": false, "url": "https://www.yelp.com/biz/felice-15-gold-new-york?adjust_creative=9gNmiWYX8uTbFBeTTvJMdA&utm_campaign=yelp_api_v3&utm_medium=api_v3_business_search&utm_source=9gNmiWYX8uTbFBeTTvJMdA", "review_count": 440, "categories": [{"alias": "wine_bars", "title": "Wine Bars"}, {"alias": "tuscan", "title": "Tuscan"}], "rating": 4.0, "coordinates": {"latitude": 40.70789, "longitude": -74.00712}, "transactions": ["delivery", "pickup"], "price": "$$$", "location": {"address1": "15 Gold St", "address2": "", "address3": "", "city": "New York", "zip_code": "10038", "country": "US", "state": "NY", "display_address": ["15 Gold St", "New York, NY 10038"]}, "phone": "+12127855950", "display_phone": "(212) 785-5950", "distance": 6522.510183484588}, {"id": "LTi4_wcCVmqQeJ_jgTEbOQ", "alias": "emporio-new-york", "name": "Emporio", "image_url": "https://s3-media4.fl.yelpcdn.com/bphoto/Br4HBcTxwC5ZTWpQATgQWw/o.jpg", "is_closed": false, "url": "https://www.yelp.com/biz/emporio-new-york?adjust_creative=9gNmiWYX8uTbFBeTTvJMdA&utm_campaign=yelp_api_v3&utm_medium=api_v3_business_search&utm_source=9gNmiWYX8uTbFBeTTvJMdA", "review_count": 865, "categories": [{"alias": "italian", "title": "Italian"}, {"alias": "pizza", "title": "Pizza"}], "rating": 4.0, "coordinates": {"latitude": 40.722647, "longitude": -73.995246}, "transactions": ["delivery", "pickup"], "price": "$$$", "location": {"address1": "231 Mott St", "address2": "", "address3": "", "city": "New York", "zip_code": "10012", "country": "US", "state": "NY", "display_address": ["231 Mott St", "New York, NY 10012"]}, "phone": "+12129661234", "display_phone": "(212) 966-1234", "distance": 4607.434702155629}, {"id": "mPHPVJ2-8mOR-lFHafrc6w", "alias": "evelina-brooklyn-2", "name": "Evelina", "image_url": "https://s3-media1.fl.yelpcdn.com/bphoto/hG3aShzVvdnbAFm02sQgZw/o.jpg", "is_closed": false, "url": "https://www.yelp.com/biz/evelina-brooklyn-2?adjust_creative=9gNmiWYX8uTbFBeTTvJMdA&utm_campaign=yelp_api_v3&utm_medium=api_v3_business_search&utm_source=9gNmiWYX8uTbFBeTTvJMdA", "review_count": 310, "categories": [{"alias": "italian", "title": "Italian"}], "rating": 4.5, "coordinates": {"latitude": 40.689722, "longitude": -73.971003}, "transactions": ["delivery", "pickup"], "price": "$$", "location": {"address1": "211 Dekalb Ave", "address2": null, "address3": "", "city": "Brooklyn", "zip_code": "11205", "country": "US", "state": "NY", "display_address": ["211 Dekalb Ave", "Brooklyn, NY 11205"]}, "phone": "+19292980209", "display_phone": "(929) 298-0209", "distance": 7722.789491135082}, {"id": "_V7YsDQ4Lb41rqfkuPzm1w", "alias": "trattoria-pesce-pasta-new-york", "name": "Trattoria Pesce Pasta", "image_url": "https://s3-media2.fl.yelpcdn.com/bphoto/KgP1SZfCf_jBPaLwhuDqKg/o.jpg", "is_closed": false, "url": "https://www.yelp.com/biz/trattoria-pesce-pasta-new-york?adjust_creative=9gNmiWYX8uTbFBeTTvJMdA&utm_campaign=yelp_api_v3&utm_medium=api_v3_business_search&utm_source=9gNmiWYX8uTbFBeTTvJMdA", "review_count": 289, "categories": [{"alias": "italian", "title": "Italian"}], "rating": 4.0, "coordinates": {"latitude": 40.73115, "longitude": -74.00319}, "transactions": ["delivery", "pickup"], "price": "$$", "location": {"address1": "262 Bleecker St", "address2": "", "address3": "", "city": "New York", "zip_code": "10014", "country": "US", "state": "NY", "display_address": ["262 Bleecker St", "New York, NY 10014"]}, "phone": "+12126452993", "display_phone": "(212) 645-2993", "distance": 4206.271704278361}, {"id": "urpBS_SwoSwonOtkwJ3i3A", "alias": "aperibar-new-york", "name": "AperiBar", "image_url": "https://s3-media2.fl.yelpcdn.com/bphoto/MPJTZHim6sB-pERCeIpKmA/o.jpg", "is_closed": false, "url": "https://www.yelp.com/biz/aperibar-new-york?adjust_creative=9gNmiWYX8uTbFBeTTvJMdA&utm_campaign=yelp_api_v3&utm_medium=api_v3_business_search&utm_source=9gNmiWYX8uTbFBeTTvJMdA", "review_count": 13, "categories": [{"alias": "italian", "title": "Italian"}, {"alias": "bars", "title": "Bars"}], "rating": 4.5, "coordinates": {"latitude": 40.75454487364027, "longitude": -73.98568263216227}, "transactions": [], "location": {"address1": "120 W 41st St", "address2": null, "address3": "", "city": "New York", "zip_code": "10036", "country": "US", "state": "NY", "display_address": ["120 W 41st St", "New York, NY 10036"]}, "phone": "+12127308900", "display_phone": "(212) 730-8900", "distance": 1451.1944007790391}, {"id": "cGqMEMQFtkB3hIGfLy2R3A", "alias": "bar-pitti-new-york", "name": "Bar Pitti", "image_url": "https://s3-media2.fl.yelpcdn.com/bphoto/gC49rW1kbDAmgZEar_blHA/o.jpg", "is_closed": false, "url": "https://www.yelp.com/biz/bar-pitti-new-york?adjust_creative=9gNmiWYX8uTbFBeTTvJMdA&utm_campaign=yelp_api_v3&utm_medium=api_v3_business_search&utm_source=9gNmiWYX8uTbFBeTTvJMdA", "review_count": 1209, "categories": [{"alias": "italian", "title": "Italian"}], "rating": 3.5, "coordinates": {"latitude": 40.729047, "longitude": -74.002153}, "transactions": [], "price": "$$", "location": {"address1": "268 Ave Of The Americas", "address2": "", "address3": "", "city": "New York", "zip_code": "10014", "country": "US", "state": "NY", "display_address": ["268 Ave Of The Americas", "New York, NY 10014"]}, "phone": "+12129823300", "display_phone": "(212) 982-3300", "distance": 4330.784082269801}, {"id": "7AknGS1qVEyq_pHfmjkZtg", "alias": "wolf-at-nordstrom-nyc-new-york", "name": "Wolf at Nordstrom NYC", "image_url": "https://s3-media2.fl.yelpcdn.com/bphoto/NNUA7aSMhZzgbl14lTaHQQ/o.jpg", "is_closed": false, "url": "https://www.yelp.com/biz/wolf-at-nordstrom-nyc-new-york?adjust_creative=9gNmiWYX8uTbFBeTTvJMdA&utm_campaign=yelp_api_v3&utm_medium=api_v3_business_search&utm_source=9gNmiWYX8uTbFBeTTvJMdA", "review_count": 108, "categories": [{"alias": "italian", "title": "Italian"}], "rating": 4.5, "coordinates": {"latitude": 40.766449907700014, "longitude": -73.98159218717193}, "transactions": ["delivery"], "location": {"address1": "225 W 57th St", "address2": "", "address3": null, "city": "New York", "zip_code": "10019", "country": "US", "state": "NY", "display_address": ["225 W 57th St", "New York, NY 10019"]}, "phone": "+12122952184", "display_phone": "(212) 295-2184", "distance": 1295.741229718606}, {"id": "ZmxEeE9m0CdpvM3wVRvonQ", "alias": "sicily-osteria-new-york", "name": "Sicily Osteria", "image_url": "https://s3-media1.fl.yelpcdn.com/bphoto/Pr6Erhxx9mqbspx5jrzQxQ/o.jpg", "is_closed": false, "url": "https://www.yelp.com/biz/sicily-osteria-new-york?adjust_creative=9gNmiWYX8uTbFBeTTvJMdA&utm_campaign=yelp_api_v3&utm_medium=api_v3_business_search&utm_source=9gNmiWYX8uTbFBeTTvJMdA", "review_count": 68, "categories": [{"alias": "sicilian", "title": "Sicilian"}, {"alias": "pizza", "title": "Pizza"}], "rating": 4.0, "coordinates": {"latitude": 40.76019, "longitude": -73.98918}, "transactions": [], "location": {"address1": "330 W 46th St", "address2": "", "address3": null, "city": "New York", "zip_code": "10036", "country": "US", "state": "NY", "display_address": ["330 W 46th St", "New York, NY 10036"]}, "phone": "+16466093417", "display_phone": "(646) 609-3417", "distance": 1658.2100864665506}, {"id": "F-eRrDik2KK0sNjpGiNbAg", "alias": "trattoria-il-gusto-wine-bar-new-york-2", "name": "Trattoria iL Gusto Wine Bar", "image_url": "https://s3-media2.fl.yelpcdn.com/bphoto/0tMQzfIbUMQ1x9uyAobtrg/o.jpg", "is_closed": false, "url": "https://www.yelp.com/biz/trattoria-il-gusto-wine-bar-new-york-2?adjust_creative=9gNmiWYX8uTbFBeTTvJMdA&utm_campaign=yelp_api_v3&utm_medium=api_v3_business_search&utm_source=9gNmiWYX8uTbFBeTTvJMdA", "review_count": 74, "categories": [{"alias": "wine_bars", "title": "Wine Bars"}, {"alias": "italian", "title": "Italian"}, {"alias": "desserts", "title": "Desserts"}], "rating": 3.5, "coordinates": {"latitude": 40.78923, "longitude": -73.9698499}, "transactions": ["delivery", "pickup"], "price": "$$", "location": {"address1": "625 Columbus Ave", "address2": "", "address3": null, "city": "New York", "zip_code": "10024", "country": "US", "state": "NY", "display_address": ["625 Columbus Ave", "New York, NY 10024"]}, "phone": "+12125797970", "display_phone": "(212) 579-7970", "distance": 3349.677009433784}, {"id": "gyWc5qJRvu26LVQIShdR4Q", "alias": "babbalucci-new-york", "name": "Babbalucci", "image_url": "https://s3-media2.fl.yelpcdn.com/bphoto/NVJBkKrVeYUptEQd6U6dtA/o.jpg", "is_closed": false, "url": "https://www.yelp.com/biz/babbalucci-new-york?adjust_creative=9gNmiWYX8uTbFBeTTvJMdA&utm_campaign=yelp_api_v3&utm_medium=api_v3_business_search&utm_source=9gNmiWYX8uTbFBeTTvJMdA", "review_count": 467, "categories": [{"alias": "italian", "title": "Italian"}], "rating": 4.0, "coordinates": {"latitude": 40.80894, "longitude": -73.94496}, "transactions": ["delivery", "pickup"], "price": "$$", "location": {"address1": "331 Lenox Ave", "address2": "", "address3": "", "city": "New York", "zip_code": "10027", "country": "US", "state": "NY", "display_address": ["331 Lenox Ave", "New York, NY 10027"]}, "phone": "+16469186572", "display_phone": "(646) 918-6572", "distance": 5908.854105540408}, {"id": "Njr_f1J5Pve35OyPdBljVA", "alias": "convivium-osteria-brooklyn", "name": "Convivium Osteria", "image_url": "https://s3-media4.fl.yelpcdn.com/bphoto/RIIMXKFc36OIwIhsXxnt2g/o.jpg", "is_closed": false, "url": "https://www.yelp.com/biz/convivium-osteria-brooklyn?adjust_creative=9gNmiWYX8uTbFBeTTvJMdA&utm_campaign=yelp_api_v3&utm_medium=api_v3_business_search&utm_source=9gNmiWYX8uTbFBeTTvJMdA", "review_count": 540, "categories": [{"alias": "italian", "title": "Italian"}, {"alias": "wine_bars", "title": "Wine Bars"}, {"alias": "venues", "title": "Venues & Event Spaces"}], "rating": 4.0, "coordinates": {"latitude": 40.68105, "longitude": -73.97748}, "transactions": ["delivery", "pickup"], "price": "$$$", "location": {"address1": "68 5th Ave", "address2": "", "address3": "", "city": "Brooklyn", "zip_code": "11217", "country": "US", "state": "NY", "display_address": ["68 5th Ave", "Brooklyn, NY 11217"]}, "phone": "+17188571833", "display_phone": "(718) 857-1833", "distance": 8712.132123600033}, {"id": "cp5k0PKl236X0xaNDYR5Zw", "alias": "feroce-ristorante-new-york-5", "name": "Feroce Ristorante", "image_url": "https://s3-media3.fl.yelpcdn.com/bphoto/v0HwBYOXPRMdCMWbij0ljQ/o.jpg", "is_closed": false, "url": "https://www.yelp.com/biz/feroce-ristorante-new-york-5?adjust_creative=9gNmiWYX8uTbFBeTTvJMdA&utm_campaign=yelp_api_v3&utm_medium=api_v3_business_search&utm_source=9gNmiWYX8uTbFBeTTvJMdA", "review_count": 84, "categories": [{"alias": "italian", "title": "Italian"}], "rating": 4.0, "coordinates": {"latitude": 40.746403834819894, "longitude": -73.9909495791506}, "transactions": [], "location": {"address1": "105 W 28th St", "address2": null, "address3": null, "city": "New York", "zip_code": "10001", "country": "US", "state": "NY", "display_address": ["105 W 28th St", "New York, NY 10001"]}, "phone": "+12128881092", "display_phone": "(212) 888-1092", "distance": 2293.147611418366}, {"id": "cpN0ixPR2l3QFA8Uf1BhCQ", "alias": "luna-rossa-new-york", "name": "Luna Rossa", "image_url": "https://s3-media3.fl.yelpcdn.com/bphoto/zGQHCoZ_VMQ5NU6aiUgKyg/o.jpg", "is_closed": false, "url": "https://www.yelp.com/biz/luna-rossa-new-york?adjust_creative=9gNmiWYX8uTbFBeTTvJMdA&utm_campaign=yelp_api_v3&utm_medium=api_v3_business_search&utm_source=9gNmiWYX8uTbFBeTTvJMdA", "review_count": 139, "categories": [{"alias": "italian", "title": "Italian"}, {"alias": "wine_bars", "title": "Wine Bars"}], "rating": 4.0, "coordinates": {"latitude": 40.776596, "longitude": -73.950351}, "transactions": ["delivery", "pickup"], "price": "$$$", "location": {"address1": "347 E 85th St", "address2": null, "address3": "", "city": "New York", "zip_code": "10028", "country": "US", "state": "NY", "display_address": ["347 E 85th St", "New York, NY 10028"]}, "phone": "+12125173118", "display_phone": "(212) 517-3118", "distance": 2524.5340295690426}, {"id": "8TUVNSsXhT8t8HzdA5ojOQ", "alias": "casa-mangia-new-york", "name": "Casa Mangia", "image_url": "https://s3-media2.fl.yelpcdn.com/bphoto/lQCKtBOPnH2bIX5mPAp4Fw/o.jpg", "is_closed": false, "url": "https://www.yelp.com/biz/casa-mangia-new-york?adjust_creative=9gNmiWYX8uTbFBeTTvJMdA&utm_campaign=yelp_api_v3&utm_medium=api_v3_business_search&utm_source=9gNmiWYX8uTbFBeTTvJMdA", "review_count": 2, "categories": [{"alias": "italian", "title": "Italian"}], "rating": 5.0, "coordinates": {"latitude": 40.7637279, "longitude": -73.976629}, "transactions": [], "location": {"address1": "50 West 57th St", "address2": null, "address3": "", "city": "New York", "zip_code": "10019", "country": "US", "state": "NY", "display_address": ["50 West 57th St", "New York, NY 10019"]}, "phone": "+16467478292", "display_phone": "(646) 747-8292", "distance": 780.639100136795}, {"id": "Yubu48l7he-qrNDSeAngbQ", "alias": "via-vai-astoria-2", "name": "Via Vai", "image_url": "https://s3-media3.fl.yelpcdn.com/bphoto/zauzJy_PEuXfgP9E-Rh0dw/o.jpg", "is_closed": false, "url": "https://www.yelp.com/biz/via-vai-astoria-2?adjust_creative=9gNmiWYX8uTbFBeTTvJMdA&utm_campaign=yelp_api_v3&utm_medium=api_v3_business_search&utm_source=9gNmiWYX8uTbFBeTTvJMdA", "review_count": 242, "categories": [{"alias": "italian", "title": "Italian"}, {"alias": "pizza", "title": "Pizza"}, {"alias": "desserts", "title": "Desserts"}], "rating": 4.0, "coordinates": {"latitude": 40.7741502, "longitude": -73.9123089}, "transactions": ["delivery", "pickup"], "price": "$$", "location": {"address1": "31-09 23rd Ave", "address2": "", "address3": "", "city": "Astoria", "zip_code": "11105", "country": "US", "state": "NY", "display_address": ["31-09 23rd Ave", "Astoria, NY 11105"]}, "phone": "+13476124334", "display_phone": "(347) 612-4334", "distance": 5105.382324101699}, {"id": "KXhxtA_JDkCrujeyXvqsgQ", "alias": "canto-new-york", "name": "Canto", "image_url": "https://s3-media4.fl.yelpcdn.com/bphoto/SA8F7UcIENVGpAPD04j78g/o.jpg", "is_closed": false, "url": "https://www.yelp.com/biz/canto-new-york?adjust_creative=9gNmiWYX8uTbFBeTTvJMdA&utm_campaign=yelp_api_v3&utm_medium=api_v3_business_search&utm_source=9gNmiWYX8uTbFBeTTvJMdA", "review_count": 122, "categories": [{"alias": "italian", "title": "Italian"}, {"alias": "wine_bars", "title": "Wine Bars"}, {"alias": "cocktailbars", "title": "Cocktail Bars"}], "rating": 4.0, "coordinates": {"latitude": 40.73512, "longitude": -74.00671}, "transactions": ["delivery", "pickup"], "location": {"address1": "117 Perry St", "address2": "", "address3": null, "city": "New York", "zip_code": "10014", "country": "US", "state": "NY", "display_address": ["117 Perry St", "New York, NY 10014"]}, "phone": "+13152575473", "display_phone": "(315) 257-5473", "distance": 4112.901708116754}, {"id": "5k_jwjhdFMPUNWhouGNzuA", "alias": "misi-brooklyn", "name": "Misi", "image_url": "https://s3-media2.fl.yelpcdn.com/bphoto/bShBCXcYNHhMVOYUQzH6pg/o.jpg", "is_closed": false, "url": "https://www.yelp.com/biz/misi-brooklyn?adjust_creative=9gNmiWYX8uTbFBeTTvJMdA&utm_campaign=yelp_api_v3&utm_medium=api_v3_business_search&utm_source=9gNmiWYX8uTbFBeTTvJMdA", "review_count": 568, "categories": [{"alias": "italian", "title": "Italian"}], "rating": 4.0, "coordinates": {"latitude": 40.71341, "longitude": -73.96662}, "transactions": ["delivery"], "price": "$$$", "location": {"address1": "329 Kent Ave", "address2": "", "address3": null, "city": "Brooklyn", "zip_code": "11249", "country": "US", "state": "NY", "display_address": ["329 Kent Ave", "Brooklyn, NY 11249"]}, "phone": "+13475663262", "display_phone": "(347) 566-3262", "distance": 5094.415813797318}, {"id": "cCesIqo-LQt0cRlZAnrAZQ", "alias": "friedmans-new-york-71", "name": "Friedman's", "image_url": "https://s3-media3.fl.yelpcdn.com/bphoto/JbaqPlimXZu-Lis5oB3u9w/o.jpg", "is_closed": false, "url": "https://www.yelp.com/biz/friedmans-new-york-71?adjust_creative=9gNmiWYX8uTbFBeTTvJMdA&utm_campaign=yelp_api_v3&utm_medium=api_v3_business_search&utm_source=9gNmiWYX8uTbFBeTTvJMdA", "review_count": 2818, "categories": [{"alias": "newamerican", "title": "American (New)"}, {"alias": "breakfast_brunch", "title": "Breakfast & Brunch"}, {"alias": "wine_bars", "title": "Wine Bars"}], "rating": 4.0, "coordinates": {"latitude": 40.74839, "longitude": -73.99062}, "transactions": ["delivery", "pickup"], "price": "$$", "location": {"address1": "132 W 31st St", "address2": "", "address3": "", "city": "New York", "zip_code": "10001", "country": "US", "state": "NY", "display_address": ["132 W 31st St", "New York, NY 10001"]}, "phone": "+12129719400", "display_phone": "(212) 971-9400", "distance": 2160.3666222629167}, {"id": "7EAj8VJX_DoKlZdCJBE4Pg", "alias": "la-bella-vita-new-york", "name": "La Bella Vita", "image_url": "https://s3-media1.fl.yelpcdn.com/bphoto/W0xw08-j86YdCROQn2nXUQ/o.jpg", "is_closed": false, "url": "https://www.yelp.com/biz/la-bella-vita-new-york?adjust_creative=9gNmiWYX8uTbFBeTTvJMdA&utm_campaign=yelp_api_v3&utm_medium=api_v3_business_search&utm_source=9gNmiWYX8uTbFBeTTvJMdA", "review_count": 469, "categories": [{"alias": "italian", "title": "Italian"}], "rating": 4.0, "coordinates": {"latitude": 40.719816, "longitude": -73.997403}, "transactions": ["delivery", "pickup"], "price": "$$", "location": {"address1": "163 Mulberry St", "address2": "", "address3": "", "city": "New York", "zip_code": "10013", "country": "US", "state": "NY", "display_address": ["163 Mulberry St", "New York, NY 10013"]}, "phone": "+12127758484", "display_phone": "(212) 775-8484", "distance": 4964.958532889963}, {"id": "pgtgGAAuHMT0KTm3CDPQsA", "alias": "sorellina-hoboken", "name": "Sorellina", "image_url": "https://s3-media1.fl.yelpcdn.com/bphoto/cU61Jb8iMU96FcucsfAuNw/o.jpg", "is_closed": false, "url": "https://www.yelp.com/biz/sorellina-hoboken?adjust_creative=9gNmiWYX8uTbFBeTTvJMdA&utm_campaign=yelp_api_v3&utm_medium=api_v3_business_search&utm_source=9gNmiWYX8uTbFBeTTvJMdA", "review_count": 359, "categories": [{"alias": "wine_bars", "title": "Wine Bars"}, {"alias": "italian", "title": "Italian"}], "rating": 3.5, "coordinates": {"latitude": 40.74977, "longitude": -74.02746}, "transactions": ["delivery"], "price": "$$", "location": {"address1": "1036 Washington St", "address2": null, "address3": "", "city": "Hoboken", "zip_code": "07030", "country": "US", "state": "NJ", "display_address": ["1036 Washington St", "Hoboken, NJ 07030"]}, "phone": "+12019633333", "display_phone": "(201) 963-3333", "distance": 4987.376260764476}, {"id": "VqnPcfqYltgxAkIuTaGkYg", "alias": "tre-new-york", "name": "Tre", "image_url": "https://s3-media1.fl.yelpcdn.com/bphoto/GTOSuF09iVS7qxDtjivAZg/o.jpg", "is_closed": false, "url": "https://www.yelp.com/biz/tre-new-york?adjust_creative=9gNmiWYX8uTbFBeTTvJMdA&utm_campaign=yelp_api_v3&utm_medium=api_v3_business_search&utm_source=9gNmiWYX8uTbFBeTTvJMdA", "review_count": 518, "categories": [{"alias": "italian", "title": "Italian"}, {"alias": "wine_bars", "title": "Wine Bars"}, {"alias": "modern_european", "title": "Modern European"}], "rating": 4.0, "coordinates": {"latitude": 40.72184, "longitude": -73.987714}, "transactions": ["delivery", "pickup", "restaurant_reservation"], "price": "$$", "location": {"address1": "173 Ludlow St", "address2": "", "address3": "", "city": "New York", "zip_code": "10002", "country": "US", "state": "NY", "display_address": ["173 Ludlow St", "New York, NY 10002"]}, "phone": "+12123533353", "display_phone": "(212) 353-3353", "distance": 4423.797691386554}, {"id": "vAMKgIUWCrYxjfhceCCNAQ", "alias": "sandros-new-york", "name": "Sandro's", "image_url": "https://s3-media1.fl.yelpcdn.com/bphoto/s-lhz2XzltFcmIpm5tXRVQ/o.jpg", "is_closed": false, "url": "https://www.yelp.com/biz/sandros-new-york?adjust_creative=9gNmiWYX8uTbFBeTTvJMdA&utm_campaign=yelp_api_v3&utm_medium=api_v3_business_search&utm_source=9gNmiWYX8uTbFBeTTvJMdA", "review_count": 103, "categories": [{"alias": "italian", "title": "Italian"}], "rating": 4.0, "coordinates": {"latitude": 40.77740421779163, "longitude": -73.9537163}, "transactions": ["delivery", "pickup"], "price": "$$$", "location": {"address1": "322 East 86th St", "address2": "", "address3": "", "city": "New York", "zip_code": "10028", "country": "US", "state": "NY", "display_address": ["322 East 86th St", "New York, NY 10028"]}, "phone": "+12122887374", "display_phone": "(212) 288-7374", "distance": 2427.3933151047504}, {"id": "3D6UAhoKnF3A03rX_v5ngA", "alias": "bacaro-new-york", "name": "Bacaro", "image_url": "https://s3-media3.fl.yelpcdn.com/bphoto/1Y8ukPf2SWvYDXrnn7A3MA/o.jpg", "is_closed": false, "url": "https://www.yelp.com/biz/bacaro-new-york?adjust_creative=9gNmiWYX8uTbFBeTTvJMdA&utm_campaign=yelp_api_v3&utm_medium=api_v3_business_search&utm_source=9gNmiWYX8uTbFBeTTvJMdA", "review_count": 423, "categories": [{"alias": "italian", "title": "Italian"}, {"alias": "wine_bars", "title": "Wine Bars"}, {"alias": "cocktailbars", "title": "Cocktail Bars"}], "rating": 4.0, "coordinates": {"latitude": 40.71456, "longitude": -73.99154}, "transactions": ["delivery", "pickup"], "price": "$$$", "location": {"address1": "136 Division St", "address2": "", "address3": "", "city": "New York", "zip_code": "10002", "country": "US", "state": "NY", "display_address": ["136 Division St", "New York, NY 10002"]}, "phone": "+12129415060", "display_phone": "(212) 941-5060", "distance": 5290.903833647324}, {"id": "JliAIBARXi9uISzNG26DVw", "alias": "elios-new-york", "name": "Elio's", "image_url": "https://s3-media2.fl.yelpcdn.com/bphoto/VrzZkbT_h7u2WsEUfE4wBA/o.jpg", "is_closed": false, "url": "https://www.yelp.com/biz/elios-new-york?adjust_creative=9gNmiWYX8uTbFBeTTvJMdA&utm_campaign=yelp_api_v3&utm_medium=api_v3_business_search&utm_source=9gNmiWYX8uTbFBeTTvJMdA", "review_count": 296, "categories": [{"alias": "italian", "title": "Italian"}], "rating": 3.5, "coordinates": {"latitude": 40.7767632368091, "longitude": -73.9526632086427}, "transactions": ["delivery"], "price": "$$$", "location": {"address1": "1621 2nd Ave", "address2": "", "address3": "", "city": "New York", "zip_code": "10028", "country": "US", "state": "NY", "display_address": ["1621 2nd Ave", "New York, NY 10028"]}, "phone": "+12127722242", "display_phone": "(212) 772-2242", "distance": 2419.322766736236}, {"id": "vhqFa_0SG9M7Ra1OTmfB9A", "alias": "larina-pastificio-and-vino-brooklyn", "name": "LaRina Pastificio & Vino", "image_url": "https://s3-media2.fl.yelpcdn.com/bphoto/i7NlrOt0QFJMOb_GilFO8Q/o.jpg", "is_closed": false, "url": "https://www.yelp.com/biz/larina-pastificio-and-vino-brooklyn?adjust_creative=9gNmiWYX8uTbFBeTTvJMdA&utm_campaign=yelp_api_v3&utm_medium=api_v3_business_search&utm_source=9gNmiWYX8uTbFBeTTvJMdA", "review_count": 217, "categories": [{"alias": "bars", "title": "Bars"}, {"alias": "italian", "title": "Italian"}, {"alias": "pastashops", "title": "Pasta Shops"}], "rating": 4.0, "coordinates": {"latitude": 40.6933631896973, "longitude": -73.9704132080078}, "transactions": ["delivery", "pickup"], "price": "$$", "location": {"address1": "387 Myrtle Ave", "address2": null, "address3": "", "city": "Brooklyn", "zip_code": "11205", "country": "US", "state": "NY", "display_address": ["387 Myrtle Ave", "Brooklyn, NY 11205"]}, "phone": "+17188520001", "display_phone": "(718) 852-0001", "distance": 7321.541934167662}, {"id": "xKIv_b2L2pUHmsoJ-xOepg", "alias": "gran-morsi-new-york", "name": "Gran Morsi", "image_url": "https://s3-media3.fl.yelpcdn.com/bphoto/GpR9eqovfF0zHQ6BgnbvcA/o.jpg", "is_closed": false, "url": "https://www.yelp.com/biz/gran-morsi-new-york?adjust_creative=9gNmiWYX8uTbFBeTTvJMdA&utm_campaign=yelp_api_v3&utm_medium=api_v3_business_search&utm_source=9gNmiWYX8uTbFBeTTvJMdA", "review_count": 462, "categories": [{"alias": "italian", "title": "Italian"}, {"alias": "venues", "title": "Venues & Event Spaces"}], "rating": 4.5, "coordinates": {"latitude": 40.714312, "longitude": -74.007791}, "transactions": ["delivery", "pickup"], "price": "$$$", "location": {"address1": "22 Warren St", "address2": "", "address3": null, "city": "New York", "zip_code": "10007", "country": "US", "state": "NY", "display_address": ["22 Warren St", "New York, NY 10007"]}, "phone": "+12125772725", "display_phone": "(212) 577-2725", "distance": 5936.596047316507}, {"id": "WEhkGLKlj-5X1pq_07Syaw", "alias": "vesta-astoria", "name": "Vesta", "image_url": "https://s3-media3.fl.yelpcdn.com/bphoto/MxpLr6eR-vCz456n0DOSmg/o.jpg", "is_closed": false, "url": "https://www.yelp.com/biz/vesta-astoria?adjust_creative=9gNmiWYX8uTbFBeTTvJMdA&utm_campaign=yelp_api_v3&utm_medium=api_v3_business_search&utm_source=9gNmiWYX8uTbFBeTTvJMdA", "review_count": 751, "categories": [{"alias": "italian", "title": "Italian"}, {"alias": "wine_bars", "title": "Wine Bars"}], "rating": 4.5, "coordinates": {"latitude": 40.76961, "longitude": -73.92776}, "transactions": ["delivery", "pickup"], "price": "$$", "location": {"address1": "21-02 30th Ave", "address2": "", "address3": "", "city": "Astoria", "zip_code": "11102", "country": "US", "state": "NY", "display_address": ["21-02 30th Ave", "Astoria, NY 11102"]}, "phone": "+17185455550", "display_phone": "(718) 545-5550", "distance": 3708.955896753933}, {"id": "hot1lIebdQNau05onRum7w", "alias": "otto-strada-hoboken-3", "name": "Otto Strada", "image_url": "https://s3-media3.fl.yelpcdn.com/bphoto/gTgb-1FyHfUqnUrbjQbsPw/o.jpg", "is_closed": false, "url": "https://www.yelp.com/biz/otto-strada-hoboken-3?adjust_creative=9gNmiWYX8uTbFBeTTvJMdA&utm_campaign=yelp_api_v3&utm_medium=api_v3_business_search&utm_source=9gNmiWYX8uTbFBeTTvJMdA", "review_count": 408, "categories": [{"alias": "italian", "title": "Italian"}, {"alias": "pizza", "title": "Pizza"}, {"alias": "seafood", "title": "Seafood"}], "rating": 4.0, "coordinates": {"latitude": 40.7466038915745, "longitude": -74.0311605558891}, "transactions": ["delivery", "pickup"], "price": "$$", "location": {"address1": "743 Park Ave", "address2": "", "address3": "", "city": "Hoboken", "zip_code": "07030", "country": "US", "state": "NJ", "display_address": ["743 Park Ave", "Hoboken, NJ 07030"]}, "phone": "+12017928880", "display_phone": "(201) 792-8880", "distance": 5372.68075493812}, {"id": "KL6AUMQI_Ae7_brkK0fy_w", "alias": "la-vela-dining-and-bar-new-york", "name": "La Vela Dining & Bar", "image_url": "https://s3-media2.fl.yelpcdn.com/bphoto/AYhLNNgYuceqq924RG6EQg/o.jpg", "is_closed": false, "url": "https://www.yelp.com/biz/la-vela-dining-and-bar-new-york?adjust_creative=9gNmiWYX8uTbFBeTTvJMdA&utm_campaign=yelp_api_v3&utm_medium=api_v3_business_search&utm_source=9gNmiWYX8uTbFBeTTvJMdA", "review_count": 190, "categories": [{"alias": "italian", "title": "Italian"}, {"alias": "bars", "title": "Bars"}, {"alias": "diners", "title": "Diners"}], "rating": 4.0, "coordinates": {"latitude": 40.761082, "longitude": -73.997872}, "transactions": ["delivery", "pickup"], "price": "$$", "location": {"address1": "558 11th Ave", "address2": "", "address3": "", "city": "New York", "zip_code": "10036", "country": "US", "state": "NY", "display_address": ["558 11th Ave", "New York, NY 10036"]}, "phone": "+12126952112", "display_phone": "(212) 695-2112", "distance": 2392.803039512932}, {"id": "MCnexHfsclcOpLHS4_2U0A", "alias": "san-carlo-osteria-piemonte-new-york-2", "name": "San Carlo Osteria Piemonte", "image_url": "https://s3-media2.fl.yelpcdn.com/bphoto/Kdq15WzS-fYlZcbydVMjtA/o.jpg", "is_closed": false, "url": "https://www.yelp.com/biz/san-carlo-osteria-piemonte-new-york-2?adjust_creative=9gNmiWYX8uTbFBeTTvJMdA&utm_campaign=yelp_api_v3&utm_medium=api_v3_business_search&utm_source=9gNmiWYX8uTbFBeTTvJMdA", "review_count": 276, "categories": [{"alias": "italian", "title": "Italian"}, {"alias": "wine_bars", "title": "Wine Bars"}, {"alias": "cocktailbars", "title": "Cocktail Bars"}], "rating": 4.5, "coordinates": {"latitude": 40.72517, "longitude": -74.00212}, "transactions": ["delivery", "pickup"], "price": "$$$", "location": {"address1": "90 Thompson St", "address2": null, "address3": "", "city": "New York", "zip_code": "10012", "country": "US", "state": "NY", "display_address": ["90 Thompson St", "New York, NY 10012"]}, "phone": "+12126251212", "display_phone": "(212) 625-1212", "distance": 4672.190129607156}, {"id": "YqHszHxkqaC6azgrOsRO1Q", "alias": "the-pasta-boss-new-york", "name": "The Pasta Boss", "image_url": "https://s3-media2.fl.yelpcdn.com/bphoto/_ZfWZ1AW_xTxI92TXJS2mw/o.jpg", "is_closed": false, "url": "https://www.yelp.com/biz/the-pasta-boss-new-york?adjust_creative=9gNmiWYX8uTbFBeTTvJMdA&utm_campaign=yelp_api_v3&utm_medium=api_v3_business_search&utm_source=9gNmiWYX8uTbFBeTTvJMdA", "review_count": 14, "categories": [{"alias": "italian", "title": "Italian"}, {"alias": "pastashops", "title": "Pasta Shops"}], "rating": 4.5, "coordinates": {"latitude": 40.71904153293925, "longitude": -73.9975553}, "transactions": ["delivery", "pickup", "restaurant_reservation"], "location": {"address1": "149 Mulberry St", "address2": null, "address3": "", "city": "New York", "zip_code": "10013", "country": "US", "state": "NY", "display_address": ["149 Mulberry St", "New York, NY 10013"]}, "phone": "+16469186993", "display_phone": "(646) 918-6993", "distance": 5047.019371928865}, {"id": "rgk5Yg9_dESPrmrFWTIH0A", "alias": "biamo-new-york", "name": "Biamo", "image_url": "https://s3-media2.fl.yelpcdn.com/bphoto/r0kwAtNr4lSwD5fB7Wh4fA/o.jpg", "is_closed": false, "url": "https://www.yelp.com/biz/biamo-new-york?adjust_creative=9gNmiWYX8uTbFBeTTvJMdA&utm_campaign=yelp_api_v3&utm_medium=api_v3_business_search&utm_source=9gNmiWYX8uTbFBeTTvJMdA", "review_count": 4, "categories": [{"alias": "italian", "title": "Italian"}], "rating": 4.0, "coordinates": {"latitude": 40.72877, "longitude": -74.00318}, "transactions": [], "location": {"address1": "178 W Houston St", "address2": "", "address3": null, "city": "New York", "zip_code": "10014", "country": "US", "state": "NY", "display_address": ["178 W Houston St", "New York, NY 10014"]}, "phone": "", "display_phone": "", "distance": 4401.7625904736}, {"id": "GOEBF8Odq1SPdz4PWJx6PQ", "alias": "serafina-italian-restaurant-always-new-york-2", "name": "Serafina Italian Restaurant Always", "image_url": "https://s3-media2.fl.yelpcdn.com/bphoto/ltz9P3P8ah-GX3YmJo1LBw/o.jpg", "is_closed": false, "url": "https://www.yelp.com/biz/serafina-italian-restaurant-always-new-york-2?adjust_creative=9gNmiWYX8uTbFBeTTvJMdA&utm_campaign=yelp_api_v3&utm_medium=api_v3_business_search&utm_source=9gNmiWYX8uTbFBeTTvJMdA", "review_count": 391, "categories": [{"alias": "italian", "title": "Italian"}, {"alias": "diners", "title": "Diners"}, {"alias": "pizza", "title": "Pizza"}], "rating": 3.0, "coordinates": {"latitude": 40.764789, "longitude": -73.969779}, "transactions": ["delivery", "pickup"], "price": "$$", "location": {"address1": "33 E 61st St", "address2": "", "address3": "", "city": "New York", "zip_code": "10065", "country": "US", "state": "NY", "display_address": ["33 E 61st St", "New York, NY 10065"]}, "phone": "+12127029898", "display_phone": "(212) 702-9898", "distance": 620.9473345174271}, {"id": "M4pCWzdBCkp2g_d834a7Hw", "alias": "sauce-new-york-3", "name": "Sauce", "image_url": "https://s3-media1.fl.yelpcdn.com/bphoto/EtQuNDHcbVhXUplq7s9MFw/o.jpg", "is_closed": false, "url": "https://www.yelp.com/biz/sauce-new-york-3?adjust_creative=9gNmiWYX8uTbFBeTTvJMdA&utm_campaign=yelp_api_v3&utm_medium=api_v3_business_search&utm_source=9gNmiWYX8uTbFBeTTvJMdA", "review_count": 920, "categories": [{"alias": "italian", "title": "Italian"}, {"alias": "desserts", "title": "Desserts"}, {"alias": "comfortfood", "title": "Comfort Food"}], "rating": 4.0, "coordinates": {"latitude": 40.7204716, "longitude": -73.9893263}, "transactions": ["delivery", "pickup"], "price": "$$", "location": {"address1": "78 Rivington St", "address2": "", "address3": "", "city": "New York", "zip_code": "10002", "country": "US", "state": "NY", "display_address": ["78 Rivington St", "New York, NY 10002"]}, "phone": "+12124207700", "display_phone": "(212) 420-7700", "distance": 4614.129307054111}, {"id": "TsYrzVVtkKO4Asrk_L9stw", "alias": "parm-new-york-new-york", "name": "Parm - New York", "image_url": "https://s3-media4.fl.yelpcdn.com/bphoto/WMCjTL4L18aL2vfvTvFPjA/o.jpg", "is_closed": false, "url": "https://www.yelp.com/biz/parm-new-york-new-york?adjust_creative=9gNmiWYX8uTbFBeTTvJMdA&utm_campaign=yelp_api_v3&utm_medium=api_v3_business_search&utm_source=9gNmiWYX8uTbFBeTTvJMdA", "review_count": 716, "categories": [{"alias": "italian", "title": "Italian"}, {"alias": "sandwiches", "title": "Sandwiches"}], "rating": 3.5, "coordinates": {"latitude": 40.7764333, "longitude": -73.9794019}, "transactions": ["delivery", "pickup"], "price": "$$", "location": {"address1": "235 Columbus Ave", "address2": "", "address3": "", "city": "New York", "zip_code": "10023", "country": "US", "state": "NY", "display_address": ["235 Columbus Ave", "New York, NY 10023"]}, "phone": "+12127764921", "display_phone": "(212) 776-4921", "distance": 2085.954772924102}, {"id": "e4L0hsq6Q96mV2nKQ9CgNQ", "alias": "tramonti-fifth-ave-new-york-2", "name": "Tramonti Fifth Ave", "image_url": "https://s3-media3.fl.yelpcdn.com/bphoto/CND5GC5chYOzoihD2arjqA/o.jpg", "is_closed": false, "url": "https://www.yelp.com/biz/tramonti-fifth-ave-new-york-2?adjust_creative=9gNmiWYX8uTbFBeTTvJMdA&utm_campaign=yelp_api_v3&utm_medium=api_v3_business_search&utm_source=9gNmiWYX8uTbFBeTTvJMdA", "review_count": 55, "categories": [{"alias": "italian", "title": "Italian"}, {"alias": "seafood", "title": "Seafood"}, {"alias": "pizza", "title": "Pizza"}], "rating": 4.5, "coordinates": {"latitude": 40.74475, "longitude": -73.98772}, "transactions": ["delivery", "pickup"], "location": {"address1": "2 W 28th St", "address2": null, "address3": null, "city": "New York", "zip_code": "10001", "country": "US", "state": "NY", "display_address": ["2 W 28th St", "New York, NY 10001"]}, "phone": "+12124647082", "display_phone": "(212) 464-7082", "distance": 2218.8677165556996}, {"id": "CygcAgexrpJGY8iWp7QqnA", "alias": "antonucci-cafe-new-york", "name": "Antonucci Cafe", "image_url": "https://s3-media3.fl.yelpcdn.com/bphoto/eknzUFDoehE9uVaep4i0Tw/o.jpg", "is_closed": false, "url": "https://www.yelp.com/biz/antonucci-cafe-new-york?adjust_creative=9gNmiWYX8uTbFBeTTvJMdA&utm_campaign=yelp_api_v3&utm_medium=api_v3_business_search&utm_source=9gNmiWYX8uTbFBeTTvJMdA", "review_count": 178, "categories": [{"alias": "italian", "title": "Italian"}, {"alias": "cafes", "title": "Cafes"}], "rating": 4.0, "coordinates": {"latitude": 40.77574, "longitude": -73.95689}, "transactions": ["delivery", "pickup"], "price": "$$$", "location": {"address1": "170 E 81st St", "address2": "", "address3": "", "city": "New York", "zip_code": "10028", "country": "US", "state": "NY", "display_address": ["170 E 81st St", "New York, NY 10028"]}, "phone": "+12125705100", "display_phone": "(212) 570-5100", "distance": 2123.5705728645225}, {"id": "-8_vEcBA2Lqd8786S-Ss-g", "alias": "novita-restaurant-new-york", "name": "Novita Restaurant", "image_url": "https://s3-media1.fl.yelpcdn.com/bphoto/rEE4Dit47lKqQ01eBj7mhQ/o.jpg", "is_closed": false, "url": "https://www.yelp.com/biz/novita-restaurant-new-york?adjust_creative=9gNmiWYX8uTbFBeTTvJMdA&utm_campaign=yelp_api_v3&utm_medium=api_v3_business_search&utm_source=9gNmiWYX8uTbFBeTTvJMdA", "review_count": 425, "categories": [{"alias": "italian", "title": "Italian"}], "rating": 4.0, "coordinates": {"latitude": 40.73918, "longitude": -73.98629}, "transactions": ["delivery", "pickup"], "price": "$$$", "location": {"address1": "102 E 22nd St", "address2": "", "address3": "", "city": "New York", "zip_code": "10010", "country": "US", "state": "NY", "display_address": ["102 E 22nd St", "New York, NY 10010"]}, "phone": "+12126772222", "display_phone": "(212) 677-2222", "distance": 2643.3151724918957}, {"id": "hq09sqXaYiEogbTrrJ9X5g", "alias": "da-capo-columbus-new-york", "name": "Da Capo Columbus", "image_url": "https://s3-media1.fl.yelpcdn.com/bphoto/X3tHQ5f3SXbxlBU2Rgma9g/o.jpg", "is_closed": false, "url": "https://www.yelp.com/biz/da-capo-columbus-new-york?adjust_creative=9gNmiWYX8uTbFBeTTvJMdA&utm_campaign=yelp_api_v3&utm_medium=api_v3_business_search&utm_source=9gNmiWYX8uTbFBeTTvJMdA", "review_count": 157, "categories": [{"alias": "cocktailbars", "title": "Cocktail Bars"}, {"alias": "coffee", "title": "Coffee & Tea"}], "rating": 4.0, "coordinates": {"latitude": 40.77972, "longitude": -73.97752}, "transactions": ["delivery", "pickup"], "price": "$$", "location": {"address1": "322 Columbus Ave", "address2": null, "address3": "", "city": "New York", "zip_code": "10023", "country": "US", "state": "NY", "display_address": ["322 Columbus Ave", "New York, NY 10023"]}, "phone": "+16468820197", "display_phone": "(646) 882-0197", "distance": 2370.598421382392}, {"id": "rOYVPZLrPjp5zUcAz1buKA", "alias": "pozzo-vivo-new-york", "name": "Pozzo Vivo", "image_url": "https://s3-media2.fl.yelpcdn.com/bphoto/tEuYIBrztnV7rXZzsSiP6A/o.jpg", "is_closed": false, "url": "https://www.yelp.com/biz/pozzo-vivo-new-york?adjust_creative=9gNmiWYX8uTbFBeTTvJMdA&utm_campaign=yelp_api_v3&utm_medium=api_v3_business_search&utm_source=9gNmiWYX8uTbFBeTTvJMdA", "review_count": 4, "categories": [{"alias": "italian", "title": "Italian"}], "rating": 4.5, "coordinates": {"latitude": 40.76182, "longitude": -73.98994}, "transactions": [], "location": {"address1": "690 9th Ave", "address2": "", "address3": null, "city": "New York", "zip_code": "10036", "country": "US", "state": "NY", "display_address": ["690 9th Ave", "New York, NY 10036"]}, "phone": "+19172616399", "display_phone": "(917) 261-6399", "distance": 1729.841510608871}], "total": 4600, "region": {"center": {"longitude": -73.96957397460938, "latitude": 40.75917470627005}}}