{"businesses": [{"id": "kM96WKoW1glLP94DYfFXeQ", "alias": "ciao-bella-new-york-5", "name": "Ciao Bella", "image_url": "https://s3-media1.fl.yelpcdn.com/bphoto/p35PzztMWTssEfpeQafMsg/o.jpg", "is_closed": false, "url": "https://www.yelp.com/biz/ciao-bella-new-york-5?adjust_creative=9gNmiWYX8uTbFBeTTvJMdA&utm_campaign=yelp_api_v3&utm_medium=api_v3_business_search&utm_source=9gNmiWYX8uTbFBeTTvJMdA", "review_count": 18, "categories": [{"alias": "pizza", "title": "Pizza"}, {"alias": "sicilian", "title": "Sicilian"}], "rating": 4.0, "coordinates": {"latitude": 40.74507, "longitude": -73.99462}, "transactions": ["delivery", "pickup"], "location": {"address1": "257 7th Ave", "address2": "", "address3": null, "city": "New York", "zip_code": "10001", "country": "US", "state": "NY", "display_address": ["257 7th Ave", "New York, NY 10001"]}, "phone": "+12126754050", "display_phone": "(212) 675-4050", "distance": 2630.0216342324093}, {"id": "pC_QwLpeL2Enk4hBgDcRqQ", "alias": "da-marino-new-york-4", "name": "Da Marino", "image_url": "https://s3-media2.fl.yelpcdn.com/bphoto/G8hcbOroUZxcgOzshD2oXg/o.jpg", "is_closed": false, "url": "https://www.yelp.com/biz/da-marino-new-york-4?adjust_creative=9gNmiWYX8uTbFBeTTvJMdA&utm_campaign=yelp_api_v3&utm_medium=api_v3_business_search&utm_source=9gNmiWYX8uTbFBeTTvJMdA", "review_count": 656, "categories": [{"alias": "italian", "title": "Italian"}], "rating": 4.0, "coordinates": {"latitude": 40.76102, "longitude": -73.98526}, "transactions": ["delivery", "pickup"], "price": "$$$", "location": {"address1": "220 W 49th St", "address2": "", "address3": "", "city": "New York", "zip_code": "10019", "country": "US", "state": "NY", "display_address": ["220 W 49th St", "New York, NY 10019"]}, "phone": "+12125416601", "display_phone": "(212) 541-6601", "distance": 1339.9314431894989}, {"id": "ZFaIpks0AmQKdFvqYbj0QQ", "alias": "barbalu-brooklyn-brooklyn", "name": "Barbalu - Brooklyn", "image_url": "https://s3-media2.fl.yelpcdn.com/bphoto/Yni2QLnP-LIccztJahK-Lw/o.jpg", "is_closed": false, "url": "https://www.yelp.com/biz/barbalu-brooklyn-brooklyn?adjust_creative=9gNmiWYX8uTbFBeTTvJMdA&utm_campaign=yelp_api_v3&utm_medium=api_v3_business_search&utm_source=9gNmiWYX8uTbFBeTTvJMdA", "review_count": 53, "categories": [{"alias": "italian", "title": "Italian"}, {"alias": "pizza", "title": "Pizza"}, {"alias": "venues", "title": "Venues & Event Spaces"}], "rating": 4.5, "coordinates": {"latitude": 40.68675727907743, "longitude": -73.99101547782092}, "transactions": ["delivery", "pickup"], "location": {"address1": "68 Bergen St", "address2": null, "address3": "", "city": "Brooklyn", "zip_code": "11201", "country": "US", "state": "NY", "display_address": ["68 Bergen St", "Brooklyn, NY 11201"]}, "phone": "+13472944287", "display_phone": "(347) 294-4287", "distance": 8252.680243729574}, {"id": "Jgaf3JmVaPokYB3ezbhjCQ", "alias": "caravaggio-new-york", "name": "Caravaggio", "image_url": "https://s3-media2.fl.yelpcdn.com/bphoto/XBLEKPS1rQQe64DPJHDL6A/o.jpg", "is_closed": false, "url": "https://www.yelp.com/biz/caravaggio-new-york?adjust_creative=9gNmiWYX8uTbFBeTTvJMdA&utm_campaign=yelp_api_v3&utm_medium=api_v3_business_search&utm_source=9gNmiWYX8uTbFBeTTvJMdA", "review_count": 145, "categories": [{"alias": "italian", "title": "Italian"}, {"alias": "venues", "title": "Venues & Event Spaces"}, {"alias": "cocktailbars", "title": "Cocktail Bars"}], "rating": 4.0, "coordinates": {"latitude": 40.7734565734863, "longitude": -73.964729309082}, "transactions": ["delivery"], "price": "$$$$", "location": {"address1": "23 E 74th St", "address2": "", "address3": "", "city": "New York", "zip_code": "10021", "country": "US", "state": "NY", "display_address": ["23 E 74th St", "New York, NY 10021"]}, "phone": "+12122881004", "display_phone": "(212) 288-1004", "distance": 1637.8993714547942}, {"id": "DI_FoHY84hfzTWwlzF76aw", "alias": "benito-one-new-york", "name": "Benito One", "image_url": "https://s3-media2.fl.yelpcdn.com/bphoto/K0M6vvsD8ICmA_wMUY8GaA/o.jpg", "is_closed": false, "url": "https://www.yelp.com/biz/benito-one-new-york?adjust_creative=9gNmiWYX8uTbFBeTTvJMdA&utm_campaign=yelp_api_v3&utm_medium=api_v3_business_search&utm_source=9gNmiWYX8uTbFBeTTvJMdA", "review_count": 809, "categories": [{"alias": "italian", "title": "Italian"}], "rating": 4.0, "coordinates": {"latitude": 40.7200188460948, "longitude": -73.9969412164592}, "transactions": ["delivery", "pickup"], "price": "$$", "location": {"address1": "174 Mulberry St", "address2": "", "address3": "", "city": "New York", "zip_code": "10013", "country": "US", "state": "NY", "display_address": ["174 Mulberry St", "New York, NY 10013"]}, "phone": "+12122269171", "display_phone": "(212) 226-9171", "distance": 4926.759148643202}, {"id": "MTQpqHo-cCAPK7c9fd6zHw", "alias": "il-mattone-new-york-3", "name": "Il Mattone", "image_url": "https://s3-media1.fl.yelpcdn.com/bphoto/3WQQ9SbMIvXJjLJjKoQJMg/o.jpg", "is_closed": false, "url": "https://www.yelp.com/biz/il-mattone-new-york-3?adjust_creative=9gNmiWYX8uTbFBeTTvJMdA&utm_campaign=yelp_api_v3&utm_medium=api_v3_business_search&utm_source=9gNmiWYX8uTbFBeTTvJMdA", "review_count": 108, "categories": [{"alias": "italian", "title": "Italian"}, {"alias": "pizza", "title": "Pizza"}], "rating": 4.5, "coordinates": {"latitude": 40.720799, "longitude": -74.0091255}, "transactions": ["delivery", "pickup"], "price": "$", "location": {"address1": "49 Beach St", "address2": "", "address3": "", "city": "New York", "zip_code": "10013", "country": "US", "state": "NY", "display_address": ["49 Beach St", "New York, NY 10013"]}, "phone": "+16469644623", "display_phone": "(646) 964-4623", "distance": 5414.099416359792}, {"id": "qz0eIwvXkVTRAyGjJZpOFg", "alias": "valbella-at-the-park-new-york", "name": "Valbella At The Park", "image_url": "https://s3-media1.fl.yelpcdn.com/bphoto/4-nwLF3dZT_cZj2A74-xTQ/o.jpg", "is_closed": false, "url": "https://www.yelp.com/biz/valbella-at-the-park-new-york?adjust_creative=9gNmiWYX8uTbFBeTTvJMdA&utm_campaign=yelp_api_v3&utm_medium=api_v3_business_search&utm_source=9gNmiWYX8uTbFBeTTvJMdA", "review_count": 10, "categories": [{"alias": "italian", "title": "Italian"}], "rating": 4.0, "coordinates": {"latitude": 40.75472, "longitude": -73.98345}, "transactions": [], "location": {"address1": "3 Bryant Pk", "address2": "", "address3": null, "city": "New York", "zip_code": "10036", "country": "US", "state": "NY", "display_address": ["3 Bryant Pk", "New York, NY 10036"]}, "phone": "+12128888959", "display_phone": "(212) 888-8959", "distance": 1390.525560693151}, {"id": "YT5Ywu9y190B4IGIlBetzA", "alias": "morandi-new-york", "name": "Morandi", "image_url": "https://s3-media3.fl.yelpcdn.com/bphoto/WmRzvCraeXPupRxY7UNU0Q/o.jpg", "is_closed": false, "url": "https://www.yelp.com/biz/morandi-new-york?adjust_creative=9gNmiWYX8uTbFBeTTvJMdA&utm_campaign=yelp_api_v3&utm_medium=api_v3_business_search&utm_source=9gNmiWYX8uTbFBeTTvJMdA", "review_count": 777, "categories": [{"alias": "italian", "title": "Italian"}, {"alias": "desserts", "title": "Desserts"}, {"alias": "breakfast_brunch", "title": "Breakfast & Brunch"}], "rating": 3.5, "coordinates": {"latitude": 40.73534, "longitude": -74.00151}, "transactions": ["delivery", "pickup"], "price": "$$", "location": {"address1": "211 Waverly Pl", "address2": "", "address3": "", "city": "New York", "zip_code": "10014", "country": "US", "state": "NY", "display_address": ["211 Waverly Pl", "New York, NY 10014"]}, "phone": "+12126277575", "display_phone": "(212) 627-7575", "distance": 3773.3800142978457}, {"id": "53ZNJNrT91VgvrI0LFjLNQ", "alias": "locanda-vini-e-olii-brooklyn-4", "name": "Locanda Vini e Olii", "image_url": "https://s3-media1.fl.yelpcdn.com/bphoto/4YwmIuacjpAJe9YvHk8lCQ/o.jpg", "is_closed": false, "url": "https://www.yelp.com/biz/locanda-vini-e-olii-brooklyn-4?adjust_creative=9gNmiWYX8uTbFBeTTvJMdA&utm_campaign=yelp_api_v3&utm_medium=api_v3_business_search&utm_source=9gNmiWYX8uTbFBeTTvJMdA", "review_count": 335, "categories": [{"alias": "italian", "title": "Italian"}, {"alias": "wine_bars", "title": "Wine Bars"}], "rating": 4.0, "coordinates": {"latitude": 40.685007, "longitude": -73.962943}, "transactions": ["delivery"], "price": "$$$", "location": {"address1": "129 Gates Ave", "address2": null, "address3": "", "city": "Brooklyn", "zip_code": "11238", "country": "US", "state": "NY", "display_address": ["129 Gates Ave", "Brooklyn, NY 11238"]}, "phone": "+17186229202", "display_phone": "(718) 622-9202", "distance": 8265.973911446392}, {"id": "2Nwmd7-1d1rI6lb9QSSYYA", "alias": "a-pasta-bar-new-york", "name": "A Pasta Bar", "image_url": "https://s3-media2.fl.yelpcdn.com/bphoto/4VDTeJrDb4PTdSiVLEeCag/o.jpg", "is_closed": false, "url": "https://www.yelp.com/biz/a-pasta-bar-new-york?adjust_creative=9gNmiWYX8uTbFBeTTvJMdA&utm_campaign=yelp_api_v3&utm_medium=api_v3_business_search&utm_source=9gNmiWYX8uTbFBeTTvJMdA", "review_count": 468, "categories": [{"alias": "italian", "title": "Italian"}, {"alias": "bars", "title": "Bars"}], "rating": 4.0, "coordinates": {"latitude": 40.72229, "longitude": -74.00403}, "transactions": ["delivery", "pickup"], "price": "$$$", "location": {"address1": "330 W Broadway", "address2": "", "address3": null, "city": "New York", "zip_code": "10013", "country": "US", "state": "NY", "display_address": ["330 W Broadway", "New York, NY 10013"]}, "phone": "+16467624056", "display_phone": "(646) 762-4056", "distance": 5024.036033954948}, {"id": "B0qxEXABa8-t9sY4NQRRsQ", "alias": "fumo-harlem-new-york", "name": "Fumo - Harlem", "image_url": "https://s3-media3.fl.yelpcdn.com/bphoto/MA3z9PkAiKx2vdRCusovjA/o.jpg", "is_closed": false, "url": "https://www.yelp.com/biz/fumo-harlem-new-york?adjust_creative=9gNmiWYX8uTbFBeTTvJMdA&utm_campaign=yelp_api_v3&utm_medium=api_v3_business_search&utm_source=9gNmiWYX8uTbFBeTTvJMdA", "review_count": 554, "categories": [{"alias": "pizza", "title": "Pizza"}, {"alias": "italian", "title": "Italian"}, {"alias": "bars", "title": "Bars"}], "rating": 4.0, "coordinates": {"latitude": 40.821427, "longitude": -73.950638}, "transactions": ["delivery", "pickup"], "price": "$$", "location": {"address1": "1600 Amsterdam Ave", "address2": "", "address3": null, "city": "New York", "zip_code": "10031", "country": "US", "state": "NY", "display_address": ["1600 Amsterdam Ave", "New York, NY 10031"]}, "phone": "+16466926675", "display_phone": "(646) 692-6675", "distance": 7103.3240386974385}, {"id": "XzkmePjJC0ryuqZp5qd12A", "alias": "fresco-by-scotto-new-york", "name": "Fresco By Scotto", "image_url": "https://s3-media2.fl.yelpcdn.com/bphoto/DssHs-xmI2Xu6Q6N5FdynA/o.jpg", "is_closed": false, "url": "https://www.yelp.com/biz/fresco-by-scotto-new-york?adjust_creative=9gNmiWYX8uTbFBeTTvJMdA&utm_campaign=yelp_api_v3&utm_medium=api_v3_business_search&utm_source=9gNmiWYX8uTbFBeTTvJMdA", "review_count": 488, "categories": [{"alias": "italian", "title": "Italian"}], "rating": 3.5, "coordinates": {"latitude": 40.758896, "longitude": -73.97444438329205}, "transactions": ["delivery", "pickup"], "price": "$$$", "location": {"address1": "34 E 52nd St", "address2": "", "address3": "", "city": "New York", "zip_code": "10022", "country": "US", "state": "NY", "display_address": ["34 E 52nd St", "New York, NY 10022"]}, "phone": "+12129353434", "display_phone": "(212) 935-3434", "distance": 411.38324312549815}, {"id": "FpgzHQMSNTTjagrKXxOw5A", "alias": "san-matteo-pizzeria-e-cucina-new-york", "name": "San Matteo Pizzeria e Cucina", "image_url": "https://s3-media2.fl.yelpcdn.com/bphoto/30b5oA3RNlrfDKAouFqeIg/o.jpg", "is_closed": false, "url": "https://www.yelp.com/biz/san-matteo-pizzeria-e-cucina-new-york?adjust_creative=9gNmiWYX8uTbFBeTTvJMdA&utm_campaign=yelp_api_v3&utm_medium=api_v3_business_search&utm_source=9gNmiWYX8uTbFBeTTvJMdA", "review_count": 389, "categories": [{"alias": "pizza", "title": "Pizza"}, {"alias": "italian", "title": "Italian"}, {"alias": "wine_bars", "title": "Wine Bars"}], "rating": 3.5, "coordinates": {"latitude": 40.7746799, "longitude": -73.95443}, "transactions": ["delivery", "pickup"], "price": "$$", "location": {"address1": "1559 2nd Ave", "address2": "", "address3": "", "city": "New York", "zip_code": "10028", "country": "US", "state": "NY", "display_address": ["1559 2nd Ave", "New York, NY 10028"]}, "phone": "+12128612434", "display_phone": "(212) 861-2434", "distance": 2143.796910461869}, {"id": "h2HPWsBX3ABNvLHbP3KzqA", "alias": "la-stanza-new-york", "name": "La Stanza", "image_url": "https://s3-media2.fl.yelpcdn.com/bphoto/Ppbi41N4OzozO1Fu4TeaNQ/o.jpg", "is_closed": false, "url": "https://www.yelp.com/biz/la-stanza-new-york?adjust_creative=9gNmiWYX8uTbFBeTTvJMdA&utm_campaign=yelp_api_v3&utm_medium=api_v3_business_search&utm_source=9gNmiWYX8uTbFBeTTvJMdA", "review_count": 51, "categories": [{"alias": "italian", "title": "Italian"}], "rating": 4.0, "coordinates": {"latitude": 40.74969, "longitude": -73.9775}, "transactions": ["delivery", "pickup"], "price": "$$", "location": {"address1": "334 B Lexington Ave", "address2": "", "address3": "", "city": "New York", "zip_code": "10016", "country": "US", "state": "NY", "display_address": ["334 B Lexington Ave", "New York, NY 10016"]}, "phone": "+12128839556", "display_phone": "(212) 883-9556", "distance": 1248.4407317161988}, {"id": "LRgB2kEKtBxqIxNksTO_PQ", "alias": "patrizias-williamsburg-brooklyn", "name": "Patrizia's - Williamsburg", "image_url": "https://s3-media1.fl.yelpcdn.com/bphoto/OsItAhnu1KLVGxPfVAqFkA/o.jpg", "is_closed": false, "url": "https://www.yelp.com/biz/patrizias-williamsburg-brooklyn?adjust_creative=9gNmiWYX8uTbFBeTTvJMdA&utm_campaign=yelp_api_v3&utm_medium=api_v3_business_search&utm_source=9gNmiWYX8uTbFBeTTvJMdA", "review_count": 795, "categories": [{"alias": "pizza", "title": "Pizza"}, {"alias": "italian", "title": "Italian"}], "rating": 4.0, "coordinates": {"latitude": 40.7109154314181, "longitude": -73.9673637711639}, "transactions": ["delivery", "pickup"], "price": "$$", "location": {"address1": "35 Broadway", "address2": "", "address3": "", "city": "Brooklyn", "zip_code": "11249", "country": "US", "state": "NY", "display_address": ["35 Broadway", "Brooklyn, NY 11249"]}, "phone": "+17182189272", "display_phone": "(718) 218-9272", "distance": 5369.410872851548}, {"id": "yIFI6afTRP-tBhY6WsUOPg", "alias": "popina-brooklyn", "name": "Popina", "image_url": "https://s3-media1.fl.yelpcdn.com/bphoto/hYTcd6re-SwzvrgF5mZYZQ/o.jpg", "is_closed": false, "url": "https://www.yelp.com/biz/popina-brooklyn?adjust_creative=9gNmiWYX8uTbFBeTTvJMdA&utm_campaign=yelp_api_v3&utm_medium=api_v3_business_search&utm_source=9gNmiWYX8uTbFBeTTvJMdA", "review_count": 89, "categories": [{"alias": "southern", "title": "Southern"}, {"alias": "italian", "title": "Italian"}], "rating": 4.5, "coordinates": {"latitude": 40.687361962701, "longitude": -74.0014251909241}, "transactions": ["delivery", "pickup"], "price": "$$", "location": {"address1": "127 Columbia St", "address2": "", "address3": null, "city": "Brooklyn", "zip_code": "11231", "country": "US", "state": "NY", "display_address": ["127 Columbia St", "Brooklyn, NY 11231"]}, "phone": "+17182221901", "display_phone": "(718) 222-1901", "distance": 8424.255301760462}, {"id": "gTEoEsssfbjl76Opf5bP9g", "alias": "l-amico-nyc-new-york", "name": "L'Amico NYC", "image_url": "https://s3-media2.fl.yelpcdn.com/bphoto/wrm_1-MsZd3Lke5q4YDnFw/o.jpg", "is_closed": false, "url": "https://www.yelp.com/biz/l-amico-nyc-new-york?adjust_creative=9gNmiWYX8uTbFBeTTvJMdA&utm_campaign=yelp_api_v3&utm_medium=api_v3_business_search&utm_source=9gNmiWYX8uTbFBeTTvJMdA", "review_count": 548, "categories": [{"alias": "italian", "title": "Italian"}, {"alias": "bars", "title": "Bars"}, {"alias": "pizza", "title": "Pizza"}], "rating": 3.5, "coordinates": {"latitude": 40.7471761, "longitude": -73.9898915}, "transactions": ["delivery", "pickup"], "price": "$$$", "location": {"address1": "849 6th Ave", "address2": "", "address3": "Eventi Hotel", "city": "New York", "zip_code": "10001", "country": "US", "state": "NY", "display_address": ["849 6th Ave", "Eventi Hotel", "New York, NY 10001"]}, "phone": "+12122014065", "display_phone": "(212) 201-4065", "distance": 2199.592820653688}, {"id": "-0fjWWC2SY6kNxGfD8PKGg", "alias": "palermo-restaurant-and-bar-astoria-2", "name": "Palermo Restaurant & Bar", "image_url": "https://s3-media1.fl.yelpcdn.com/bphoto/3lsiWM-gbp-MkOuwoKb7TQ/o.jpg", "is_closed": false, "url": "https://www.yelp.com/biz/palermo-restaurant-and-bar-astoria-2?adjust_creative=9gNmiWYX8uTbFBeTTvJMdA&utm_campaign=yelp_api_v3&utm_medium=api_v3_business_search&utm_source=9gNmiWYX8uTbFBeTTvJMdA", "review_count": 291, "categories": [{"alias": "italian", "title": "Italian"}, {"alias": "bars", "title": "Bars"}], "rating": 4.5, "coordinates": {"latitude": 40.7769088448014, "longitude": -73.9212289547099}, "transactions": ["delivery", "pickup"], "price": "$$", "location": {"address1": "2392 21st St", "address2": "", "address3": "", "city": "Astoria", "zip_code": "11105", "country": "US", "state": "NY", "display_address": ["2392 21st St", "Astoria, NY 11105"]}, "phone": "+17182670010", "display_phone": "(718) 267-0010", "distance": 4523.763835005561}, {"id": "UjzSeETESWzramhdOdWKKQ", "alias": "tartina-new-york-4", "name": "Tartina", "image_url": "https://s3-media1.fl.yelpcdn.com/bphoto/0KthbCRpSa6Hsan8cTlntQ/o.jpg", "is_closed": false, "url": "https://www.yelp.com/biz/tartina-new-york-4?adjust_creative=9gNmiWYX8uTbFBeTTvJMdA&utm_campaign=yelp_api_v3&utm_medium=api_v3_business_search&utm_source=9gNmiWYX8uTbFBeTTvJMdA", "review_count": 321, "categories": [{"alias": "italian", "title": "Italian"}], "rating": 4.0, "coordinates": {"latitude": 40.8035073, "longitude": -73.9636591}, "transactions": ["delivery", "pickup"], "price": "$$", "location": {"address1": "1034 Amsterdam Ave", "address2": "", "address3": null, "city": "New York", "zip_code": "10025", "country": "US", "state": "NY", "display_address": ["1034 Amsterdam Ave", "New York, NY 10025"]}, "phone": "+16465900577", "display_phone": "(646) 590-0577", "distance": 4971.761216569313}, {"id": "i5cdbiw1KRyg4w0X44ZBwA", "alias": "mezzaluna-new-york", "name": "Mezzaluna", "image_url": "https://s3-media3.fl.yelpcdn.com/bphoto/7wMmE6ZFqpiYLdfNjtkJBw/o.jpg", "is_closed": false, "url": "https://www.yelp.com/biz/mezzaluna-new-york?adjust_creative=9gNmiWYX8uTbFBeTTvJMdA&utm_campaign=yelp_api_v3&utm_medium=api_v3_business_search&utm_source=9gNmiWYX8uTbFBeTTvJMdA", "review_count": 165, "categories": [{"alias": "italian", "title": "Italian"}], "rating": 3.5, "coordinates": {"latitude": 40.771125, "longitude": -73.959251}, "transactions": ["delivery", "pickup"], "price": "$$$", "location": {"address1": "1295 3rd Ave", "address2": "", "address3": "", "city": "New York", "zip_code": "10021", "country": "US", "state": "NY", "display_address": ["1295 3rd Ave", "New York, NY 10021"]}, "phone": "+12125359600", "display_phone": "(212) 535-9600", "distance": 1590.6809553325577}, {"id": "ezu7Ai6ADfHDYCklvuipWA", "alias": "arturos-new-york-5", "name": "Arturo's", "image_url": "https://s3-media1.fl.yelpcdn.com/bphoto/bwaTDDJlXdq8omE3xQr4eA/o.jpg", "is_closed": false, "url": "https://www.yelp.com/biz/arturos-new-york-5?adjust_creative=9gNmiWYX8uTbFBeTTvJMdA&utm_campaign=yelp_api_v3&utm_medium=api_v3_business_search&utm_source=9gNmiWYX8uTbFBeTTvJMdA", "review_count": 97, "categories": [{"alias": "italian", "title": "Italian"}], "rating": 4.0, "coordinates": {"latitude": 40.775478, "longitude": -73.947847}, "transactions": ["delivery", "pickup"], "price": "$$$", "location": {"address1": "1617 York Ave", "address2": "", "address3": "", "city": "New York", "zip_code": "10028", "country": "US", "state": "NY", "display_address": ["1617 York Ave", "New York, NY 10028"]}, "phone": "+12125354480", "display_phone": "(212) 535-4480", "distance": 2575.7249831148215}, {"id": "ft2OPgLsquG9d7XrBLULng", "alias": "alidoro-bryant-park-new-york", "name": "ALIDORO - Bryant Park", "image_url": "https://s3-media4.fl.yelpcdn.com/bphoto/WV3to-I6E4R48fFOo-SR9A/o.jpg", "is_closed": false, "url": "https://www.yelp.com/biz/alidoro-bryant-park-new-york?adjust_creative=9gNmiWYX8uTbFBeTTvJMdA&utm_campaign=yelp_api_v3&utm_medium=api_v3_business_search&utm_source=9gNmiWYX8uTbFBeTTvJMdA", "review_count": 266, "categories": [{"alias": "sandwiches", "title": "Sandwiches"}, {"alias": "italian", "title": "Italian"}], "rating": 4.0, "coordinates": {"latitude": 40.75097, "longitude": -73.98108}, "transactions": ["delivery", "pickup"], "price": "$$", "location": {"address1": "18 E 39th St", "address2": null, "address3": "", "city": "New York", "zip_code": "10016", "country": "US", "state": "NY", "display_address": ["18 E 39th St", "New York, NY 10016"]}, "phone": "+16466924330", "display_phone": "(646) 692-4330", "distance": 1344.0343490989458}, {"id": "sRH-6ZY0gDbS4DhfUZU6zw", "alias": "soda-club-new-york", "name": "Soda Club", "image_url": "https://s3-media1.fl.yelpcdn.com/bphoto/KXyLA9FtSbK9XLOaaejm2Q/o.jpg", "is_closed": false, "url": "https://www.yelp.com/biz/soda-club-new-york?adjust_creative=9gNmiWYX8uTbFBeTTvJMdA&utm_campaign=yelp_api_v3&utm_medium=api_v3_business_search&utm_source=9gNmiWYX8uTbFBeTTvJMdA", "review_count": 58, "categories": [{"alias": "wine_bars", "title": "Wine Bars"}, {"alias": "italian", "title": "Italian"}, {"alias": "vegan", "title": "Vegan"}], "rating": 4.5, "coordinates": {"latitude": 40.726654, "longitude": -73.979875}, "transactions": ["delivery", "pickup"], "location": {"address1": "155 Avenue B", "address2": null, "address3": null, "city": "New York", "zip_code": "10009", "country": "US", "state": "NY", "display_address": ["155 Avenue B", "New York, NY 10009"]}, "phone": "+18333284588", "display_phone": "(833) 328-4588", "distance": 3718.3514657609426}, {"id": "MT_a_Tg3ENdxqZFQyJocgQ", "alias": "joanne-trattoria-new-york-3", "name": "Joanne Trattoria", "image_url": "https://s3-media1.fl.yelpcdn.com/bphoto/uMuB5L-15lMdj_WErv79_A/o.jpg", "is_closed": false, "url": "https://www.yelp.com/biz/joanne-trattoria-new-york-3?adjust_creative=9gNmiWYX8uTbFBeTTvJMdA&utm_campaign=yelp_api_v3&utm_medium=api_v3_business_search&utm_source=9gNmiWYX8uTbFBeTTvJMdA", "review_count": 611, "categories": [{"alias": "italian", "title": "Italian"}, {"alias": "comfortfood", "title": "Comfort Food"}, {"alias": "bars", "title": "Bars"}], "rating": 3.5, "coordinates": {"latitude": 40.774527071184984, "longitude": -73.98030317398896}, "transactions": ["delivery", "pickup"], "price": "$$", "location": {"address1": "70 W 68th St", "address2": "", "address3": "", "city": "New York", "zip_code": "10023", "country": "US", "state": "NY", "display_address": ["70 W 68th St", "New York, NY 10023"]}, "phone": "+12127210068", "display_phone": "(212) 721-0068", "distance": 1931.4862999407173}, {"id": "wLzJbddDixAEZrF7VT6_hw", "alias": "bono-trattoria-new-york", "name": "Bono Trattoria", "image_url": "https://s3-media2.fl.yelpcdn.com/bphoto/AgnZ0wQQT5GnWsJo-D-C8Q/o.jpg", "is_closed": false, "url": "https://www.yelp.com/biz/bono-trattoria-new-york?adjust_creative=9gNmiWYX8uTbFBeTTvJMdA&utm_campaign=yelp_api_v3&utm_medium=api_v3_business_search&utm_source=9gNmiWYX8uTbFBeTTvJMdA", "review_count": 354, "categories": [{"alias": "pizza", "title": "Pizza"}, {"alias": "italian", "title": "Italian"}], "rating": 4.5, "coordinates": {"latitude": 40.8301996389829, "longitude": -73.9473449424522}, "transactions": ["delivery", "pickup"], "price": "$$", "location": {"address1": "3658 Broadway", "address2": "", "address3": "", "city": "New York", "zip_code": "10031", "country": "US", "state": "NY", "display_address": ["3658 Broadway", "New York, NY 10031"]}, "phone": "+16466829249", "display_phone": "(646) 682-9249", "distance": 8116.263399653803}, {"id": "_yMBdYh5p--WtF3n4a2iNw", "alias": "il-mulino-prime-gramercy-new-york", "name": "Il Mulino Prime - Gramercy", "image_url": "https://s3-media4.fl.yelpcdn.com/bphoto/NyRS3gdQ5pgi7E6ElKZfJg/o.jpg", "is_closed": false, "url": "https://www.yelp.com/biz/il-mulino-prime-gramercy-new-york?adjust_creative=9gNmiWYX8uTbFBeTTvJMdA&utm_campaign=yelp_api_v3&utm_medium=api_v3_business_search&utm_source=9gNmiWYX8uTbFBeTTvJMdA", "review_count": 50, "categories": [{"alias": "italian", "title": "Italian"}, {"alias": "steak", "title": "Steakhouses"}], "rating": 4.0, "coordinates": {"latitude": 40.73875, "longitude": -73.9885}, "transactions": ["delivery", "pickup"], "location": {"address1": "43 E 20th St", "address2": null, "address3": "", "city": "New York", "zip_code": "10003", "country": "US", "state": "NY", "display_address": ["43 E 20th St", "New York, NY 10003"]}, "phone": "+12127775314", "display_phone": "(212) 777-5314", "distance": 2764.4963717879536}, {"id": "e6ic-qLMcaQLrAnHn2jgTw", "alias": "la-pecora-bianca-new-york-7", "name": "La Pecora Bianca", "image_url": "https://s3-media4.fl.yelpcdn.com/bphoto/3kdmuQvGbO2xSzz3ilEXlA/o.jpg", "is_closed": false, "url": "https://www.yelp.com/biz/la-pecora-bianca-new-york-7?adjust_creative=9gNmiWYX8uTbFBeTTvJMdA&utm_campaign=yelp_api_v3&utm_medium=api_v3_business_search&utm_source=9gNmiWYX8uTbFBeTTvJMdA", "review_count": 178, "categories": [{"alias": "mediterranean", "title": "Mediterranean"}, {"alias": "italian", "title": "Italian"}, {"alias": "breakfast_brunch", "title": "Breakfast & Brunch"}], "rating": 4.0, "coordinates": {"latitude": 40.72347420863732, "longitude": -73.9963118}, "transactions": ["pickup"], "location": {"address1": "54 Prince St", "address2": "", "address3": null, "city": "New York", "zip_code": "10012", "country": "US", "state": "NY", "display_address": ["54 Prince St", "New York, NY 10012"]}, "phone": "+12123808202", "display_phone": "(212) 380-8202", "distance": 4564.304243793451}, {"id": "uPWyvfh5qSrVbujhjsDiiw", "alias": "oregano-brooklyn", "name": "Oregano", "image_url": "https://s3-media1.fl.yelpcdn.com/bphoto/UfCQWozhn4MTnupaktM9vQ/o.jpg", "is_closed": false, "url": "https://www.yelp.com/biz/oregano-brooklyn?adjust_creative=9gNmiWYX8uTbFBeTTvJMdA&utm_campaign=yelp_api_v3&utm_medium=api_v3_business_search&utm_source=9gNmiWYX8uTbFBeTTvJMdA", "review_count": 493, "categories": [{"alias": "italian", "title": "Italian"}, {"alias": "pizza", "title": "Pizza"}, {"alias": "bars", "title": "Bars"}], "rating": 4.0, "coordinates": {"latitude": 40.7190165, "longitude": -73.9586248}, "transactions": ["delivery", "pickup"], "price": "$$", "location": {"address1": "102 Berry St", "address2": "", "address3": "", "city": "Brooklyn", "zip_code": "11249", "country": "US", "state": "NY", "display_address": ["102 Berry St", "Brooklyn, NY 11249"]}, "phone": "+17185995988", "display_phone": "(718) 599-5988", "distance": 4559.673474199814}, {"id": "b2z0IifTb3zeuEbZ5fx7YQ", "alias": "spaghetti-tavern-new-york", "name": "Spaghetti Tavern", "image_url": "https://s3-media1.fl.yelpcdn.com/bphoto/Hw5wFxeiIvZ2wJ3utLT4Sg/o.jpg", "is_closed": false, "url": "https://www.yelp.com/biz/spaghetti-tavern-new-york?adjust_creative=9gNmiWYX8uTbFBeTTvJMdA&utm_campaign=yelp_api_v3&utm_medium=api_v3_business_search&utm_source=9gNmiWYX8uTbFBeTTvJMdA", "review_count": 71, "categories": [{"alias": "pubs", "title": "Pubs"}, {"alias": "cocktailbars", "title": "Cocktail Bars"}], "rating": 4.5, "coordinates": {"latitude": 40.783999644919156, "longitude": -73.97748999443762}, "transactions": ["delivery", "pickup"], "location": {"address1": "425 Amsterdam Ave", "address2": "", "address3": null, "city": "New York", "zip_code": "10024", "country": "US", "state": "NY", "display_address": ["425 Amsterdam Ave", "New York, NY 10024"]}, "phone": "", "display_phone": "", "distance": 2839.7529391550424}, {"id": "penftLPo6kx6qCtbsuyLog", "alias": "petaluma-new-york-3", "name": "Petaluma", "image_url": "https://s3-media1.fl.yelpcdn.com/bphoto/uLuFVtM66xW0Z2ttDgZK6g/o.jpg", "is_closed": false, "url": "https://www.yelp.com/biz/petaluma-new-york-3?adjust_creative=9gNmiWYX8uTbFBeTTvJMdA&utm_campaign=yelp_api_v3&utm_medium=api_v3_business_search&utm_source=9gNmiWYX8uTbFBeTTvJMdA", "review_count": 262, "categories": [{"alias": "italian", "title": "Italian"}, {"alias": "tradamerican", "title": "American (Traditional)"}, {"alias": "wine_bars", "title": "Wine Bars"}], "rating": 3.5, "coordinates": {"latitude": 40.7682492, "longitude": -73.9553474}, "transactions": ["delivery", "pickup"], "price": "$$$", "location": {"address1": "1356 1st Ave", "address2": "", "address3": "", "city": "New York", "zip_code": "10021", "country": "US", "state": "NY", "display_address": ["1356 1st Ave", "New York, NY 10021"]}, "phone": "+12127728800", "display_phone": "(212) 772-8800", "distance": 1566.4432128459093}, {"id": "6aVgixwks8EgirE1JtyDAQ", "alias": "johns-of-12th-street-new-york-2", "name": "John's of 12th Street", "image_url": "https://s3-media2.fl.yelpcdn.com/bphoto/RwewEKW4qlvWa2Z7mdVq5g/o.jpg", "is_closed": false, "url": "https://www.yelp.com/biz/johns-of-12th-street-new-york-2?adjust_creative=9gNmiWYX8uTbFBeTTvJMdA&utm_campaign=yelp_api_v3&utm_medium=api_v3_business_search&utm_source=9gNmiWYX8uTbFBeTTvJMdA", "review_count": 845, "categories": [{"alias": "italian", "title": "Italian"}, {"alias": "salad", "title": "Salad"}, {"alias": "seafood", "title": "Seafood"}], "rating": 4.0, "coordinates": {"latitude": 40.730685, "longitude": -73.985502}, "transactions": ["delivery", "pickup"], "price": "$$", "location": {"address1": "302 E 12th St", "address2": "", "address3": "", "city": "New York", "zip_code": "10003", "country": "US", "state": "NY", "display_address": ["302 E 12th St", "New York, NY 10003"]}, "phone": "+12124759531", "display_phone": "(212) 475-9531", "distance": 3440.3721098363308}, {"id": "JYNBy2r3LVhJbLHE1bASfg", "alias": "the-smith-new-york-3", "name": "The Smith", "image_url": "https://s3-media1.fl.yelpcdn.com/bphoto/93G45TS0FUpmfCSAJ5e9iA/o.jpg", "is_closed": false, "url": "https://www.yelp.com/biz/the-smith-new-york-3?adjust_creative=9gNmiWYX8uTbFBeTTvJMdA&utm_campaign=yelp_api_v3&utm_medium=api_v3_business_search&utm_source=9gNmiWYX8uTbFBeTTvJMdA", "review_count": 2041, "categories": [{"alias": "newamerican", "title": "American (New)"}, {"alias": "breakfast_brunch", "title": "Breakfast & Brunch"}, {"alias": "cocktailbars", "title": "Cocktail Bars"}], "rating": 4.0, "coordinates": {"latitude": 40.7716201269986, "longitude": -73.9818377981476}, "transactions": ["delivery", "pickup"], "price": "$$", "location": {"address1": "1900 Broadway", "address2": "", "address3": "", "city": "New York", "zip_code": "10023", "country": "US", "state": "NY", "display_address": ["1900 Broadway", "New York, NY 10023"]}, "phone": "+12124965700", "display_phone": "(212) 496-5700", "distance": 1726.7968428644688}, {"id": "QQpQujXQGbZBK6BeAokzDA", "alias": "pomp-and-circumstance-dining-williamsburg", "name": "Pomp & Circumstance Dining", "image_url": "https://s3-media4.fl.yelpcdn.com/bphoto/07AlwhzAp2x7viKb74UZmA/o.jpg", "is_closed": false, "url": "https://www.yelp.com/biz/pomp-and-circumstance-dining-williamsburg?adjust_creative=9gNmiWYX8uTbFBeTTvJMdA&utm_campaign=yelp_api_v3&utm_medium=api_v3_business_search&utm_source=9gNmiWYX8uTbFBeTTvJMdA", "review_count": 142, "categories": [{"alias": "italian", "title": "Italian"}, {"alias": "mediterranean", "title": "Mediterranean"}, {"alias": "mideastern", "title": "Middle Eastern"}], "rating": 5.0, "coordinates": {"latitude": 40.714166, "longitude": -73.949612}, "transactions": ["delivery", "pickup"], "price": "$$$", "location": {"address1": "577 Lorimer St", "address2": "", "address3": null, "city": "Williamsburg", "zip_code": "11211", "country": "US", "state": "NY", "display_address": ["577 Lorimer St", "Williamsburg, NY 11211"]}, "phone": "+17183874861", "display_phone": "(718) 387-4861", "distance": 5269.362625979138}, {"id": "5CuYWr0-cE01HxlBu5Ka6g", "alias": "carne-mare-new-york-5", "name": "Carne Mare", "image_url": "https://s3-media2.fl.yelpcdn.com/bphoto/FC01lVnLwm6msH5-ArDrVg/o.jpg", "is_closed": false, "url": "https://www.yelp.com/biz/carne-mare-new-york-5?adjust_creative=9gNmiWYX8uTbFBeTTvJMdA&utm_campaign=yelp_api_v3&utm_medium=api_v3_business_search&utm_source=9gNmiWYX8uTbFBeTTvJMdA", "review_count": 173, "categories": [{"alias": "steak", "title": "Steakhouses"}, {"alias": "italian", "title": "Italian"}, {"alias": "seafood", "title": "Seafood"}], "rating": 4.5, "coordinates": {"latitude": 40.70568649199326, "longitude": -74.00218961453646}, "transactions": [], "location": {"address1": "89 South St", "address2": "", "address3": "Pier 17", "city": "New York", "zip_code": "10038", "country": "US", "state": "NY", "display_address": ["89 South St", "Pier 17", "New York, NY 10038"]}, "phone": "+12122804600", "display_phone": "(212) 280-4600", "distance": 6551.836964167097}, {"id": "F8RLZFoTxOO_GBPJNjz3kA", "alias": "marks-off-madison-new-york", "name": "Mark's Off Madison", "image_url": "https://s3-media1.fl.yelpcdn.com/bphoto/HtTT8JEA5dcOO6JAto4I_Q/o.jpg", "is_closed": false, "url": "https://www.yelp.com/biz/marks-off-madison-new-york?adjust_creative=9gNmiWYX8uTbFBeTTvJMdA&utm_campaign=yelp_api_v3&utm_medium=api_v3_business_search&utm_source=9gNmiWYX8uTbFBeTTvJMdA", "review_count": 130, "categories": [{"alias": "breakfast_brunch", "title": "Breakfast & Brunch"}, {"alias": "bagels", "title": "Bagels"}, {"alias": "italian", "title": "Italian"}], "rating": 4.0, "coordinates": {"latitude": 40.742325, "longitude": -73.986271}, "transactions": ["delivery", "pickup"], "location": {"address1": "41 Madison Ave", "address2": "Ground Level", "address3": null, "city": "New York", "zip_code": "10010", "country": "US", "state": "NY", "display_address": ["41 Madison Ave", "Ground Level", "New York, NY 10010"]}, "phone": "+16468388300", "display_phone": "(646) 838-8300", "distance": 2342.195047926978}, {"id": "8PyKaU-YM0HOAfxWsjcwmg", "alias": "cipriani-le-specialita-new-york", "name": "Cipriani Le Specialita", "image_url": "https://s3-media2.fl.yelpcdn.com/bphoto/tmH2fe72uLOZdQEu8juxBA/o.jpg", "is_closed": false, "url": "https://www.yelp.com/biz/cipriani-le-specialita-new-york?adjust_creative=9gNmiWYX8uTbFBeTTvJMdA&utm_campaign=yelp_api_v3&utm_medium=api_v3_business_search&utm_source=9gNmiWYX8uTbFBeTTvJMdA", "review_count": 115, "categories": [{"alias": "gourmet", "title": "Specialty Food"}, {"alias": "italian", "title": "Italian"}, {"alias": "bakeries", "title": "Bakeries"}], "rating": 4.0, "coordinates": {"latitude": 40.7516113, "longitude": -73.9767134}, "transactions": ["delivery", "pickup"], "price": "$$", "location": {"address1": "120 E 42nd St", "address2": "", "address3": "", "city": "New York", "zip_code": "10017", "country": "US", "state": "NY", "display_address": ["120 E 42nd St", "New York, NY 10017"]}, "phone": "+12125575088", "display_phone": "(212) 557-5088", "distance": 1050.7277522499141}, {"id": "6zxulornYzrZtafE6EgqUQ", "alias": "osteria-accademia-new-york", "name": "Osteria Accademia", "image_url": "https://s3-media2.fl.yelpcdn.com/bphoto/iVr707Q0E5D6azukJiOp4A/o.jpg", "is_closed": false, "url": "https://www.yelp.com/biz/osteria-accademia-new-york?adjust_creative=9gNmiWYX8uTbFBeTTvJMdA&utm_campaign=yelp_api_v3&utm_medium=api_v3_business_search&utm_source=9gNmiWYX8uTbFBeTTvJMdA", "review_count": 15, "categories": [{"alias": "italian", "title": "Italian"}], "rating": 4.0, "coordinates": {"latitude": 40.79125146299497, "longitude": -73.97263216071319}, "transactions": ["delivery", "pickup"], "location": {"address1": "646 Amsterdam Ave", "address2": "", "address3": null, "city": "New York", "zip_code": "10025", "country": "US", "state": "NY", "display_address": ["646 Amsterdam Ave", "New York, NY 10025"]}, "phone": "+12126850305", "display_phone": "(212) 685-0305", "distance": 3576.052700866091}, {"id": "XQKUqU1vPvgnapxmmBI55Q", "alias": "maestro-pasta-new-york-2", "name": "Maestro Pasta", "image_url": "https://s3-media3.fl.yelpcdn.com/bphoto/Dm4MMbFY7ZEr-qLoMY7RdA/o.jpg", "is_closed": false, "url": "https://www.yelp.com/biz/maestro-pasta-new-york-2?adjust_creative=9gNmiWYX8uTbFBeTTvJMdA&utm_campaign=yelp_api_v3&utm_medium=api_v3_business_search&utm_source=9gNmiWYX8uTbFBeTTvJMdA", "review_count": 44, "categories": [{"alias": "italian", "title": "Italian"}], "rating": 4.5, "coordinates": {"latitude": 40.72934, "longitude": -74.00093}, "transactions": ["delivery", "pickup"], "price": "$$", "location": {"address1": "102 MacDougal St", "address2": null, "address3": "", "city": "New York", "zip_code": "10012", "country": "US", "state": "NY", "display_address": ["102 MacDougal St", "New York, NY 10012"]}, "phone": "+16464846446", "display_phone": "(646) 484-6446", "distance": 4243.160991001008}, {"id": "hpRrYBbKUqv8ewFKDjbjoA", "alias": "gersi-brooklyn", "name": "Gersi", "image_url": "https://s3-media4.fl.yelpcdn.com/bphoto/CqujO0Stf4oNEA-vB3RXew/o.jpg", "is_closed": false, "url": "https://www.yelp.com/biz/gersi-brooklyn?adjust_creative=9gNmiWYX8uTbFBeTTvJMdA&utm_campaign=yelp_api_v3&utm_medium=api_v3_business_search&utm_source=9gNmiWYX8uTbFBeTTvJMdA", "review_count": 343, "categories": [{"alias": "italian", "title": "Italian"}, {"alias": "wine_bars", "title": "Wine Bars"}, {"alias": "breakfast_brunch", "title": "Breakfast & Brunch"}], "rating": 4.5, "coordinates": {"latitude": 40.683438, "longitude": -73.995711}, "transactions": ["delivery", "pickup"], "price": "$$", "location": {"address1": "316 Court St", "address2": "", "address3": "", "city": "Brooklyn", "zip_code": "11231", "country": "US", "state": "NY", "display_address": ["316 Court St", "Brooklyn, NY 11231"]}, "phone": "+13478895077", "display_phone": "(347) 889-5077", "distance": 8704.709588311893}, {"id": "ZlwjT-jygnYqM5qDE0CuLQ", "alias": "gigino-trattoria-new-york", "name": "Gigino Trattoria", "image_url": "https://s3-media3.fl.yelpcdn.com/bphoto/jktgAf6iUoiLFsfTZxHaFg/o.jpg", "is_closed": false, "url": "https://www.yelp.com/biz/gigino-trattoria-new-york?adjust_creative=9gNmiWYX8uTbFBeTTvJMdA&utm_campaign=yelp_api_v3&utm_medium=api_v3_business_search&utm_source=9gNmiWYX8uTbFBeTTvJMdA", "review_count": 269, "categories": [{"alias": "italian", "title": "Italian"}, {"alias": "pizza", "title": "Pizza"}], "rating": 3.5, "coordinates": {"latitude": 40.71726, "longitude": -74.01055}, "transactions": ["delivery", "pickup"], "price": "$$", "location": {"address1": "323 Greenwich St", "address2": "", "address3": "", "city": "New York", "zip_code": "10013", "country": "US", "state": "NY", "display_address": ["323 Greenwich St", "New York, NY 10013"]}, "phone": "+12124311112", "display_phone": "(212) 431-1112", "distance": 5797.033118137305}, {"id": "V7z1ZkTOtV-dNOKhZsAlMw", "alias": "patsys-pizzeria-new-york-10", "name": "Patsy's Pizzeria", "image_url": "https://s3-media2.fl.yelpcdn.com/bphoto/teS7lLJKj4ESB9Pynsi59Q/o.jpg", "is_closed": false, "url": "https://www.yelp.com/biz/patsys-pizzeria-new-york-10?adjust_creative=9gNmiWYX8uTbFBeTTvJMdA&utm_campaign=yelp_api_v3&utm_medium=api_v3_business_search&utm_source=9gNmiWYX8uTbFBeTTvJMdA", "review_count": 317, "categories": [{"alias": "italian", "title": "Italian"}, {"alias": "pizza", "title": "Pizza"}], "rating": 3.5, "coordinates": {"latitude": 40.750427, "longitude": -73.972129}, "transactions": ["delivery", "pickup"], "price": "$$", "location": {"address1": "801 2nd Ave", "address2": "", "address3": "", "city": "New York", "zip_code": "10017", "country": "US", "state": "NY", "display_address": ["801 2nd Ave", "New York, NY 10017"]}, "phone": "+12128789600", "display_phone": "(212) 878-9600", "distance": 993.6626222396773}, {"id": "8nXo6lNJlXQQIdy8Kf7J9Q", "alias": "tessa-new-york", "name": "Tessa", "image_url": "https://s3-media2.fl.yelpcdn.com/bphoto/hL5EF49jun43GbPhwtOF9Q/o.jpg", "is_closed": false, "url": "https://www.yelp.com/biz/tessa-new-york?adjust_creative=9gNmiWYX8uTbFBeTTvJMdA&utm_campaign=yelp_api_v3&utm_medium=api_v3_business_search&utm_source=9gNmiWYX8uTbFBeTTvJMdA", "review_count": 448, "categories": [{"alias": "newamerican", "title": "American (New)"}, {"alias": "bars", "title": "Bars"}, {"alias": "sandwiches", "title": "Sandwiches"}], "rating": 4.0, "coordinates": {"latitude": 40.7814059, "longitude": -73.97918}, "transactions": ["delivery"], "price": "$$$", "location": {"address1": "349 Amsterdam Ave", "address2": "", "address3": "", "city": "New York", "zip_code": "10024", "country": "US", "state": "NY", "display_address": ["349 Amsterdam Ave", "New York, NY 10024"]}, "phone": "+12123901974", "display_phone": "(212) 390-1974", "distance": 2600.9867441738447}, {"id": "YoLxK5EG8UgnueKAe7hj0g", "alias": "i-sodi-new-york", "name": "I Sodi", "image_url": "https://s3-media2.fl.yelpcdn.com/bphoto/uu4X7b8Bpd50T-lVYEVrOg/o.jpg", "is_closed": false, "url": "https://www.yelp.com/biz/i-sodi-new-york?adjust_creative=9gNmiWYX8uTbFBeTTvJMdA&utm_campaign=yelp_api_v3&utm_medium=api_v3_business_search&utm_source=9gNmiWYX8uTbFBeTTvJMdA", "review_count": 473, "categories": [{"alias": "tuscan", "title": "Tuscan"}], "rating": 3.5, "coordinates": {"latitude": 40.7334747314453, "longitude": -74.005012512207}, "transactions": ["delivery"], "price": "$$$", "location": {"address1": "105 Christopher St", "address2": "", "address3": "", "city": "New York", "zip_code": "10014", "country": "US", "state": "NY", "display_address": ["105 Christopher St", "New York, NY 10014"]}, "phone": "+16466758672", "display_phone": "(646) 675-8672", "distance": 4134.3221071008975}, {"id": "-58--bg-KKUNArp18U4llA", "alias": "da-umberto-new-york-2", "name": "da Umberto", "image_url": "https://s3-media3.fl.yelpcdn.com/bphoto/hTXzJxtQW49B_Bj9XgRZ6g/o.jpg", "is_closed": false, "url": "https://www.yelp.com/biz/da-umberto-new-york-2?adjust_creative=9gNmiWYX8uTbFBeTTvJMdA&utm_campaign=yelp_api_v3&utm_medium=api_v3_business_search&utm_source=9gNmiWYX8uTbFBeTTvJMdA", "review_count": 217, "categories": [{"alias": "italian", "title": "Italian"}], "rating": 4.0, "coordinates": {"latitude": 40.7396659851074, "longitude": -73.9958267211914}, "transactions": ["delivery", "pickup"], "price": "$$$", "location": {"address1": "107 W 17th St", "address2": null, "address3": "", "city": "New York", "zip_code": "10011", "country": "US", "state": "NY", "display_address": ["107 W 17th St", "New York, NY 10011"]}, "phone": "+12129890303", "display_phone": "(212) 989-0303", "distance": 3097.348697858045}, {"id": "BPo5XByMdNiXK_i--gqiRA", "alias": "duomo51-new-york", "name": "Duomo51", "image_url": "https://s3-media1.fl.yelpcdn.com/bphoto/3Qc-HkzzjNxHthXlyv64yg/o.jpg", "is_closed": false, "url": "https://www.yelp.com/biz/duomo51-new-york?adjust_creative=9gNmiWYX8uTbFBeTTvJMdA&utm_campaign=yelp_api_v3&utm_medium=api_v3_business_search&utm_source=9gNmiWYX8uTbFBeTTvJMdA", "review_count": 13, "categories": [{"alias": "italian", "title": "Italian"}, {"alias": "breakfast_brunch", "title": "Breakfast & Brunch"}, {"alias": "newamerican", "title": "American (New)"}], "rating": 4.5, "coordinates": {"latitude": 40.759979, "longitude": -73.97824}, "transactions": [], "location": {"address1": "25 W 51st St", "address2": "Fl 7", "address3": "", "city": "New York", "zip_code": "10019", "country": "US", "state": "NY", "display_address": ["25 W 51st St", "Fl 7", "New York, NY 10019"]}, "phone": "+16463988098", "display_phone": "(646) 398-8098", "distance": 733.9314193292374}, {"id": "0frCoaUJ_XWiz1BXiHBcwg", "alias": "ceci-italian-restaurant-new-york", "name": "Ceci Italian Restaurant", "image_url": "https://s3-media4.fl.yelpcdn.com/bphoto/IVOH8r13dL5lV89GbS9sBQ/o.jpg", "is_closed": false, "url": "https://www.yelp.com/biz/ceci-italian-restaurant-new-york?adjust_creative=9gNmiWYX8uTbFBeTTvJMdA&utm_campaign=yelp_api_v3&utm_medium=api_v3_business_search&utm_source=9gNmiWYX8uTbFBeTTvJMdA", "review_count": 320, "categories": [{"alias": "italian", "title": "Italian"}, {"alias": "seafood", "title": "Seafood"}, {"alias": "cocktailbars", "title": "Cocktail Bars"}], "rating": 3.5, "coordinates": {"latitude": 40.7568271422022, "longitude": -73.98112088293736}, "transactions": ["delivery", "pickup"], "price": "$$", "location": {"address1": "46 W 46th St", "address2": "", "address3": "", "city": "New York", "zip_code": "10036", "country": "US", "state": "NY", "display_address": ["46 W 46th St", "New York, NY 10036"]}, "phone": "+12123075484", "display_phone": "(212) 307-5484", "distance": 1006.9853413330692}, {"id": "kzd10IXi3dTjoPw0TDj8tA", "alias": "osteria-nando-new-york-3", "name": "Osteria Nando", "image_url": "https://s3-media2.fl.yelpcdn.com/bphoto/n6p55-hYQvaRXZsTFjq7tQ/o.jpg", "is_closed": false, "url": "https://www.yelp.com/biz/osteria-nando-new-york-3?adjust_creative=9gNmiWYX8uTbFBeTTvJMdA&utm_campaign=yelp_api_v3&utm_medium=api_v3_business_search&utm_source=9gNmiWYX8uTbFBeTTvJMdA", "review_count": 156, "categories": [{"alias": "mediterranean", "title": "Mediterranean"}, {"alias": "cocktailbars", "title": "Cocktail Bars"}], "rating": 4.0, "coordinates": {"latitude": 40.775666, "longitude": -73.953649}, "transactions": ["restaurant_reservation", "delivery", "pickup"], "price": "$$", "location": {"address1": "1589 2nd Ave", "address2": "", "address3": null, "city": "New York", "zip_code": "10028", "country": "US", "state": "NY", "display_address": ["1589 2nd Ave", "New York, NY 10028"]}, "phone": "+12127314355", "display_phone": "(212) 731-4355", "distance": 2273.3110568663164}, {"id": "XlhWNQRGoWyybfXpGBgE3Q", "alias": "il-mulino-new-york-uptown-new-york-3", "name": "Il Mulino New York - Uptown", "image_url": "https://s3-media1.fl.yelpcdn.com/bphoto/R5fJIxtHRciOEVhPsExVQw/o.jpg", "is_closed": false, "url": "https://www.yelp.com/biz/il-mulino-new-york-uptown-new-york-3?adjust_creative=9gNmiWYX8uTbFBeTTvJMdA&utm_campaign=yelp_api_v3&utm_medium=api_v3_business_search&utm_source=9gNmiWYX8uTbFBeTTvJMdA", "review_count": 272, "categories": [{"alias": "italian", "title": "Italian"}], "rating": 3.0, "coordinates": {"latitude": 40.764144, "longitude": -73.970195}, "transactions": ["delivery", "pickup"], "price": "$$$$", "location": {"address1": "37 E 60th St", "address2": "", "address3": "", "city": "New York", "zip_code": "10021", "country": "US", "state": "NY", "display_address": ["37 E 60th St", "New York, NY 10021"]}, "phone": "+12127503270", "display_phone": "(212) 750-3270", "distance": 555.0296358263903}, {"id": "YKLvheNuhQ3083AEgx0V2Q", "alias": "casa-soglia-new-york", "name": "Casa Soglia", "image_url": "https://s3-media4.fl.yelpcdn.com/bphoto/-8sTbgF6YSoh21pnN5J7iw/o.jpg", "is_closed": false, "url": "https://www.yelp.com/biz/casa-soglia-new-york?adjust_creative=9gNmiWYX8uTbFBeTTvJMdA&utm_campaign=yelp_api_v3&utm_medium=api_v3_business_search&utm_source=9gNmiWYX8uTbFBeTTvJMdA", "review_count": 2, "categories": [{"alias": "italian", "title": "Italian"}, {"alias": "venues", "title": "Venues & Event Spaces"}], "rating": 5.0, "coordinates": {"latitude": 40.74215, "longitude": -73.98472}, "transactions": [], "location": {"address1": "365 Park Ave S", "address2": null, "address3": "", "city": "New York", "zip_code": "10016", "country": "US", "state": "NY", "display_address": ["365 Park Ave S", "New York, NY 10016"]}, "phone": "+12125329100", "display_phone": "(212) 532-9100", "distance": 2283.274190516794}, {"id": "QR7eMOsOXxGg26xx4wQUOw", "alias": "bardough-new-york", "name": "BarDough", "image_url": "https://s3-media1.fl.yelpcdn.com/bphoto/UBvxvJKuItLxqayCjuBU0g/o.jpg", "is_closed": false, "url": "https://www.yelp.com/biz/bardough-new-york?adjust_creative=9gNmiWYX8uTbFBeTTvJMdA&utm_campaign=yelp_api_v3&utm_medium=api_v3_business_search&utm_source=9gNmiWYX8uTbFBeTTvJMdA", "review_count": 229, "categories": [{"alias": "bars", "title": "Bars"}, {"alias": "pizza", "title": "Pizza"}, {"alias": "newamerican", "title": "American (New)"}], "rating": 4.5, "coordinates": {"latitude": 40.7603523698496, "longitude": -73.9898819848895}, "transactions": ["pickup", "delivery"], "price": "$$", "location": {"address1": "350 W 46th St", "address2": "", "address3": null, "city": "New York", "zip_code": "10036", "country": "US", "state": "NY", "display_address": ["350 W 46th St", "New York, NY 10036"]}, "phone": "+19172620543", "display_phone": "(917) 262-0543", "distance": 1715.4459251274811}], "total": 4600, "region": {"center": {"longitude": -73.96957397460938, "latitude": 40.75917470627005}}}