{"businesses": [{"id": "FCl5446Rovk1HRHoXpojdg", "alias": "lavo-new-york-7", "name": "LAVO", "image_url": "https://s3-media2.fl.yelpcdn.com/bphoto/I91Jxvf09Iuvzv2fFq9YKQ/o.jpg", "is_closed": false, "url": "https://www.yelp.com/biz/lavo-new-york-7?adjust_creative=9gNmiWYX8uTbFBeTTvJMdA&utm_campaign=yelp_api_v3&utm_medium=api_v3_business_search&utm_source=9gNmiWYX8uTbFBeTTvJMdA", "review_count": 1106, "categories": [{"alias": "italian", "title": "Italian"}], "rating": 3.5, "coordinates": {"latitude": 40.762931, "longitude": -73.971433}, "transactions": ["delivery", "pickup"], "price": "$$$", "location": {"address1": "39 E 58th St", "address2": null, "address3": null, "city": "New York", "zip_code": "10022", "country": "US", "state": "NY", "display_address": ["39 E 58th St", "New York, NY 10022"]}, "phone": "+12127505588", "display_phone": "(212) 750-5588", "distance": 446.2242655102214}, {"id": "0SakkRuHhECsDsZ8mRkisQ", "alias": "triangolo-restaurant-corona", "name": "Triangolo Restaurant", "image_url": "https://s3-media3.fl.yelpcdn.com/bphoto/Ge_Ezddkhf0dzfTZPd2rLA/o.jpg", "is_closed": false, "url": "https://www.yelp.com/biz/triangolo-restaurant-corona?adjust_creative=9gNmiWYX8uTbFBeTTvJMdA&utm_campaign=yelp_api_v3&utm_medium=api_v3_business_search&utm_source=9gNmiWYX8uTbFBeTTvJMdA", "review_count": 524, "categories": [{"alias": "italian", "title": "Italian"}, {"alias": "tapasmallplates", "title": "Tapas/Small Plates"}], "rating": 4.5, "coordinates": {"latitude": 40.742337, "longitude": -73.867305}, "transactions": ["delivery", "pickup"], "price": "$$", "location": {"address1": "96-01 Corona Ave", "address2": "", "address3": "", "city": "Corona", "zip_code": "11368", "country": "US", "state": "NY", "display_address": ["96-01 Corona Ave", "Corona, NY 11368"]}, "phone": "+17182711250", "display_phone": "(718) 271-1250", "distance": 8818.105821902302}, {"id": "FebvtuoXRQ8h8CZMe8NeYw", "alias": "bartusi-new-york", "name": "B'artusi", "image_url": "https://s3-media3.fl.yelpcdn.com/bphoto/1Er9aU6SaBq_rHNyxY3zIA/o.jpg", "is_closed": false, "url": "https://www.yelp.com/biz/bartusi-new-york?adjust_creative=9gNmiWYX8uTbFBeTTvJMdA&utm_campaign=yelp_api_v3&utm_medium=api_v3_business_search&utm_source=9gNmiWYX8uTbFBeTTvJMdA", "review_count": 29, "categories": [{"alias": "italian", "title": "Italian"}, {"alias": "wine_bars", "title": "Wine Bars"}, {"alias": "breakfast_brunch", "title": "Breakfast & Brunch"}], "rating": 4.0, "coordinates": {"latitude": 40.73401, "longitude": -74.00607}, "transactions": [], "location": {"address1": "520 Hudson St", "address2": "", "address3": null, "city": "New York", "zip_code": "10014", "country": "US", "state": "NY", "display_address": ["520 Hudson St", "New York, NY 10014"]}, "phone": "", "display_phone": "", "distance": 4160.905255776082}, {"id": "s1Epxy3pBMBxJH32snw17w", "alias": "alidoro-the-hugh-new-york", "name": "ALIDORO - The Hugh", "image_url": "https://s3-media4.fl.yelpcdn.com/bphoto/UwE_4ZUILSA8OWFg-5Fu7w/o.jpg", "is_closed": false, "url": "https://www.yelp.com/biz/alidoro-the-hugh-new-york?adjust_creative=9gNmiWYX8uTbFBeTTvJMdA&utm_campaign=yelp_api_v3&utm_medium=api_v3_business_search&utm_source=9gNmiWYX8uTbFBeTTvJMdA", "review_count": 25, "categories": [{"alias": "sandwiches", "title": "Sandwiches"}, {"alias": "delis", "title": "Delis"}, {"alias": "italian", "title": "Italian"}], "rating": 4.0, "coordinates": {"latitude": 40.75878, "longitude": -73.97048}, "transactions": [], "location": {"address1": "601 Lexington Ave", "address2": null, "address3": "", "city": "New York", "zip_code": "10022", "country": "US", "state": "NY", "display_address": ["601 Lexington Ave", "New York, NY 10022"]}, "phone": "+16466882383", "display_phone": "(646) 688-2383", "distance": 94.68843484085015}, {"id": "LfRiA6RORToZUSJUHkZBVA", "alias": "frankies-457-spuntino-brooklyn-3", "name": "Frankies 457 Spuntino", "image_url": "https://s3-media2.fl.yelpcdn.com/bphoto/wKrbeEbUtWr-rwaCzDIdWg/o.jpg", "is_closed": false, "url": "https://www.yelp.com/biz/frankies-457-spuntino-brooklyn-3?adjust_creative=9gNmiWYX8uTbFBeTTvJMdA&utm_campaign=yelp_api_v3&utm_medium=api_v3_business_search&utm_source=9gNmiWYX8uTbFBeTTvJMdA", "review_count": 886, "categories": [{"alias": "italian", "title": "Italian"}, {"alias": "sandwiches", "title": "Sandwiches"}, {"alias": "wine_bars", "title": "Wine Bars"}], "rating": 4.0, "coordinates": {"latitude": 40.677328, "longitude": -73.997972}, "transactions": ["delivery", "pickup"], "price": "$$$", "location": {"address1": "457 Court St", "address2": "", "address3": "", "city": "Brooklyn", "zip_code": "11231", "country": "US", "state": "NY", "display_address": ["457 Court St", "Brooklyn, NY 11231"]}, "phone": "+17184030033", "display_phone": "(718) 403-0033", "distance": 9410.358594024287}, {"id": "t-Pm38_XhMnGfOYgkhaNRA", "alias": "le-fanfare-brooklyn-4", "name": "Le Fanfare", "image_url": "https://s3-media1.fl.yelpcdn.com/bphoto/MSs2OKz8_BYKpcU7UxCmMQ/o.jpg", "is_closed": false, "url": "https://www.yelp.com/biz/le-fanfare-brooklyn-4?adjust_creative=9gNmiWYX8uTbFBeTTvJMdA&utm_campaign=yelp_api_v3&utm_medium=api_v3_business_search&utm_source=9gNmiWYX8uTbFBeTTvJMdA", "review_count": 227, "categories": [{"alias": "italian", "title": "Italian"}, {"alias": "wine_bars", "title": "Wine Bars"}, {"alias": "cocktailbars", "title": "Cocktail Bars"}], "rating": 4.0, "coordinates": {"latitude": 40.736202, "longitude": -73.955558}, "transactions": ["delivery", "pickup"], "price": "$$", "location": {"address1": "1103 Manhattan Ave", "address2": "", "address3": "", "city": "Brooklyn", "zip_code": "11222", "country": "US", "state": "NY", "display_address": ["1103 Manhattan Ave", "Brooklyn, NY 11222"]}, "phone": "+13479874244", "display_phone": "(347) 987-4244", "distance": 2814.231314650555}, {"id": "fH8DkdRerw5LJ7fZZHRfeA", "alias": "leuca-brooklyn", "name": "Leuca", "image_url": "https://s3-media2.fl.yelpcdn.com/bphoto/LbRIs0mXGex3QpwHlN4Ykg/o.jpg", "is_closed": false, "url": "https://www.yelp.com/biz/leuca-brooklyn?adjust_creative=9gNmiWYX8uTbFBeTTvJMdA&utm_campaign=yelp_api_v3&utm_medium=api_v3_business_search&utm_source=9gNmiWYX8uTbFBeTTvJMdA", "review_count": 420, "categories": [{"alias": "italian", "title": "Italian"}, {"alias": "pastashops", "title": "Pasta Shops"}, {"alias": "pizza", "title": "Pizza"}], "rating": 4.0, "coordinates": {"latitude": 40.722121, "longitude": -73.956678}, "transactions": ["delivery", "pickup"], "price": "$$$", "location": {"address1": "111 N 12th St", "address2": "", "address3": "The William Vale Hotel", "city": "Brooklyn", "zip_code": "11249", "country": "US", "state": "NY", "display_address": ["111 N 12th St", "The William Vale Hotel", "Brooklyn, NY 11249"]}, "phone": "", "display_phone": "", "distance": 4261.021820322482}, {"id": "lA6IvTF7J8fNC5puhyS3PA", "alias": "bellini-new-york-4", "name": "Bellini", "image_url": "https://s3-media3.fl.yelpcdn.com/bphoto/5cL1ZkVDFB39aWo3CFXxMg/o.jpg", "is_closed": false, "url": "https://www.yelp.com/biz/bellini-new-york-4?adjust_creative=9gNmiWYX8uTbFBeTTvJMdA&utm_campaign=yelp_api_v3&utm_medium=api_v3_business_search&utm_source=9gNmiWYX8uTbFBeTTvJMdA", "review_count": 275, "categories": [{"alias": "italian", "title": "Italian"}, {"alias": "pizza", "title": "Pizza"}, {"alias": "wine_bars", "title": "Wine Bars"}], "rating": 3.5, "coordinates": {"latitude": 40.78457, "longitude": -73.97317}, "transactions": ["delivery", "pickup"], "price": "$$", "location": {"address1": "483 Columbus Ave", "address2": "", "address3": "", "city": "New York", "zip_code": "10024", "country": "US", "state": "NY", "display_address": ["483 Columbus Ave", "New York, NY 10024"]}, "phone": "+12127244615", "display_phone": "(212) 724-4615", "distance": 2842.619994287802}, {"id": "WHQpLvxkCK_BMtF8pIShnQ", "alias": "carroll-place-new-york", "name": "Carroll Place", "image_url": "https://s3-media3.fl.yelpcdn.com/bphoto/tEaqEUpBDUPlU0WejWxO2Q/o.jpg", "is_closed": false, "url": "https://www.yelp.com/biz/carroll-place-new-york?adjust_creative=9gNmiWYX8uTbFBeTTvJMdA&utm_campaign=yelp_api_v3&utm_medium=api_v3_business_search&utm_source=9gNmiWYX8uTbFBeTTvJMdA", "review_count": 1242, "categories": [{"alias": "italian", "title": "Italian"}, {"alias": "venues", "title": "Venues & Event Spaces"}, {"alias": "cocktailbars", "title": "Cocktail Bars"}], "rating": 4.0, "coordinates": {"latitude": 40.7287, "longitude": -73.99971}, "transactions": ["delivery", "pickup"], "price": "$$", "location": {"address1": "157 Bleecker St", "address2": "", "address3": "", "city": "New York", "zip_code": "10012", "country": "US", "state": "NY", "display_address": ["157 Bleecker St", "New York, NY 10012"]}, "phone": "+12122601700", "display_phone": "(212) 260-1700", "distance": 4231.0254269025}, {"id": "X9f5HH4x3Mi7lo4ph9efvQ", "alias": "terre-brooklyn", "name": "Terre", "image_url": "https://s3-media3.fl.yelpcdn.com/bphoto/9EtNndtHUjytSZF5LsIQUw/o.jpg", "is_closed": false, "url": "https://www.yelp.com/biz/terre-brooklyn?adjust_creative=9gNmiWYX8uTbFBeTTvJMdA&utm_campaign=yelp_api_v3&utm_medium=api_v3_business_search&utm_source=9gNmiWYX8uTbFBeTTvJMdA", "review_count": 158, "categories": [{"alias": "italian", "title": "Italian"}, {"alias": "wine_bars", "title": "Wine Bars"}, {"alias": "breakfast_brunch", "title": "Breakfast & Brunch"}], "rating": 4.5, "coordinates": {"latitude": 40.671949831792, "longitude": -73.9837719490146}, "transactions": ["delivery", "pickup"], "price": "$$$", "location": {"address1": "341 5th Ave", "address2": "", "address3": null, "city": "Brooklyn", "zip_code": "11215", "country": "US", "state": "NY", "display_address": ["341 5th Ave", "Brooklyn, NY 11215"]}, "phone": "+17187882285", "display_phone": "(718) 788-2285", "distance": 9772.490910338547}, {"id": "iutTifH0Xy0UkN86vEvV2Q", "alias": "aria-wine-bar-new-york-7", "name": "Aria Wine Bar", "image_url": "https://s3-media4.fl.yelpcdn.com/bphoto/XR1SqivTUkrcM9qMsf6e-g/o.jpg", "is_closed": false, "url": "https://www.yelp.com/biz/aria-wine-bar-new-york-7?adjust_creative=9gNmiWYX8uTbFBeTTvJMdA&utm_campaign=yelp_api_v3&utm_medium=api_v3_business_search&utm_source=9gNmiWYX8uTbFBeTTvJMdA", "review_count": 38, "categories": [{"alias": "italian", "title": "Italian"}], "rating": 4.5, "coordinates": {"latitude": 40.7290058570751, "longitude": -74.0033128150578}, "transactions": ["delivery", "pickup"], "location": {"address1": "14 Bedford St", "address2": "West Village", "address3": null, "city": "New York", "zip_code": "10014", "country": "US", "state": "NY", "display_address": ["14 Bedford St", "West Village", "New York, NY 10014"]}, "phone": "+12122424233", "display_phone": "(212) 242-4233", "distance": 4396.84642974937}, {"id": "Irw7QQBsndbB2ATXeB4pYA", "alias": "da-tommaso-new-york-2", "name": "Da Tommaso", "image_url": "https://s3-media4.fl.yelpcdn.com/bphoto/zy-ONY42hm3IxNspHBnurg/o.jpg", "is_closed": false, "url": "https://www.yelp.com/biz/da-tommaso-new-york-2?adjust_creative=9gNmiWYX8uTbFBeTTvJMdA&utm_campaign=yelp_api_v3&utm_medium=api_v3_business_search&utm_source=9gNmiWYX8uTbFBeTTvJMdA", "review_count": 222, "categories": [{"alias": "italian", "title": "Italian"}], "rating": 3.5, "coordinates": {"latitude": 40.7646068, "longitude": -73.9845812}, "transactions": ["delivery", "pickup"], "price": "$$", "location": {"address1": "903 8th Ave", "address2": "", "address3": "", "city": "New York", "zip_code": "10019", "country": "US", "state": "NY", "display_address": ["903 8th Ave", "New York, NY 10019"]}, "phone": "+12122651890", "display_phone": "(212) 265-1890", "distance": 1418.5226751880743}, {"id": "xeC9vn3dxVVzAMR_aFwfXg", "alias": "il-brigante-new-york", "name": "IL Brigante", "image_url": "https://s3-media3.fl.yelpcdn.com/bphoto/KJMXZEwKqswc0iVM_6sN7A/o.jpg", "is_closed": false, "url": "https://www.yelp.com/biz/il-brigante-new-york?adjust_creative=9gNmiWYX8uTbFBeTTvJMdA&utm_campaign=yelp_api_v3&utm_medium=api_v3_business_search&utm_source=9gNmiWYX8uTbFBeTTvJMdA", "review_count": 491, "categories": [{"alias": "italian", "title": "Italian"}], "rating": 4.0, "coordinates": {"latitude": 40.707492, "longitude": -74.002571}, "transactions": ["delivery", "pickup"], "price": "$$", "location": {"address1": "214 Front St", "address2": "", "address3": "", "city": "New York", "zip_code": "10038", "country": "US", "state": "NY", "display_address": ["214 Front St", "New York, NY 10038"]}, "phone": "+12122850222", "display_phone": "(212) 285-0222", "distance": 6390.768973871798}, {"id": "qhyll2gPT-gGDRP6JGn1aQ", "alias": "bice-cucina-midtown-new-york", "name": "Bice Cucina - Midtown", "image_url": "https://s3-media2.fl.yelpcdn.com/bphoto/DohAQpbNPCBUTuV4I8LBGA/o.jpg", "is_closed": false, "url": "https://www.yelp.com/biz/bice-cucina-midtown-new-york?adjust_creative=9gNmiWYX8uTbFBeTTvJMdA&utm_campaign=yelp_api_v3&utm_medium=api_v3_business_search&utm_source=9gNmiWYX8uTbFBeTTvJMdA", "review_count": 152, "categories": [{"alias": "seafood", "title": "Seafood"}, {"alias": "bars", "title": "Bars"}, {"alias": "italian", "title": "Italian"}], "rating": 4.0, "coordinates": {"latitude": 40.7624702435463, "longitude": -73.9768997892404}, "transactions": ["delivery", "pickup"], "location": {"address1": "62 W 55th St", "address2": "", "address3": null, "city": "New York", "zip_code": "10019", "country": "US", "state": "NY", "display_address": ["62 W 55th St", "New York, NY 10019"]}, "phone": "+12127572600", "display_phone": "(212) 757-2600", "distance": 749.1502209659238}, {"id": "Be1Y-vAEMgo7lqL5alXgDA", "alias": "taverna-di-bacco-new-york", "name": "Taverna Di Bacco", "image_url": "https://s3-media1.fl.yelpcdn.com/bphoto/pEIG8wiigCMeWkXFyNvxig/o.jpg", "is_closed": false, "url": "https://www.yelp.com/biz/taverna-di-bacco-new-york?adjust_creative=9gNmiWYX8uTbFBeTTvJMdA&utm_campaign=yelp_api_v3&utm_medium=api_v3_business_search&utm_source=9gNmiWYX8uTbFBeTTvJMdA", "review_count": 327, "categories": [{"alias": "italian", "title": "Italian"}, {"alias": "cocktailbars", "title": "Cocktail Bars"}], "rating": 4.5, "coordinates": {"latitude": 40.72191, "longitude": -73.98768}, "transactions": ["delivery", "pickup"], "price": "$$", "location": {"address1": "175 Ludlow St", "address2": "", "address3": "", "city": "New York", "zip_code": "10002", "country": "US", "state": "NY", "display_address": ["175 Ludlow St", "New York, NY 10002"]}, "phone": "+12124770077", "display_phone": "(212) 477-0077", "distance": 4414.428419526614}, {"id": "rJfGgBleDYCVq2rkBr_w-Q", "alias": "barano-brooklyn", "name": "Barano", "image_url": "https://s3-media3.fl.yelpcdn.com/bphoto/Y6mlGG1H0V2ZeUtpBsxsEg/o.jpg", "is_closed": false, "url": "https://www.yelp.com/biz/barano-brooklyn?adjust_creative=9gNmiWYX8uTbFBeTTvJMdA&utm_campaign=yelp_api_v3&utm_medium=api_v3_business_search&utm_source=9gNmiWYX8uTbFBeTTvJMdA", "review_count": 310, "categories": [{"alias": "pizza", "title": "Pizza"}, {"alias": "italian", "title": "Italian"}, {"alias": "desserts", "title": "Desserts"}], "rating": 4.5, "coordinates": {"latitude": 40.710372, "longitude": -73.96794}, "transactions": ["delivery", "pickup"], "price": "$$$", "location": {"address1": "26 Broadway", "address2": "", "address3": "", "city": "Brooklyn", "zip_code": "11249", "country": "US", "state": "NY", "display_address": ["26 Broadway", "Brooklyn, NY 11249"]}, "phone": "+13479874500", "display_phone": "(347) 987-4500", "distance": 5411.032853100187}, {"id": "NG-vmMrBZlxAZrxgoiromg", "alias": "tappo-nycthincrust-pizza-new-york", "name": "TAPPO NYCThinCrust Pizza", "image_url": "https://s3-media3.fl.yelpcdn.com/bphoto/8d-b6aYytk_lnv-knPxW1Q/o.jpg", "is_closed": false, "url": "https://www.yelp.com/biz/tappo-nycthincrust-pizza-new-york?adjust_creative=9gNmiWYX8uTbFBeTTvJMdA&utm_campaign=yelp_api_v3&utm_medium=api_v3_business_search&utm_source=9gNmiWYX8uTbFBeTTvJMdA", "review_count": 560, "categories": [{"alias": "pizza", "title": "Pizza"}, {"alias": "italian", "title": "Italian"}], "rating": 4.0, "coordinates": {"latitude": 40.74337, "longitude": -73.99153}, "transactions": ["delivery", "pickup"], "price": "$$", "location": {"address1": "49 W 24th St", "address2": "", "address3": "", "city": "New York", "zip_code": "10010", "country": "US", "state": "NY", "display_address": ["49 W 24th St", "New York, NY 10010"]}, "phone": "+12128079200", "display_phone": "(212) 807-9200", "distance": 2540.80093682396}, {"id": "sB8-R8-FYj-kJrSzTlbmgw", "alias": "coppolas-west-new-york-2", "name": "Coppola's West", "image_url": "https://s3-media3.fl.yelpcdn.com/bphoto/hKs85ZCmqYwG2z2HhZhbxw/o.jpg", "is_closed": false, "url": "https://www.yelp.com/biz/coppolas-west-new-york-2?adjust_creative=9gNmiWYX8uTbFBeTTvJMdA&utm_campaign=yelp_api_v3&utm_medium=api_v3_business_search&utm_source=9gNmiWYX8uTbFBeTTvJMdA", "review_count": 340, "categories": [{"alias": "italian", "title": "Italian"}], "rating": 3.5, "coordinates": {"latitude": 40.7831637424309, "longitude": -73.9789159423279}, "transactions": ["delivery", "pickup"], "price": "$$", "location": {"address1": "206 W 79th St", "address2": "", "address3": "", "city": "New York", "zip_code": "10024", "country": "US", "state": "NY", "display_address": ["206 W 79th St", "New York, NY 10024"]}, "phone": "+12128773840", "display_phone": "(212) 877-3840", "distance": 2781.044007168507}, {"id": "qnQG2OYczrvJ3hals7gCjA", "alias": "one-fifth-new-york-2", "name": "One Fifth", "image_url": "https://s3-media4.fl.yelpcdn.com/bphoto/LNmqCVKRK6u_uzVCS4XhcQ/o.jpg", "is_closed": false, "url": "https://www.yelp.com/biz/one-fifth-new-york-2?adjust_creative=9gNmiWYX8uTbFBeTTvJMdA&utm_campaign=yelp_api_v3&utm_medium=api_v3_business_search&utm_source=9gNmiWYX8uTbFBeTTvJMdA", "review_count": 30, "categories": [{"alias": "bars", "title": "Bars"}, {"alias": "italian", "title": "Italian"}], "rating": 4.5, "coordinates": {"latitude": 40.731958617147676, "longitude": -73.99622414955519}, "transactions": ["delivery", "pickup"], "location": {"address1": "1 5th Ave", "address2": null, "address3": "", "city": "New York", "zip_code": "10003", "country": "US", "state": "NY", "display_address": ["1 5th Ave", "New York, NY 10003"]}, "phone": "+16464765420", "display_phone": "(646) 476-5420", "distance": 3768.1345040547253}, {"id": "4K0doiBddco60kl0W04a3Q", "alias": "il-forno-hells-kitchen-new-york-2", "name": "Il Forno Hell's Kitchen", "image_url": "https://s3-media4.fl.yelpcdn.com/bphoto/YQGHTVcTHRytqAsBnprmzQ/o.jpg", "is_closed": false, "url": "https://www.yelp.com/biz/il-forno-hells-kitchen-new-york-2?adjust_creative=9gNmiWYX8uTbFBeTTvJMdA&utm_campaign=yelp_api_v3&utm_medium=api_v3_business_search&utm_source=9gNmiWYX8uTbFBeTTvJMdA", "review_count": 300, "categories": [{"alias": "italian", "title": "Italian"}], "rating": 3.5, "coordinates": {"latitude": 40.7591217147251, "longitude": -73.988647715231}, "transactions": ["delivery", "pickup"], "price": "$$", "location": {"address1": "709  8th Ave", "address2": "", "address3": "", "city": "New York", "zip_code": "10036", "country": "US", "state": "NY", "display_address": ["709  8th Ave", "New York, NY 10036"]}, "phone": "+19179949663", "display_phone": "(917) 994-9663", "distance": 1606.5099435874713}, {"id": "5ZEFbq_AQV5VQFG2JKYzlA", "alias": "giorgios-of-gramercy-new-york", "name": "Giorgio's of Gramercy", "image_url": "https://s3-media3.fl.yelpcdn.com/bphoto/8xwgdtHmWXsGDuf4_q6lvA/o.jpg", "is_closed": false, "url": "https://www.yelp.com/biz/giorgios-of-gramercy-new-york?adjust_creative=9gNmiWYX8uTbFBeTTvJMdA&utm_campaign=yelp_api_v3&utm_medium=api_v3_business_search&utm_source=9gNmiWYX8uTbFBeTTvJMdA", "review_count": 814, "categories": [{"alias": "italian", "title": "Italian"}, {"alias": "newamerican", "title": "American (New)"}], "rating": 4.0, "coordinates": {"latitude": 40.7394209879325, "longitude": -73.9885425567627}, "transactions": ["delivery", "pickup"], "price": "$$$", "location": {"address1": "27 E 21st St", "address2": "", "address3": "", "city": "New York", "zip_code": "10010", "country": "US", "state": "NY", "display_address": ["27 E 21st St", "New York, NY 10010"]}, "phone": "+12124770007", "display_phone": "(212) 477-0007", "distance": 2716.2246648560736}, {"id": "FhXjAc6nKLf414KxYujUHw", "alias": "robertas-brooklyn-2", "name": "Roberta's", "image_url": "https://s3-media4.fl.yelpcdn.com/bphoto/8fY9fA5TtCF0ebdTNph9mQ/o.jpg", "is_closed": false, "url": "https://www.yelp.com/biz/robertas-brooklyn-2?adjust_creative=9gNmiWYX8uTbFBeTTvJMdA&utm_campaign=yelp_api_v3&utm_medium=api_v3_business_search&utm_source=9gNmiWYX8uTbFBeTTvJMdA", "review_count": 3241, "categories": [{"alias": "pizza", "title": "Pizza"}, {"alias": "italian", "title": "Italian"}], "rating": 4.0, "coordinates": {"latitude": 40.70493, "longitude": -73.93399}, "transactions": ["delivery", "pickup"], "price": "$$", "location": {"address1": "261 Moore St", "address2": "", "address3": "", "city": "Brooklyn", "zip_code": "11206", "country": "US", "state": "NY", "display_address": ["261 Moore St", "Brooklyn, NY 11206"]}, "phone": "+17184171118", "display_phone": "(718) 417-1118", "distance": 6735.84438092087}, {"id": "MH08_pIRKsUSwfkVYxUE7w", "alias": "vinater\u00eda-harlem", "name": "Vinater\u00eda", "image_url": "https://s3-media2.fl.yelpcdn.com/bphoto/qDZdWOELDVu3OQs5qaAC0A/o.jpg", "is_closed": false, "url": "https://www.yelp.com/biz/vinater%C3%ADa-harlem?adjust_creative=9gNmiWYX8uTbFBeTTvJMdA&utm_campaign=yelp_api_v3&utm_medium=api_v3_business_search&utm_source=9gNmiWYX8uTbFBeTTvJMdA", "review_count": 601, "categories": [{"alias": "italian", "title": "Italian"}, {"alias": "spanish", "title": "Spanish"}, {"alias": "mediterranean", "title": "Mediterranean"}], "rating": 4.0, "coordinates": {"latitude": 40.80668, "longitude": -73.95395}, "transactions": ["delivery", "pickup"], "price": "$$", "location": {"address1": "2211 Frederick Douglass Blvd", "address2": null, "address3": "", "city": "Harlem", "zip_code": "10026", "country": "US", "state": "NY", "display_address": ["2211 Frederick Douglass Blvd", "Harlem, NY 10026"]}, "phone": "+12126628462", "display_phone": "(212) 662-8462", "distance": 5435.808026896499}, {"id": "aI39yRQqpTd1VuKqS-lwig", "alias": "sofia-englewood-4", "name": "Sofia", "image_url": "https://s3-media2.fl.yelpcdn.com/bphoto/zjpNVF-lOr3pP_0N5M_J7g/o.jpg", "is_closed": false, "url": "https://www.yelp.com/biz/sofia-englewood-4?adjust_creative=9gNmiWYX8uTbFBeTTvJMdA&utm_campaign=yelp_api_v3&utm_medium=api_v3_business_search&utm_source=9gNmiWYX8uTbFBeTTvJMdA", "review_count": 681, "categories": [{"alias": "lounges", "title": "Lounges"}, {"alias": "steak", "title": "Steakhouses"}, {"alias": "italian", "title": "Italian"}], "rating": 4.0, "coordinates": {"latitude": 40.894168, "longitude": -73.97257}, "transactions": ["delivery", "pickup"], "price": "$$", "location": {"address1": "36 Engle St", "address2": "", "address3": "", "city": "Englewood", "zip_code": "07631", "country": "US", "state": "NJ", "display_address": ["36 Engle St", "Englewood, NJ 07631"]}, "phone": "+12015418530", "display_phone": "(201) 541-8530", "distance": 15008.982667534707}, {"id": "9W_dg9fvb-z8DBye2jfGiQ", "alias": "dazies-sunnyside", "name": "Dazie's", "image_url": "https://s3-media2.fl.yelpcdn.com/bphoto/Fc05g1Fd6L-fObinYekz1w/o.jpg", "is_closed": false, "url": "https://www.yelp.com/biz/dazies-sunnyside?adjust_creative=9gNmiWYX8uTbFBeTTvJMdA&utm_campaign=yelp_api_v3&utm_medium=api_v3_business_search&utm_source=9gNmiWYX8uTbFBeTTvJMdA", "review_count": 100, "categories": [{"alias": "italian", "title": "Italian"}, {"alias": "wine_bars", "title": "Wine Bars"}, {"alias": "venues", "title": "Venues & Event Spaces"}], "rating": 4.0, "coordinates": {"latitude": 40.744194, "longitude": -73.924557}, "transactions": ["delivery", "pickup"], "price": "$$", "location": {"address1": "39-41 Queens Blvd", "address2": "", "address3": "", "city": "Sunnyside", "zip_code": "11104", "country": "US", "state": "NY", "display_address": ["39-41 Queens Blvd", "Sunnyside, NY 11104"]}, "phone": "+17187867013", "display_phone": "(718) 786-7013", "distance": 4141.758727292833}, {"id": "7zk4bUsLYR_Jw-Ol-3ao9A", "alias": "dragons-manhattan", "name": "Dragon's", "image_url": "", "is_closed": false, "url": "https://www.yelp.com/biz/dragons-manhattan?adjust_creative=9gNmiWYX8uTbFBeTTvJMdA&utm_campaign=yelp_api_v3&utm_medium=api_v3_business_search&utm_source=9gNmiWYX8uTbFBeTTvJMdA", "review_count": 2, "categories": [{"alias": "italian", "title": "Italian"}], "rating": 5.0, "coordinates": {"latitude": 40.7540943, "longitude": -73.9783245}, "transactions": [], "location": {"address1": "Madsion Ave", "address2": "", "address3": "", "city": "Manhattan", "zip_code": "10173", "country": "US", "state": "NY", "display_address": ["Madsion Ave", "Manhattan, NY 10173"]}, "phone": "", "display_phone": "", "distance": 928.6371557457479}, {"id": "u_Cn0KcNrjzun774_dH2cw", "alias": "caffe-milano-restaurant-fort-lee", "name": "Caffe Milano Restaurant", "image_url": "https://s3-media2.fl.yelpcdn.com/bphoto/UgaMvupkDrutj7oY8QvgdQ/o.jpg", "is_closed": false, "url": "https://www.yelp.com/biz/caffe-milano-restaurant-fort-lee?adjust_creative=9gNmiWYX8uTbFBeTTvJMdA&utm_campaign=yelp_api_v3&utm_medium=api_v3_business_search&utm_source=9gNmiWYX8uTbFBeTTvJMdA", "review_count": 8, "categories": [{"alias": "italian", "title": "Italian"}], "rating": 5.0, "coordinates": {"latitude": 40.86019, "longitude": -73.97685}, "transactions": ["delivery"], "price": "$$", "location": {"address1": "2117 State Rt 4", "address2": "", "address3": "", "city": "Fort Lee", "zip_code": "07024", "country": "US", "state": "NJ", "display_address": ["2117 State Rt 4", "Fort Lee, NJ 07024"]}, "phone": "+12014613100", "display_phone": "(201) 461-3100", "distance": 11253.743311107275}, {"id": "9mawr6QwVHm5q8JRXPFjPA", "alias": "san-marino-ristorante-new-york-2", "name": "San Marino Ristorante", "image_url": "https://s3-media2.fl.yelpcdn.com/bphoto/_jbwem1eUOa_38QK9MvJ3A/o.jpg", "is_closed": false, "url": "https://www.yelp.com/biz/san-marino-ristorante-new-york-2?adjust_creative=9gNmiWYX8uTbFBeTTvJMdA&utm_campaign=yelp_api_v3&utm_medium=api_v3_business_search&utm_source=9gNmiWYX8uTbFBeTTvJMdA", "review_count": 201, "categories": [{"alias": "italian", "title": "Italian"}, {"alias": "wine_bars", "title": "Wine Bars"}, {"alias": "seafood", "title": "Seafood"}], "rating": 4.5, "coordinates": {"latitude": 40.72697, "longitude": -74.00611}, "transactions": ["restaurant_reservation", "delivery", "pickup"], "price": "$$", "location": {"address1": "66 Charlton St", "address2": "", "address3": "", "city": "New York", "zip_code": "10014", "country": "US", "state": "NY", "display_address": ["66 Charlton St", "New York, NY 10014"]}, "phone": "+12122063766", "display_phone": "(212) 206-3766", "distance": 4725.424630231308}, {"id": "505bv6h3VnN6SekdHCr8Sw", "alias": "nocello-new-york", "name": "Nocello", "image_url": "https://s3-media3.fl.yelpcdn.com/bphoto/xyYXErZkzwqNnx2yLQWocQ/o.jpg", "is_closed": false, "url": "https://www.yelp.com/biz/nocello-new-york?adjust_creative=9gNmiWYX8uTbFBeTTvJMdA&utm_campaign=yelp_api_v3&utm_medium=api_v3_business_search&utm_source=9gNmiWYX8uTbFBeTTvJMdA", "review_count": 203, "categories": [{"alias": "italian", "title": "Italian"}], "rating": 4.0, "coordinates": {"latitude": 40.7654190063477, "longitude": -73.9833374023438}, "transactions": ["restaurant_reservation", "delivery", "pickup"], "price": "$$$", "location": {"address1": "257 W 55th St", "address2": "", "address3": "", "city": "New York", "zip_code": "10019", "country": "US", "state": "NY", "display_address": ["257 W 55th St", "New York, NY 10019"]}, "phone": "+12127130224", "display_phone": "(212) 713-0224", "distance": 1351.1269920423308}, {"id": "EBK0OkVMBg_n_KxAU_4DZg", "alias": "double-zero-new-york", "name": "Double Zero", "image_url": "https://s3-media2.fl.yelpcdn.com/bphoto/XWqnsi72CwRQXpDZ3C7h4g/o.jpg", "is_closed": false, "url": "https://www.yelp.com/biz/double-zero-new-york?adjust_creative=9gNmiWYX8uTbFBeTTvJMdA&utm_campaign=yelp_api_v3&utm_medium=api_v3_business_search&utm_source=9gNmiWYX8uTbFBeTTvJMdA", "review_count": 609, "categories": [{"alias": "pizza", "title": "Pizza"}, {"alias": "italian", "title": "Italian"}], "rating": 4.5, "coordinates": {"latitude": 40.7261288, "longitude": -73.9896645}, "transactions": ["delivery", "pickup"], "price": "$$", "location": {"address1": "65 2nd Ave", "address2": "", "address3": "", "city": "New York", "zip_code": "10003", "country": "US", "state": "NY", "display_address": ["65 2nd Ave", "New York, NY 10003"]}, "phone": "+12127771608", "display_phone": "(212) 777-1608", "distance": 4053.4778003613756}, {"id": "pP4oS09iOB6qMaX3GkKSuQ", "alias": "avena-new-york-2", "name": "Avena", "image_url": "https://s3-media2.fl.yelpcdn.com/bphoto/6BYQwKT7FFNB4-4If_r5gw/o.jpg", "is_closed": false, "url": "https://www.yelp.com/biz/avena-new-york-2?adjust_creative=9gNmiWYX8uTbFBeTTvJMdA&utm_campaign=yelp_api_v3&utm_medium=api_v3_business_search&utm_source=9gNmiWYX8uTbFBeTTvJMdA", "review_count": 38, "categories": [{"alias": "italian", "title": "Italian"}], "rating": 4.0, "coordinates": {"latitude": 40.767957, "longitude": -73.968759}, "transactions": [], "location": {"address1": "22 E 66th St", "address2": "", "address3": null, "city": "New York", "zip_code": "10065", "country": "US", "state": "NY", "display_address": ["22 E 66th St", "New York, NY 10065"]}, "phone": "+16465968447", "display_phone": "(646) 596-8447", "distance": 979.4931636275772}, {"id": "q0HBfS9eJ9AeuaWQ3Ronqw", "alias": "joe-g-pizza-and-restaurant-new-york", "name": "Joe G Pizza & Restaurant", "image_url": "https://s3-media2.fl.yelpcdn.com/bphoto/mmTQ9N6E1Q1BnMOD5dIrsQ/o.jpg", "is_closed": false, "url": "https://www.yelp.com/biz/joe-g-pizza-and-restaurant-new-york?adjust_creative=9gNmiWYX8uTbFBeTTvJMdA&utm_campaign=yelp_api_v3&utm_medium=api_v3_business_search&utm_source=9gNmiWYX8uTbFBeTTvJMdA", "review_count": 168, "categories": [{"alias": "pizza", "title": "Pizza"}, {"alias": "italian", "title": "Italian"}], "rating": 4.0, "coordinates": {"latitude": 40.76564, "longitude": -73.9830099}, "transactions": ["delivery", "pickup"], "price": "$$", "location": {"address1": "244 W 56th St", "address2": "", "address3": "", "city": "New York", "zip_code": "10019", "country": "US", "state": "NY", "display_address": ["244 W 56th St", "New York, NY 10019"]}, "phone": "+12127653160", "display_phone": "(212) 765-3160", "distance": 1340.3923447171944}, {"id": "xQ445GaWVN5Aa3sFX9OoIg", "alias": "buvette-new-york", "name": "Buvette", "image_url": "https://s3-media1.fl.yelpcdn.com/bphoto/8pABRPAxv5VnpXU9eCw5Iw/o.jpg", "is_closed": false, "url": "https://www.yelp.com/biz/buvette-new-york?adjust_creative=9gNmiWYX8uTbFBeTTvJMdA&utm_campaign=yelp_api_v3&utm_medium=api_v3_business_search&utm_source=9gNmiWYX8uTbFBeTTvJMdA", "review_count": 2086, "categories": [{"alias": "french", "title": "French"}, {"alias": "wine_bars", "title": "Wine Bars"}, {"alias": "cocktailbars", "title": "Cocktail Bars"}], "rating": 4.0, "coordinates": {"latitude": 40.732704, "longitude": -74.00434640955953}, "transactions": ["delivery"], "price": "$$", "location": {"address1": "42 Grove St", "address2": "", "address3": "", "city": "New York", "zip_code": "10014", "country": "US", "state": "NY", "display_address": ["42 Grove St", "New York, NY 10014"]}, "phone": "+12122553590", "display_phone": "(212) 255-3590", "distance": 4152.651669913258}, {"id": "qoc8jyoCBW4tw9zspA2K6Q", "alias": "jeannies-new-york-3", "name": "Jeannie's", "image_url": "https://s3-media3.fl.yelpcdn.com/bphoto/IbhxaDtMIoS1g02wWzmnLw/o.jpg", "is_closed": false, "url": "https://www.yelp.com/biz/jeannies-new-york-3?adjust_creative=9gNmiWYX8uTbFBeTTvJMdA&utm_campaign=yelp_api_v3&utm_medium=api_v3_business_search&utm_source=9gNmiWYX8uTbFBeTTvJMdA", "review_count": 23, "categories": [{"alias": "italian", "title": "Italian"}, {"alias": "pizza", "title": "Pizza"}], "rating": 4.5, "coordinates": {"latitude": 40.7662427, "longitude": -73.98124349999999}, "transactions": [], "price": "$$", "location": {"address1": "225 W 57th St", "address2": null, "address3": null, "city": "New York", "zip_code": "10019", "country": "US", "state": "NY", "display_address": ["225 W 57th St", "New York, NY 10019"]}, "phone": "+12122952185", "display_phone": "(212) 295-2185", "distance": 1258.4174525493354}, {"id": "Ry9w-jFALWYhazi6jjyIKw", "alias": "rucola-brooklyn", "name": "Rucola", "image_url": "https://s3-media4.fl.yelpcdn.com/bphoto/cUWUr0OH-hnShqeFeshopA/o.jpg", "is_closed": false, "url": "https://www.yelp.com/biz/rucola-brooklyn?adjust_creative=9gNmiWYX8uTbFBeTTvJMdA&utm_campaign=yelp_api_v3&utm_medium=api_v3_business_search&utm_source=9gNmiWYX8uTbFBeTTvJMdA", "review_count": 553, "categories": [{"alias": "italian", "title": "Italian"}, {"alias": "diners", "title": "Diners"}, {"alias": "breakfast_brunch", "title": "Breakfast & Brunch"}], "rating": 4.0, "coordinates": {"latitude": 40.68562, "longitude": -73.98587}, "transactions": ["delivery"], "price": "$$", "location": {"address1": "190 Dean St", "address2": "", "address3": "", "city": "Brooklyn", "zip_code": "11217", "country": "US", "state": "NY", "display_address": ["190 Dean St", "Brooklyn, NY 11217"]}, "phone": "+17185763209", "display_phone": "(718) 576-3209", "distance": 8295.633256949792}, {"id": "vZ5-JXlJS75k8wmPNS5U5w", "alias": "max-soha-restaurant-new-york", "name": "Max Soha Restaurant", "image_url": "https://s3-media3.fl.yelpcdn.com/bphoto/PBYKPB3LdzWH2vsovHPzNA/o.jpg", "is_closed": false, "url": "https://www.yelp.com/biz/max-soha-restaurant-new-york?adjust_creative=9gNmiWYX8uTbFBeTTvJMdA&utm_campaign=yelp_api_v3&utm_medium=api_v3_business_search&utm_source=9gNmiWYX8uTbFBeTTvJMdA", "review_count": 434, "categories": [{"alias": "italian", "title": "Italian"}], "rating": 4.0, "coordinates": {"latitude": 40.811324216443104, "longitude": -73.9581736}, "transactions": ["delivery", "pickup"], "price": "$$", "location": {"address1": "1274 Amsterdam Ave", "address2": "", "address3": "", "city": "New York", "zip_code": "10027", "country": "US", "state": "NY", "display_address": ["1274 Amsterdam Ave", "New York, NY 10027"]}, "phone": "+12125312221", "display_phone": "(212) 531-2221", "distance": 5877.654504987647}, {"id": "ZSDq6s2BFnvZEU4apxXbew", "alias": "di-palma-brothers-restaurant-north-bergen", "name": "Di Palma Brothers Restaurant", "image_url": "https://s3-media1.fl.yelpcdn.com/bphoto/HxKDsE0P85ErVNDhElh_5A/o.jpg", "is_closed": false, "url": "https://www.yelp.com/biz/di-palma-brothers-restaurant-north-bergen?adjust_creative=9gNmiWYX8uTbFBeTTvJMdA&utm_campaign=yelp_api_v3&utm_medium=api_v3_business_search&utm_source=9gNmiWYX8uTbFBeTTvJMdA", "review_count": 145, "categories": [{"alias": "italian", "title": "Italian"}], "rating": 4.0, "coordinates": {"latitude": 40.808952, "longitude": -74.007419}, "transactions": ["delivery"], "price": "$$", "location": {"address1": "8728 Kennedy Blvd", "address2": "", "address3": "", "city": "North Bergen", "zip_code": "07047", "country": "US", "state": "NJ", "display_address": ["8728 Kennedy Blvd", "North Bergen, NJ 07047"]}, "phone": "+12018683005", "display_phone": "(201) 868-3005", "distance": 6386.599404447342}, {"id": "UpnHg_984LLZ28-kBB5MSQ", "alias": "bella-luna-restaurant-new-york", "name": "Bella Luna Restaurant", "image_url": "https://s3-media2.fl.yelpcdn.com/bphoto/mnDM3U6XeZL2_Q4qQ6YwMw/o.jpg", "is_closed": false, "url": "https://www.yelp.com/biz/bella-luna-restaurant-new-york?adjust_creative=9gNmiWYX8uTbFBeTTvJMdA&utm_campaign=yelp_api_v3&utm_medium=api_v3_business_search&utm_source=9gNmiWYX8uTbFBeTTvJMdA", "review_count": 338, "categories": [{"alias": "italian", "title": "Italian"}, {"alias": "wine_bars", "title": "Wine Bars"}, {"alias": "beerbar", "title": "Beer Bar"}], "rating": 3.5, "coordinates": {"latitude": 40.787762, "longitude": -73.971458}, "transactions": ["delivery", "pickup"], "price": "$$", "location": {"address1": "574 Columbus Ave", "address2": "", "address3": "", "city": "New York", "zip_code": "10024", "country": "US", "state": "NY", "display_address": ["574 Columbus Ave", "New York, NY 10024"]}, "phone": "+12128772267", "display_phone": "(212) 877-2267", "distance": 3182.715064399979}, {"id": "w4sroju3erMVIriEFf_n3w", "alias": "l-amore-restaurant-new-york", "name": "L\u2019AMORE Restaurant", "image_url": "https://s3-media2.fl.yelpcdn.com/bphoto/t-uGvmtCRVX2kYT1vG9g7A/o.jpg", "is_closed": false, "url": "https://www.yelp.com/biz/l-amore-restaurant-new-york?adjust_creative=9gNmiWYX8uTbFBeTTvJMdA&utm_campaign=yelp_api_v3&utm_medium=api_v3_business_search&utm_source=9gNmiWYX8uTbFBeTTvJMdA", "review_count": 33, "categories": [{"alias": "italian", "title": "Italian"}], "rating": 3.5, "coordinates": {"latitude": 40.72001, "longitude": -73.99714}, "transactions": [], "price": "$$", "location": {"address1": "171 Mulberry St", "address2": null, "address3": "", "city": "New York", "zip_code": "10013", "country": "US", "state": "NY", "display_address": ["171 Mulberry St", "New York, NY 10013"]}, "phone": "", "display_phone": "", "distance": 4937.3365250652105}, {"id": "7cOibAFiGbSsSWo27SLIgw", "alias": "tutto-a-modo-mio-ridgefield", "name": "Tutto A Modo Mio", "image_url": "https://s3-media3.fl.yelpcdn.com/bphoto/3RhrBZK0lT7FpwBv0y7mfQ/o.jpg", "is_closed": false, "url": "https://www.yelp.com/biz/tutto-a-modo-mio-ridgefield?adjust_creative=9gNmiWYX8uTbFBeTTvJMdA&utm_campaign=yelp_api_v3&utm_medium=api_v3_business_search&utm_source=9gNmiWYX8uTbFBeTTvJMdA", "review_count": 385, "categories": [{"alias": "italian", "title": "Italian"}, {"alias": "seafood", "title": "Seafood"}], "rating": 4.0, "coordinates": {"latitude": 40.8244151, "longitude": -73.9972534}, "transactions": ["delivery", "pickup"], "price": "$$", "location": {"address1": "482 Bergen Blvd", "address2": "", "address3": "", "city": "Ridgefield", "zip_code": "07657", "country": "US", "state": "NJ", "display_address": ["482 Bergen Blvd", "Ridgefield, NJ 07657"]}, "phone": "+12013139690", "display_phone": "(201) 313-9690", "distance": 7616.281674455121}, {"id": "rbIrit8gZwfyEOdEOeX7jg", "alias": "orso-new-york", "name": "Orso", "image_url": "https://s3-media4.fl.yelpcdn.com/bphoto/ZF-CyoHhgUQKAoJ_kbOerQ/o.jpg", "is_closed": false, "url": "https://www.yelp.com/biz/orso-new-york?adjust_creative=9gNmiWYX8uTbFBeTTvJMdA&utm_campaign=yelp_api_v3&utm_medium=api_v3_business_search&utm_source=9gNmiWYX8uTbFBeTTvJMdA", "review_count": 197, "categories": [{"alias": "italian", "title": "Italian"}, {"alias": "venues", "title": "Venues & Event Spaces"}, {"alias": "pizza", "title": "Pizza"}], "rating": 4.0, "coordinates": {"latitude": 40.759994, "longitude": -73.989025}, "transactions": ["delivery"], "price": "$$$", "location": {"address1": "322 W 46th St", "address2": "", "address3": "", "city": "New York", "zip_code": "10036", "country": "US", "state": "NY", "display_address": ["322 W 46th St", "New York, NY 10036"]}, "phone": "+12124897212", "display_phone": "(212) 489-7212", "distance": 1640.796499423469}, {"id": "JU5d81TYm7IJHWqOqJWMqw", "alias": "have-and-meyer-brooklyn", "name": "Have & Meyer", "image_url": "https://s3-media2.fl.yelpcdn.com/bphoto/QG4N52UALuEq9ndfZn6Ohw/o.jpg", "is_closed": false, "url": "https://www.yelp.com/biz/have-and-meyer-brooklyn?adjust_creative=9gNmiWYX8uTbFBeTTvJMdA&utm_campaign=yelp_api_v3&utm_medium=api_v3_business_search&utm_source=9gNmiWYX8uTbFBeTTvJMdA", "review_count": 189, "categories": [{"alias": "wine_bars", "title": "Wine Bars"}, {"alias": "italian", "title": "Italian"}, {"alias": "cocktailbars", "title": "Cocktail Bars"}], "rating": 4.0, "coordinates": {"latitude": 40.7132687751084, "longitude": -73.9564743950496}, "transactions": ["delivery", "pickup"], "price": "$$", "location": {"address1": "103 Havemeyer St", "address2": "", "address3": "", "city": "Brooklyn", "zip_code": "11211", "country": "US", "state": "NY", "display_address": ["103 Havemeyer St", "Brooklyn, NY 11211"]}, "phone": "+17184190722", "display_phone": "(718) 419-0722", "distance": 5222.459912010562}, {"id": "FXYsBqMu2q1dhJYQg_FfAA", "alias": "rosemary-s-new-york", "name": "Rosemary\u2019s", "image_url": "https://s3-media4.fl.yelpcdn.com/bphoto/RkhGovZ1ugnS0LVjZXpD2Q/o.jpg", "is_closed": false, "url": "https://www.yelp.com/biz/rosemary-s-new-york?adjust_creative=9gNmiWYX8uTbFBeTTvJMdA&utm_campaign=yelp_api_v3&utm_medium=api_v3_business_search&utm_source=9gNmiWYX8uTbFBeTTvJMdA", "review_count": 206, "categories": [{"alias": "italian", "title": "Italian"}, {"alias": "wine_bars", "title": "Wine Bars"}, {"alias": "pizza", "title": "Pizza"}], "rating": 4.0, "coordinates": {"latitude": 40.735097, "longitude": -73.979074}, "transactions": ["delivery", "pickup"], "price": "$$$", "location": {"address1": "350 1st Ave", "address2": "", "address3": null, "city": "New York", "zip_code": "10010", "country": "US", "state": "NY", "display_address": ["350 1st Ave", "New York, NY 10010"]}, "phone": "+16468685335", "display_phone": "(646) 868-5335", "distance": 2807.4551381352435}, {"id": "xzN2k19JXDYjOWAhNw62aw", "alias": "adoro-lei-new-york", "name": "Adoro Lei", "image_url": "https://s3-media4.fl.yelpcdn.com/bphoto/wohR6E6-nGuhOSAPfexhBA/o.jpg", "is_closed": false, "url": "https://www.yelp.com/biz/adoro-lei-new-york?adjust_creative=9gNmiWYX8uTbFBeTTvJMdA&utm_campaign=yelp_api_v3&utm_medium=api_v3_business_search&utm_source=9gNmiWYX8uTbFBeTTvJMdA", "review_count": 356, "categories": [{"alias": "italian", "title": "Italian"}, {"alias": "pizza", "title": "Pizza"}, {"alias": "lounges", "title": "Lounges"}], "rating": 4.5, "coordinates": {"latitude": 40.725612, "longitude": -74.007916}, "transactions": ["delivery", "pickup"], "price": "$$", "location": {"address1": "287 Hudson St", "address2": "", "address3": "", "city": "New York", "zip_code": "10013", "country": "US", "state": "NY", "display_address": ["287 Hudson St", "New York, NY 10013"]}, "phone": "+16466665096", "display_phone": "(646) 666-5096", "distance": 4935.786589369699}, {"id": "_N92SH1Zi-Hbxn_bNHFz0Q", "alias": "noodle-pudding-brooklyn", "name": "Noodle Pudding", "image_url": "https://s3-media2.fl.yelpcdn.com/bphoto/Zy180Gab7p-dq5RhbAfFAQ/o.jpg", "is_closed": false, "url": "https://www.yelp.com/biz/noodle-pudding-brooklyn?adjust_creative=9gNmiWYX8uTbFBeTTvJMdA&utm_campaign=yelp_api_v3&utm_medium=api_v3_business_search&utm_source=9gNmiWYX8uTbFBeTTvJMdA", "review_count": 609, "categories": [{"alias": "italian", "title": "Italian"}], "rating": 4.0, "coordinates": {"latitude": 40.69979, "longitude": -73.99203}, "transactions": ["delivery"], "price": "$$", "location": {"address1": "38 Henry St", "address2": "", "address3": "", "city": "Brooklyn", "zip_code": "11201", "country": "US", "state": "NY", "display_address": ["38 Henry St", "Brooklyn, NY 11201"]}, "phone": "+17186253737", "display_phone": "(718) 625-3737", "distance": 6864.54231744424}, {"id": "S8OKQ5S40oZ1Rr5RbC0jdg", "alias": "motorino-new-york-4", "name": "Motorino", "image_url": "https://s3-media3.fl.yelpcdn.com/bphoto/QD5ot0KVIpX7wSNs0sfhwg/o.jpg", "is_closed": false, "url": "https://www.yelp.com/biz/motorino-new-york-4?adjust_creative=9gNmiWYX8uTbFBeTTvJMdA&utm_campaign=yelp_api_v3&utm_medium=api_v3_business_search&utm_source=9gNmiWYX8uTbFBeTTvJMdA", "review_count": 1115, "categories": [{"alias": "pizza", "title": "Pizza"}, {"alias": "italian", "title": "Italian"}], "rating": 4.0, "coordinates": {"latitude": 40.73039, "longitude": -73.98381}, "transactions": ["delivery", "pickup"], "price": "$$", "location": {"address1": "349 E 12th St", "address2": "", "address3": "", "city": "New York", "zip_code": "10003", "country": "US", "state": "NY", "display_address": ["349 E 12th St", "New York, NY 10003"]}, "phone": "+12127772644", "display_phone": "(212) 777-2644", "distance": 3419.32367020401}, {"id": "xEdAaZTNNHRZbvzBuSjcCg", "alias": "house-of-lasagna-new-york", "name": "House of Lasagna", "image_url": "https://s3-media1.fl.yelpcdn.com/bphoto/7NCWKIPvYjSKIEMBAL3XRw/o.jpg", "is_closed": false, "url": "https://www.yelp.com/biz/house-of-lasagna-new-york?adjust_creative=9gNmiWYX8uTbFBeTTvJMdA&utm_campaign=yelp_api_v3&utm_medium=api_v3_business_search&utm_source=9gNmiWYX8uTbFBeTTvJMdA", "review_count": 186, "categories": [{"alias": "italian", "title": "Italian"}], "rating": 3.5, "coordinates": {"latitude": 40.7497237, "longitude": -73.9775697}, "transactions": ["delivery", "pickup"], "price": "$$", "location": {"address1": "334 Lexington Ave", "address2": "", "address3": "", "city": "New York", "zip_code": "10016", "country": "US", "state": "NY", "display_address": ["334 Lexington Ave", "New York, NY 10016"]}, "phone": "+12128839555", "display_phone": "(212) 883-9555", "distance": 1248.194576246326}, {"id": "oEjWa3AETzPQfM3S1wRiLA", "alias": "due-new-york", "name": "Due", "image_url": "https://s3-media3.fl.yelpcdn.com/bphoto/Tn04QBY7W-DgM78oLQv-LQ/o.jpg", "is_closed": false, "url": "https://www.yelp.com/biz/due-new-york?adjust_creative=9gNmiWYX8uTbFBeTTvJMdA&utm_campaign=yelp_api_v3&utm_medium=api_v3_business_search&utm_source=9gNmiWYX8uTbFBeTTvJMdA", "review_count": 92, "categories": [{"alias": "italian", "title": "Italian"}], "rating": 4.0, "coordinates": {"latitude": 40.77466, "longitude": -73.95724}, "transactions": ["delivery"], "price": "$$$", "location": {"address1": "1396 3rd Ave", "address2": "", "address3": "", "city": "New York", "zip_code": "10075", "country": "US", "state": "NY", "display_address": ["1396 3rd Ave", "New York, NY 10075"]}, "phone": "+12127723331", "display_phone": "(212) 772-3331", "distance": 2011.1071666442344}, {"id": "nVtJOWn3XlL6MSZ-YnU6iA", "alias": "da-francesco-brooklyn-3", "name": "Da Francesco", "image_url": "https://s3-media2.fl.yelpcdn.com/bphoto/ExwXqETz7aYy5awHHKEVeA/o.jpg", "is_closed": false, "url": "https://www.yelp.com/biz/da-francesco-brooklyn-3?adjust_creative=9gNmiWYX8uTbFBeTTvJMdA&utm_campaign=yelp_api_v3&utm_medium=api_v3_business_search&utm_source=9gNmiWYX8uTbFBeTTvJMdA", "review_count": 141, "categories": [{"alias": "italian", "title": "Italian"}], "rating": 4.0, "coordinates": {"latitude": 40.718353, "longitude": -73.944677}, "transactions": ["delivery", "pickup"], "price": "$$", "location": {"address1": "442 Graham Ave", "address2": "", "address3": "", "city": "Brooklyn", "zip_code": "11211", "country": "US", "state": "NY", "display_address": ["442 Graham Ave", "Brooklyn, NY 11211"]}, "phone": "+17183491627", "display_phone": "(718) 349-1627", "distance": 5002.1736135114}, {"id": "iV5yy8EbjsPoYWtjRhB61Q", "alias": "nica-trattoria-new-york", "name": "Nica Trattoria", "image_url": "https://s3-media2.fl.yelpcdn.com/bphoto/W_R4VJPpl7tAGMqhy6p17A/o.jpg", "is_closed": false, "url": "https://www.yelp.com/biz/nica-trattoria-new-york?adjust_creative=9gNmiWYX8uTbFBeTTvJMdA&utm_campaign=yelp_api_v3&utm_medium=api_v3_business_search&utm_source=9gNmiWYX8uTbFBeTTvJMdA", "review_count": 156, "categories": [{"alias": "italian", "title": "Italian"}, {"alias": "wine_bars", "title": "Wine Bars"}], "rating": 4.0, "coordinates": {"latitude": 40.7756431, "longitude": -73.950783}, "transactions": ["delivery"], "price": "$$$", "location": {"address1": "354 E 84th St", "address2": "", "address3": "", "city": "New York", "zip_code": "10028", "country": "US", "state": "NY", "display_address": ["354 E 84th St", "New York, NY 10028"]}, "phone": "+12124725040", "display_phone": "(212) 472-5040", "distance": 2420.2387217771197}], "total": 4600, "region": {"center": {"longitude": -73.96957397460938, "latitude": 40.75917470627005}}}