{"businesses": [{"id": "LtBk9m1C-05nFNwD1OxcBw", "alias": "bellini-new-york-3", "name": "Bellini", "image_url": "https://s3-media1.fl.yelpcdn.com/bphoto/qN5sfg42mUBdK7YtuPWJ8g/o.jpg", "is_closed": false, "url": "https://www.yelp.com/biz/bellini-new-york-3?adjust_creative=9gNmiWYX8uTbFBeTTvJMdA&utm_campaign=yelp_api_v3&utm_medium=api_v3_business_search&utm_source=9gNmiWYX8uTbFBeTTvJMdA", "review_count": 69, "categories": [{"alias": "italian", "title": "Italian"}], "rating": 3.5, "coordinates": {"latitude": 40.70798, "longitude": -74.00144}, "transactions": ["delivery", "pickup"], "location": {"address1": "33 Peck Slip", "address2": "", "address3": null, "city": "New York", "zip_code": "10038", "country": "US", "state": "NY", "display_address": ["33 Peck Slip", "New York, NY 10038"]}, "phone": "+19175725171", "display_phone": "(917) 572-5171", "distance": 6291.979661125683}, {"id": "4wDWxcGMJEgriP-6ObJsqg", "alias": "jose-luis-mediterranean-cuisine-new-york", "name": "Jose Luis Mediterranean Cuisine", "image_url": "https://s3-media3.fl.yelpcdn.com/bphoto/Obhg9PSuZKxwfJzgMN8-BQ/o.jpg", "is_closed": false, "url": "https://www.yelp.com/biz/jose-luis-mediterranean-cuisine-new-york?adjust_creative=9gNmiWYX8uTbFBeTTvJMdA&utm_campaign=yelp_api_v3&utm_medium=api_v3_business_search&utm_source=9gNmiWYX8uTbFBeTTvJMdA", "review_count": 178, "categories": [{"alias": "italian", "title": "Italian"}, {"alias": "spanish", "title": "Spanish"}, {"alias": "mediterranean", "title": "Mediterranean"}], "rating": 5.0, "coordinates": {"latitude": 40.727861, "longitude": -73.979339}, "transactions": ["delivery", "pickup", "restaurant_reservation"], "location": {"address1": "186 Ave B", "address2": null, "address3": "", "city": "New York", "zip_code": "10009", "country": "US", "state": "NY", "display_address": ["186 Ave B", "New York, NY 10009"]}, "phone": "+16467070746", "display_phone": "(646) 707-0746", "distance": 3578.8247293721392}, {"id": "Rc1lxc5lSKJYd162JHNMfQ", "alias": "bea-new-york", "name": "Bea", "image_url": "https://s3-media2.fl.yelpcdn.com/bphoto/m2d14AiiBqqly1gpMyU2RQ/o.jpg", "is_closed": false, "url": "https://www.yelp.com/biz/bea-new-york?adjust_creative=9gNmiWYX8uTbFBeTTvJMdA&utm_campaign=yelp_api_v3&utm_medium=api_v3_business_search&utm_source=9gNmiWYX8uTbFBeTTvJMdA", "review_count": 2813, "categories": [{"alias": "newamerican", "title": "American (New)"}, {"alias": "cocktailbars", "title": "Cocktail Bars"}], "rating": 4.0, "coordinates": {"latitude": 40.7591968, "longitude": -73.9923361}, "transactions": ["delivery", "restaurant_reservation"], "price": "$$", "location": {"address1": "403 W 43rd St", "address2": "", "address3": "", "city": "New York", "zip_code": "10036", "country": "US", "state": "NY", "display_address": ["403 W 43rd St", "New York, NY 10036"]}, "phone": "+12126021910", "display_phone": "(212) 602-1910", "distance": 1917.1564127029542}, {"id": "nM2AdRp2iSJHi4MgvIrEBg", "alias": "oak-tuscan-truffle-lounge-new-york-6", "name": "Oak Tuscan Truffle Lounge", "image_url": "https://s3-media3.fl.yelpcdn.com/bphoto/pctCI5kp__4w0g4n8mJrCA/o.jpg", "is_closed": false, "url": "https://www.yelp.com/biz/oak-tuscan-truffle-lounge-new-york-6?adjust_creative=9gNmiWYX8uTbFBeTTvJMdA&utm_campaign=yelp_api_v3&utm_medium=api_v3_business_search&utm_source=9gNmiWYX8uTbFBeTTvJMdA", "review_count": 156, "categories": [{"alias": "italian", "title": "Italian"}], "rating": 4.5, "coordinates": {"latitude": 40.735042, "longitude": -74.00002}, "transactions": ["delivery", "pickup"], "location": {"address1": "28 Greenwich Ave", "address2": null, "address3": null, "city": "New York", "zip_code": "10011", "country": "US", "state": "NY", "display_address": ["28 Greenwich Ave", "New York, NY 10011"]}, "phone": "+16468640205", "display_phone": "(646) 864-0205", "distance": 3712.009510023792}, {"id": "Z22s9SoQOndAey4_SULrvA", "alias": "mediterraneo-restaurant-new-york", "name": "Mediterraneo Restaurant", "image_url": "https://s3-media1.fl.yelpcdn.com/bphoto/gxT9vnfxjCVZnzj-M4aiDg/o.jpg", "is_closed": false, "url": "https://www.yelp.com/biz/mediterraneo-restaurant-new-york?adjust_creative=9gNmiWYX8uTbFBeTTvJMdA&utm_campaign=yelp_api_v3&utm_medium=api_v3_business_search&utm_source=9gNmiWYX8uTbFBeTTvJMdA", "review_count": 361, "categories": [{"alias": "italian", "title": "Italian"}], "rating": 3.0, "coordinates": {"latitude": 40.7649733, "longitude": -73.9609846}, "transactions": ["delivery", "pickup"], "price": "$$", "location": {"address1": "1260 2nd Ave", "address2": "", "address3": "", "city": "New York", "zip_code": "10065", "country": "US", "state": "NY", "display_address": ["1260 2nd Ave", "New York, NY 10065"]}, "phone": "+12127347407", "display_phone": "(212) 734-7407", "distance": 969.0516046118659}, {"id": "vXYFa2qzppkGiOiVPrLwDQ", "alias": "don-peppe-south-ozone-park-2", "name": "Don Peppe", "image_url": "https://s3-media1.fl.yelpcdn.com/bphoto/-9zuAlww4TZtVtj_CvL8yA/o.jpg", "is_closed": false, "url": "https://www.yelp.com/biz/don-peppe-south-ozone-park-2?adjust_creative=9gNmiWYX8uTbFBeTTvJMdA&utm_campaign=yelp_api_v3&utm_medium=api_v3_business_search&utm_source=9gNmiWYX8uTbFBeTTvJMdA", "review_count": 663, "categories": [{"alias": "italian", "title": "Italian"}, {"alias": "desserts", "title": "Desserts"}, {"alias": "seafood", "title": "Seafood"}], "rating": 4.0, "coordinates": {"latitude": 40.6689814908178, "longitude": -73.8216334221041}, "transactions": ["delivery"], "price": "$$$", "location": {"address1": "135-58 Lefferts Blvd", "address2": null, "address3": "", "city": "South Ozone Park", "zip_code": "11420", "country": "US", "state": "NY", "display_address": ["135-58 Lefferts Blvd", "South Ozone Park, NY 11420"]}, "phone": "+17188457587", "display_phone": "(718) 845-7587", "distance": 16001.657222687978}, {"id": "Jwb556DrGTEZryeV7XgZmQ", "alias": "bar-primi-new-york-3", "name": "Bar Primi", "image_url": "https://s3-media4.fl.yelpcdn.com/bphoto/Sa6zE-OtpnutVI_ySVXJZA/o.jpg", "is_closed": false, "url": "https://www.yelp.com/biz/bar-primi-new-york-3?adjust_creative=9gNmiWYX8uTbFBeTTvJMdA&utm_campaign=yelp_api_v3&utm_medium=api_v3_business_search&utm_source=9gNmiWYX8uTbFBeTTvJMdA", "review_count": 762, "categories": [{"alias": "italian", "title": "Italian"}, {"alias": "pastashops", "title": "Pasta Shops"}], "rating": 3.5, "coordinates": {"latitude": 40.725639, "longitude": -73.991714}, "transactions": ["delivery", "pickup"], "price": "$$", "location": {"address1": "325 Bowery", "address2": "", "address3": "", "city": "New York", "zip_code": "10003", "country": "US", "state": "NY", "display_address": ["325 Bowery", "New York, NY 10003"]}, "phone": "+12122209100", "display_phone": "(212) 220-9100", "distance": 4160.523540732008}, {"id": "3FCxi2imtP_wMgsgsqIQOw", "alias": "bocca-di-bacco-new-york-5", "name": "Bocca Di Bacco", "image_url": "https://s3-media2.fl.yelpcdn.com/bphoto/E6KkM_L-YoyNKUzGNzXVVw/o.jpg", "is_closed": false, "url": "https://www.yelp.com/biz/bocca-di-bacco-new-york-5?adjust_creative=9gNmiWYX8uTbFBeTTvJMdA&utm_campaign=yelp_api_v3&utm_medium=api_v3_business_search&utm_source=9gNmiWYX8uTbFBeTTvJMdA", "review_count": 323, "categories": [{"alias": "italian", "title": "Italian"}, {"alias": "wine_bars", "title": "Wine Bars"}, {"alias": "breakfast_brunch", "title": "Breakfast & Brunch"}], "rating": 3.5, "coordinates": {"latitude": 40.76024707932667, "longitude": -73.99165780170934}, "transactions": ["delivery", "pickup"], "price": "$$", "location": {"address1": "635 9th Ave", "address2": "", "address3": "", "city": "New York", "zip_code": "10036", "country": "US", "state": "NY", "display_address": ["635 9th Ave", "New York, NY 10036"]}, "phone": "+12122622525", "display_phone": "(212) 262-2525", "distance": 1863.82832835921}, {"id": "bW3mY-voyav37nU0uaLmNQ", "alias": "dante-new-york", "name": "Dante", "image_url": "https://s3-media3.fl.yelpcdn.com/bphoto/828zxxk4lED3Cmh34oZdyw/o.jpg", "is_closed": false, "url": "https://www.yelp.com/biz/dante-new-york?adjust_creative=9gNmiWYX8uTbFBeTTvJMdA&utm_campaign=yelp_api_v3&utm_medium=api_v3_business_search&utm_source=9gNmiWYX8uTbFBeTTvJMdA", "review_count": 589, "categories": [{"alias": "cocktailbars", "title": "Cocktail Bars"}, {"alias": "italian", "title": "Italian"}, {"alias": "breakfast_brunch", "title": "Breakfast & Brunch"}], "rating": 4.0, "coordinates": {"latitude": 40.72879, "longitude": -74.00165}, "transactions": ["delivery"], "price": "$$", "location": {"address1": "79-81 Macdougal St", "address2": null, "address3": "", "city": "New York", "zip_code": "10012", "country": "US", "state": "NY", "display_address": ["79-81 Macdougal St", "New York, NY 10012"]}, "phone": "+12129825275", "display_phone": "(212) 982-5275", "distance": 4327.821444440053}, {"id": "xbrQ2dHuQoFJmNxAuOky4A", "alias": "vics-new-york", "name": "Vic's", "image_url": "https://s3-media2.fl.yelpcdn.com/bphoto/3K7Awd_arn0X0G7p25B_ow/o.jpg", "is_closed": false, "url": "https://www.yelp.com/biz/vics-new-york?adjust_creative=9gNmiWYX8uTbFBeTTvJMdA&utm_campaign=yelp_api_v3&utm_medium=api_v3_business_search&utm_source=9gNmiWYX8uTbFBeTTvJMdA", "review_count": 566, "categories": [{"alias": "italian", "title": "Italian"}, {"alias": "pastashops", "title": "Pasta Shops"}, {"alias": "pizza", "title": "Pizza"}], "rating": 4.0, "coordinates": {"latitude": 40.72693, "longitude": -73.99319}, "transactions": ["delivery", "pickup"], "price": "$$", "location": {"address1": "31 Great Jones St", "address2": "", "address3": "", "city": "New York", "zip_code": "10012", "country": "US", "state": "NY", "display_address": ["31 Great Jones St", "New York, NY 10012"]}, "phone": "+12122535700", "display_phone": "(212) 253-5700", "distance": 4104.554817582975}, {"id": "SbjbIDBB9JQJBvG5InsGwg", "alias": "parma-nuova-new-york-2", "name": "Parma Nuova", "image_url": "https://s3-media2.fl.yelpcdn.com/bphoto/_-RuutOHU4fUMYqtCsxu4w/o.jpg", "is_closed": false, "url": "https://www.yelp.com/biz/parma-nuova-new-york-2?adjust_creative=9gNmiWYX8uTbFBeTTvJMdA&utm_campaign=yelp_api_v3&utm_medium=api_v3_business_search&utm_source=9gNmiWYX8uTbFBeTTvJMdA", "review_count": 5, "categories": [{"alias": "italian", "title": "Italian"}], "rating": 4.0, "coordinates": {"latitude": 40.774874, "longitude": -73.95722}, "transactions": ["delivery", "pickup"], "location": {"address1": "1404 3rd Ave", "address2": "", "address3": null, "city": "New York", "zip_code": "10075", "country": "US", "state": "NY", "display_address": ["1404 3rd Ave", "New York, NY 10075"]}, "phone": "+12125353520", "display_phone": "(212) 535-3520", "distance": 2038.098322167071}, {"id": "_KIjhnsaui-wF9OePRZ5NA", "alias": "gottino-enoteca-e-salumeria-new-york", "name": "Gottino Enoteca e Salumeria", "image_url": "https://s3-media1.fl.yelpcdn.com/bphoto/Mn0vuI5unH9CfI8a2W0CKQ/o.jpg", "is_closed": false, "url": "https://www.yelp.com/biz/gottino-enoteca-e-salumeria-new-york?adjust_creative=9gNmiWYX8uTbFBeTTvJMdA&utm_campaign=yelp_api_v3&utm_medium=api_v3_business_search&utm_source=9gNmiWYX8uTbFBeTTvJMdA", "review_count": 316, "categories": [{"alias": "wine_bars", "title": "Wine Bars"}, {"alias": "italian", "title": "Italian"}], "rating": 4.0, "coordinates": {"latitude": 40.7358, "longitude": -74.00036}, "transactions": ["delivery"], "price": "$$", "location": {"address1": "52 Greenwich Ave", "address2": "", "address3": "", "city": "New York", "zip_code": "10011", "country": "US", "state": "NY", "display_address": ["52 Greenwich Ave", "New York, NY 10011"]}, "phone": "+12126332590", "display_phone": "(212) 633-2590", "distance": 3675.145978675156}, {"id": "gqTikTCIS01E2m20PzHoDQ", "alias": "tarallucci-e-vino-east-village-new-york-5", "name": "Tarallucci e Vino - East Village", "image_url": "https://s3-media3.fl.yelpcdn.com/bphoto/hmM2uPtGntvag9ZBbQ6roQ/o.jpg", "is_closed": false, "url": "https://www.yelp.com/biz/tarallucci-e-vino-east-village-new-york-5?adjust_creative=9gNmiWYX8uTbFBeTTvJMdA&utm_campaign=yelp_api_v3&utm_medium=api_v3_business_search&utm_source=9gNmiWYX8uTbFBeTTvJMdA", "review_count": 302, "categories": [{"alias": "bars", "title": "Bars"}, {"alias": "breakfast_brunch", "title": "Breakfast & Brunch"}, {"alias": "italian", "title": "Italian"}], "rating": 4.0, "coordinates": {"latitude": 40.72901, "longitude": -73.98469}, "transactions": ["delivery", "pickup"], "price": "$$", "location": {"address1": "163 1st Ave", "address2": "", "address3": "", "city": "New York", "zip_code": "10003", "country": "US", "state": "NY", "display_address": ["163 1st Ave", "New York, NY 10003"]}, "phone": "+12123881190", "display_phone": "(212) 388-1190", "distance": 3575.4686307323036}, {"id": "GnaeBuilZb_fU01v3wNhZw", "alias": "grimaldis-hoboken", "name": "Grimaldi's", "image_url": "https://s3-media2.fl.yelpcdn.com/bphoto/on_8TWRf5BnlI1BZrr9zEg/o.jpg", "is_closed": false, "url": "https://www.yelp.com/biz/grimaldis-hoboken?adjust_creative=9gNmiWYX8uTbFBeTTvJMdA&utm_campaign=yelp_api_v3&utm_medium=api_v3_business_search&utm_source=9gNmiWYX8uTbFBeTTvJMdA", "review_count": 454, "categories": [{"alias": "pizza", "title": "Pizza"}, {"alias": "italian", "title": "Italian"}], "rating": 4.0, "coordinates": {"latitude": 40.74131, "longitude": -74.02953}, "transactions": ["delivery"], "price": "$$", "location": {"address1": "411 Washington St", "address2": "", "address3": "", "city": "Hoboken", "zip_code": "07030", "country": "US", "state": "NJ", "display_address": ["411 Washington St", "Hoboken, NJ 07030"]}, "phone": "+12017920010", "display_phone": "(201) 792-0010", "distance": 5398.960908988531}, {"id": "f8ipr8Wdy1_wHhw7JgNqPQ", "alias": "da-claudio-new-york", "name": "Da Claudio", "image_url": "https://s3-media1.fl.yelpcdn.com/bphoto/1BT4cnmCo7LY6_ClTF3vFQ/o.jpg", "is_closed": false, "url": "https://www.yelp.com/biz/da-claudio-new-york?adjust_creative=9gNmiWYX8uTbFBeTTvJMdA&utm_campaign=yelp_api_v3&utm_medium=api_v3_business_search&utm_source=9gNmiWYX8uTbFBeTTvJMdA", "review_count": 607, "categories": [{"alias": "italian", "title": "Italian"}, {"alias": "cocktailbars", "title": "Cocktail Bars"}], "rating": 4.0, "coordinates": {"latitude": 40.71087, "longitude": -74.00753}, "transactions": ["delivery", "pickup", "restaurant_reservation"], "price": "$$", "location": {"address1": "21 Ann St", "address2": "", "address3": "", "city": "New York", "zip_code": "10038", "country": "US", "state": "NY", "display_address": ["21 Ann St", "New York, NY 10038"]}, "phone": "+12122852668", "display_phone": "(212) 285-2668", "distance": 6245.964775962199}, {"id": "dWc0ijADaD6ZdclJ5LqQdg", "alias": "paolas-restaurant-new-york", "name": "Paola's Restaurant", "image_url": "https://s3-media2.fl.yelpcdn.com/bphoto/WqW-4SyvOLNS0m-QHJM3vQ/o.jpg", "is_closed": false, "url": "https://www.yelp.com/biz/paolas-restaurant-new-york?adjust_creative=9gNmiWYX8uTbFBeTTvJMdA&utm_campaign=yelp_api_v3&utm_medium=api_v3_business_search&utm_source=9gNmiWYX8uTbFBeTTvJMdA", "review_count": 204, "categories": [{"alias": "italian", "title": "Italian"}], "rating": 3.5, "coordinates": {"latitude": 40.78221468700567, "longitude": -73.9534524063586}, "transactions": ["delivery"], "price": "$$$", "location": {"address1": "1361 Lexington Ave", "address2": "", "address3": "", "city": "New York", "zip_code": "10128", "country": "US", "state": "NY", "display_address": ["1361 Lexington Ave", "New York, NY 10128"]}, "phone": "+12127941890", "display_phone": "(212) 794-1890", "distance": 2899.4107065445505}, {"id": "-KrQ1gOiyXCbffsWyc5SNQ", "alias": "the-leopard-at-des-artistes-new-york", "name": "The Leopard at des Artistes", "image_url": "https://s3-media2.fl.yelpcdn.com/bphoto/WL46fYi6fAcW8IJey-3jog/o.jpg", "is_closed": false, "url": "https://www.yelp.com/biz/the-leopard-at-des-artistes-new-york?adjust_creative=9gNmiWYX8uTbFBeTTvJMdA&utm_campaign=yelp_api_v3&utm_medium=api_v3_business_search&utm_source=9gNmiWYX8uTbFBeTTvJMdA", "review_count": 273, "categories": [{"alias": "italian", "title": "Italian"}], "rating": 4.0, "coordinates": {"latitude": 40.773515, "longitude": -73.978841}, "transactions": ["delivery", "pickup"], "price": "$$$$", "location": {"address1": "1 W 67th St", "address2": "", "address3": "", "city": "New York", "zip_code": "10023", "country": "US", "state": "NY", "display_address": ["1 W 67th St", "New York, NY 10023"]}, "phone": "+12127878767", "display_phone": "(212) 787-8767", "distance": 1775.3093721322346}, {"id": "rem9J_3x0urIH1vrFkEljA", "alias": "mamo-usa-new-york", "name": "Mamo USA", "image_url": "https://s3-media2.fl.yelpcdn.com/bphoto/qh9MO1gy49bELmU8_IQOmQ/o.jpg", "is_closed": false, "url": "https://www.yelp.com/biz/mamo-usa-new-york?adjust_creative=9gNmiWYX8uTbFBeTTvJMdA&utm_campaign=yelp_api_v3&utm_medium=api_v3_business_search&utm_source=9gNmiWYX8uTbFBeTTvJMdA", "review_count": 5, "categories": [{"alias": "italian", "title": "Italian"}], "rating": 4.5, "coordinates": {"latitude": 40.74511, "longitude": -73.98862}, "transactions": [], "location": {"address1": "1170 Broadway", "address2": "", "address3": "", "city": "New York", "zip_code": "10001", "country": "US", "state": "NY", "display_address": ["1170 Broadway", "New York, NY 10001"]}, "phone": "", "display_phone": "", "distance": 2243.4994591788004}, {"id": "ipoJv9uuT3WgjeVozKUx8A", "alias": "fresh-basils-trattoria-new-york", "name": "Fresh Basil's Trattoria", "image_url": "https://s3-media3.fl.yelpcdn.com/bphoto/Zne8ouCw06WrlBbkFzquKg/o.jpg", "is_closed": false, "url": "https://www.yelp.com/biz/fresh-basils-trattoria-new-york?adjust_creative=9gNmiWYX8uTbFBeTTvJMdA&utm_campaign=yelp_api_v3&utm_medium=api_v3_business_search&utm_source=9gNmiWYX8uTbFBeTTvJMdA", "review_count": 101, "categories": [{"alias": "italian", "title": "Italian"}], "rating": 3.0, "coordinates": {"latitude": 40.759552, "longitude": -73.968344}, "transactions": ["delivery", "pickup"], "price": "$$", "location": {"address1": "930 3rd Ave", "address2": "", "address3": "", "city": "New York", "zip_code": "10022", "country": "US", "state": "NY", "display_address": ["930 3rd Ave", "New York, NY 10022"]}, "phone": "+12128884292", "display_phone": "(212) 888-4292", "distance": 111.76768325993244}, {"id": "Uo7z3QSxLCxj8U44wtj2bA", "alias": "felice-on-hudson-new-york-2", "name": "Felice On Hudson", "image_url": "https://s3-media1.fl.yelpcdn.com/bphoto/8Lx0nBWM_w22_9YihAV_VQ/o.jpg", "is_closed": false, "url": "https://www.yelp.com/biz/felice-on-hudson-new-york-2?adjust_creative=9gNmiWYX8uTbFBeTTvJMdA&utm_campaign=yelp_api_v3&utm_medium=api_v3_business_search&utm_source=9gNmiWYX8uTbFBeTTvJMdA", "review_count": 16, "categories": [{"alias": "bars", "title": "Bars"}, {"alias": "italian", "title": "Italian"}], "rating": 4.5, "coordinates": {"latitude": 40.73784, "longitude": -74.00582}, "transactions": ["delivery", "pickup"], "location": {"address1": "615 Hudson St", "address2": null, "address3": null, "city": "New York", "zip_code": "10014", "country": "US", "state": "NY", "display_address": ["615 Hudson St", "New York, NY 10014"]}, "phone": "+12127679210", "display_phone": "(212) 767-9210", "distance": 3865.710903517138}, {"id": "3koQihtL0aIYzjJweMLDnw", "alias": "vini-e-fritti-new-york", "name": "Vini e Fritti", "image_url": "https://s3-media1.fl.yelpcdn.com/bphoto/rRuRwCnYVBcVTjycSfm2zA/o.jpg", "is_closed": false, "url": "https://www.yelp.com/biz/vini-e-fritti-new-york?adjust_creative=9gNmiWYX8uTbFBeTTvJMdA&utm_campaign=yelp_api_v3&utm_medium=api_v3_business_search&utm_source=9gNmiWYX8uTbFBeTTvJMdA", "review_count": 48, "categories": [{"alias": "wine_bars", "title": "Wine Bars"}, {"alias": "italian", "title": "Italian"}], "rating": 4.0, "coordinates": {"latitude": 40.744888, "longitude": -73.984227}, "transactions": [], "location": {"address1": "30 E 30th St", "address2": "", "address3": null, "city": "New York", "zip_code": "10016", "country": "US", "state": "NY", "display_address": ["30 E 30th St", "New York, NY 10016"]}, "phone": "+16467478626", "display_phone": "(646) 747-8626", "distance": 2011.753965629053}, {"id": "19zArMBG2qW2k16Y0i2aBA", "alias": "obic\u00e0-mozzarella-bar-pizza-e-cucina-new-york-6", "name": "Obic\u00e0 Mozzarella Bar Pizza e Cucina", "image_url": "https://s3-media2.fl.yelpcdn.com/bphoto/vNocRV3sHNc_QpdRXXNYBQ/o.jpg", "is_closed": false, "url": "https://www.yelp.com/biz/obic%C3%A0-mozzarella-bar-pizza-e-cucina-new-york-6?adjust_creative=9gNmiWYX8uTbFBeTTvJMdA&utm_campaign=yelp_api_v3&utm_medium=api_v3_business_search&utm_source=9gNmiWYX8uTbFBeTTvJMdA", "review_count": 508, "categories": [{"alias": "italian", "title": "Italian"}, {"alias": "wine_bars", "title": "Wine Bars"}, {"alias": "pizza", "title": "Pizza"}], "rating": 3.5, "coordinates": {"latitude": 40.7400486, "longitude": -73.9893018}, "transactions": ["delivery", "pickup"], "price": "$$", "location": {"address1": "928 Broadway", "address2": "", "address3": "", "city": "New York", "zip_code": "10010", "country": "US", "state": "NY", "display_address": ["928 Broadway", "New York, NY 10010"]}, "phone": "+12127772754", "display_phone": "(212) 777-2754", "distance": 2699.004703799107}, {"id": "V0zC3awsklyxC0GFzmaTLg", "alias": "sfilatino-italian-gourmet-new-york", "name": "Sfilatino Italian Gourmet", "image_url": "https://s3-media2.fl.yelpcdn.com/bphoto/wQGWzGT44SH3UTO1IUdhvQ/o.jpg", "is_closed": false, "url": "https://www.yelp.com/biz/sfilatino-italian-gourmet-new-york?adjust_creative=9gNmiWYX8uTbFBeTTvJMdA&utm_campaign=yelp_api_v3&utm_medium=api_v3_business_search&utm_source=9gNmiWYX8uTbFBeTTvJMdA", "review_count": 221, "categories": [{"alias": "italian", "title": "Italian"}, {"alias": "sandwiches", "title": "Sandwiches"}, {"alias": "salad", "title": "Salad"}], "rating": 4.0, "coordinates": {"latitude": 40.7675056, "longitude": -73.9851073}, "transactions": ["delivery", "pickup"], "price": "$$", "location": {"address1": "342 W 57th St", "address2": "", "address3": "", "city": "New York", "zip_code": "10019", "country": "US", "state": "NY", "display_address": ["342 W 57th St", "New York, NY 10019"]}, "phone": "+16464769856", "display_phone": "(646) 476-9856", "distance": 1563.1088814285404}, {"id": "7jG0JgpWs4APQRflhIyhhQ", "alias": "lena-s-italian-kitchen-new-york", "name": "Lena\u2019s Italian Kitchen", "image_url": "https://s3-media2.fl.yelpcdn.com/bphoto/QE5hQkVwZZuY3qu91QsDkg/o.jpg", "is_closed": false, "url": "https://www.yelp.com/biz/lena-s-italian-kitchen-new-york?adjust_creative=9gNmiWYX8uTbFBeTTvJMdA&utm_campaign=yelp_api_v3&utm_medium=api_v3_business_search&utm_source=9gNmiWYX8uTbFBeTTvJMdA", "review_count": 88, "categories": [{"alias": "italian", "title": "Italian"}], "rating": 4.5, "coordinates": {"latitude": 40.76228, "longitude": -73.963519}, "transactions": ["delivery", "pickup"], "location": {"address1": "1167 2nd Ave", "address2": "", "address3": null, "city": "New York", "zip_code": "10065", "country": "US", "state": "NY", "display_address": ["1167 2nd Ave", "New York, NY 10065"]}, "phone": "+12127255362", "display_phone": "(212) 725-5362", "distance": 615.8723330631834}, {"id": "qgY41g_eg0eNzewCXmKcaA", "alias": "lillo-cucina-italiana-brooklyn", "name": "Lillo Cucina Italiana", "image_url": "https://s3-media2.fl.yelpcdn.com/bphoto/pXCk0KPUImmnM4pgEsBbUg/o.jpg", "is_closed": false, "url": "https://www.yelp.com/biz/lillo-cucina-italiana-brooklyn?adjust_creative=9gNmiWYX8uTbFBeTTvJMdA&utm_campaign=yelp_api_v3&utm_medium=api_v3_business_search&utm_source=9gNmiWYX8uTbFBeTTvJMdA", "review_count": 195, "categories": [{"alias": "cafes", "title": "Cafes"}, {"alias": "italian", "title": "Italian"}], "rating": 5.0, "coordinates": {"latitude": 40.69023, "longitude": -73.99634}, "transactions": ["delivery"], "price": "$$", "location": {"address1": "331 Henry St", "address2": null, "address3": "", "city": "Brooklyn", "zip_code": "11201", "country": "US", "state": "NY", "display_address": ["331 Henry St", "Brooklyn, NY 11201"]}, "phone": "+13477630899", "display_phone": "(347) 763-0899", "distance": 7989.900604781014}, {"id": "X97pE0LRWOng1q66kjAz1g", "alias": "the-independent-new-york-3", "name": "The Independent", "image_url": "https://s3-media4.fl.yelpcdn.com/bphoto/o__yn5HFxXyUhXtReDkSEQ/o.jpg", "is_closed": false, "url": "https://www.yelp.com/biz/the-independent-new-york-3?adjust_creative=9gNmiWYX8uTbFBeTTvJMdA&utm_campaign=yelp_api_v3&utm_medium=api_v3_business_search&utm_source=9gNmiWYX8uTbFBeTTvJMdA", "review_count": 194, "categories": [{"alias": "cocktailbars", "title": "Cocktail Bars"}, {"alias": "newamerican", "title": "American (New)"}, {"alias": "burgers", "title": "Burgers"}], "rating": 4.5, "coordinates": {"latitude": 40.754782, "longitude": -73.987377}, "transactions": ["delivery", "pickup"], "price": "$$", "location": {"address1": "147 W 40th St", "address2": "", "address3": "", "city": "New York", "zip_code": "10018", "country": "US", "state": "NY", "display_address": ["147 W 40th St", "New York, NY 10018"]}, "phone": "+19173883727", "display_phone": "(917) 388-3727", "distance": 1575.9912598570418}, {"id": "2F-7XCoPS1mbdy9ioqWuqw", "alias": "serafina-new-york-18", "name": "Serafina", "image_url": "https://s3-media1.fl.yelpcdn.com/bphoto/3kItungNVY2Z2GNFOA1kIg/o.jpg", "is_closed": false, "url": "https://www.yelp.com/biz/serafina-new-york-18?adjust_creative=9gNmiWYX8uTbFBeTTvJMdA&utm_campaign=yelp_api_v3&utm_medium=api_v3_business_search&utm_source=9gNmiWYX8uTbFBeTTvJMdA", "review_count": 123, "categories": [{"alias": "italian", "title": "Italian"}, {"alias": "pizza", "title": "Pizza"}], "rating": 3.5, "coordinates": {"latitude": 40.80043, "longitude": -73.96828}, "transactions": ["delivery", "pickup"], "price": "$$$", "location": {"address1": "2737 Broadway", "address2": null, "address3": "", "city": "New York", "zip_code": "10025", "country": "US", "state": "NY", "display_address": ["2737 Broadway", "New York, NY 10025"]}, "phone": "+12123010664", "display_phone": "(212) 301-0664", "distance": 4595.247530523209}, {"id": "CBsNd6iuSyiSMPw2pOzRHw", "alias": "bar-italia-madison-new-york", "name": "Bar Italia Madison", "image_url": "https://s3-media4.fl.yelpcdn.com/bphoto/pH32AaZQrgahppVrbcQQDw/o.jpg", "is_closed": false, "url": "https://www.yelp.com/biz/bar-italia-madison-new-york?adjust_creative=9gNmiWYX8uTbFBeTTvJMdA&utm_campaign=yelp_api_v3&utm_medium=api_v3_business_search&utm_source=9gNmiWYX8uTbFBeTTvJMdA", "review_count": 165, "categories": [{"alias": "italian", "title": "Italian"}], "rating": 3.5, "coordinates": {"latitude": 40.76789, "longitude": -73.96847}, "transactions": ["delivery"], "price": "$$$", "location": {"address1": "768 Madison Ave", "address2": "", "address3": "", "city": "New York", "zip_code": "10065", "country": "US", "state": "NY", "display_address": ["768 Madison Ave", "New York, NY 10065"]}, "phone": "+19175466676", "display_phone": "(917) 546-6676", "distance": 976.0336578765437}, {"id": "syu8oCU9h3X9hfAE_lpADw", "alias": "terra-tribeca-new-york", "name": "Terra Wine Bar", "image_url": "https://s3-media2.fl.yelpcdn.com/bphoto/kXdowqz7kSwfVSvWHn__8g/o.jpg", "is_closed": false, "url": "https://www.yelp.com/biz/terra-tribeca-new-york?adjust_creative=9gNmiWYX8uTbFBeTTvJMdA&utm_campaign=yelp_api_v3&utm_medium=api_v3_business_search&utm_source=9gNmiWYX8uTbFBeTTvJMdA", "review_count": 421, "categories": [{"alias": "tapasmallplates", "title": "Tapas/Small Plates"}, {"alias": "italian", "title": "Italian"}], "rating": 3.5, "coordinates": {"latitude": 40.71928, "longitude": -74.00647}, "transactions": ["delivery", "pickup"], "price": "$$", "location": {"address1": "222 W Broadway", "address2": "", "address3": "", "city": "New York", "zip_code": "10013", "country": "US", "state": "NY", "display_address": ["222 W Broadway", "New York, NY 10013"]}, "phone": "+12126250900", "display_phone": "(212) 625-0900", "distance": 5415.567636830838}, {"id": "2_3W7NFFN3m4U_8ffgEuyQ", "alias": "cafe-spaghetti-brooklyn", "name": "Cafe Spaghetti", "image_url": "https://s3-media2.fl.yelpcdn.com/bphoto/TbR1A1PeohcFybsGSxrOqw/o.jpg", "is_closed": false, "url": "https://www.yelp.com/biz/cafe-spaghetti-brooklyn?adjust_creative=9gNmiWYX8uTbFBeTTvJMdA&utm_campaign=yelp_api_v3&utm_medium=api_v3_business_search&utm_source=9gNmiWYX8uTbFBeTTvJMdA", "review_count": 68, "categories": [{"alias": "italian", "title": "Italian"}, {"alias": "bars", "title": "Bars"}, {"alias": "sandwiches", "title": "Sandwiches"}], "rating": 4.5, "coordinates": {"latitude": 40.68412, "longitude": -74.0024}, "transactions": ["delivery", "pickup"], "location": {"address1": "126 Union St", "address2": "", "address3": null, "city": "Brooklyn", "zip_code": "11231", "country": "US", "state": "NY", "display_address": ["126 Union St", "Brooklyn, NY 11231"]}, "phone": "", "display_phone": "", "distance": 8797.286101051428}, {"id": "Kh0-HmlgmVUkRxR55_Vn1g", "alias": "patsys-pizzeria-new-york-7", "name": "Patsy's Pizzeria", "image_url": "https://s3-media1.fl.yelpcdn.com/bphoto/FCeJMoYXX7hNoejUJBHFxw/o.jpg", "is_closed": false, "url": "https://www.yelp.com/biz/patsys-pizzeria-new-york-7?adjust_creative=9gNmiWYX8uTbFBeTTvJMdA&utm_campaign=yelp_api_v3&utm_medium=api_v3_business_search&utm_source=9gNmiWYX8uTbFBeTTvJMdA", "review_count": 928, "categories": [{"alias": "pizza", "title": "Pizza"}, {"alias": "italian", "title": "Italian"}], "rating": 4.0, "coordinates": {"latitude": 40.797157, "longitude": -73.93488}, "transactions": ["delivery"], "price": "$$", "location": {"address1": "2287 1st Ave", "address2": "", "address3": "", "city": "New York", "zip_code": "10035", "country": "US", "state": "NY", "display_address": ["2287 1st Ave", "New York, NY 10035"]}, "phone": "+12125349783", "display_phone": "(212) 534-9783", "distance": 5135.300882252375}, {"id": "6AWiJUeP4FINQF48az-bkQ", "alias": "pasta-eater-new-york", "name": "Pasta Eater", "image_url": "https://s3-media4.fl.yelpcdn.com/bphoto/qAeIdqDEh44_AJU15ISbHA/o.jpg", "is_closed": false, "url": "https://www.yelp.com/biz/pasta-eater-new-york?adjust_creative=9gNmiWYX8uTbFBeTTvJMdA&utm_campaign=yelp_api_v3&utm_medium=api_v3_business_search&utm_source=9gNmiWYX8uTbFBeTTvJMdA", "review_count": 213, "categories": [{"alias": "italian", "title": "Italian"}, {"alias": "pastashops", "title": "Pasta Shops"}, {"alias": "desserts", "title": "Desserts"}], "rating": 4.0, "coordinates": {"latitude": 40.73765, "longitude": -73.99134}, "transactions": ["delivery", "pickup"], "price": "$$", "location": {"address1": "9 E 17th St", "address2": null, "address3": "", "city": "New York", "zip_code": "10003", "country": "US", "state": "NY", "display_address": ["9 E 17th St", "New York, NY 10003"]}, "phone": "+12126275910", "display_phone": "(212) 627-5910", "distance": 3005.4663604474613}, {"id": "bxxP-1LQURlkom-geT2J8Q", "alias": "pastafina-new-york-5", "name": "Pastafina", "image_url": "https://s3-media4.fl.yelpcdn.com/bphoto/Wn8D-lwwHMJzkh32T8diiA/o.jpg", "is_closed": false, "url": "https://www.yelp.com/biz/pastafina-new-york-5?adjust_creative=9gNmiWYX8uTbFBeTTvJMdA&utm_campaign=yelp_api_v3&utm_medium=api_v3_business_search&utm_source=9gNmiWYX8uTbFBeTTvJMdA", "review_count": 3, "categories": [{"alias": "pastashops", "title": "Pasta Shops"}, {"alias": "italian", "title": "Italian"}, {"alias": "catering", "title": "Caterers"}], "rating": 3.5, "coordinates": {"latitude": 40.74528, "longitude": -73.97574}, "transactions": ["delivery"], "location": {"address1": "635 2nd Ave", "address2": "", "address3": "", "city": "New York", "zip_code": "10016", "country": "US", "state": "NY", "display_address": ["635 2nd Ave", "New York, NY 10016"]}, "phone": "+16464787662", "display_phone": "(646) 478-7662", "distance": 1629.427603839626}, {"id": "afbl_jCNpomzJiDBdomb6g", "alias": "oceans-new-york-new-york", "name": "Oceans New York", "image_url": "https://s3-media3.fl.yelpcdn.com/bphoto/y38Y96GsQPkEdbXuVeA2LA/o.jpg", "is_closed": false, "url": "https://www.yelp.com/biz/oceans-new-york-new-york?adjust_creative=9gNmiWYX8uTbFBeTTvJMdA&utm_campaign=yelp_api_v3&utm_medium=api_v3_business_search&utm_source=9gNmiWYX8uTbFBeTTvJMdA", "review_count": 188, "categories": [{"alias": "seafood", "title": "Seafood"}, {"alias": "wine_bars", "title": "Wine Bars"}, {"alias": "sushi", "title": "Sushi Bars"}], "rating": 4.5, "coordinates": {"latitude": 40.737408, "longitude": -73.987887}, "transactions": ["delivery", "pickup"], "price": "$$$", "location": {"address1": "233 Park Ave S", "address2": null, "address3": "", "city": "New York", "zip_code": "10003", "country": "US", "state": "NY", "display_address": ["233 Park Ave S", "New York, NY 10003"]}, "phone": "+12122091055", "display_phone": "(212) 209-1055", "distance": 2866.1362698059143}, {"id": "_eImQkZt0MlQ0jLZH2LrTQ", "alias": "gps-restaurant-guttenberg", "name": "GP's Restaurant", "image_url": "https://s3-media2.fl.yelpcdn.com/bphoto/Nxp-7zVE9x5eFOzzmiRqew/o.jpg", "is_closed": false, "url": "https://www.yelp.com/biz/gps-restaurant-guttenberg?adjust_creative=9gNmiWYX8uTbFBeTTvJMdA&utm_campaign=yelp_api_v3&utm_medium=api_v3_business_search&utm_source=9gNmiWYX8uTbFBeTTvJMdA", "review_count": 156, "categories": [{"alias": "italian", "title": "Italian"}, {"alias": "bars", "title": "Bars"}], "rating": 4.5, "coordinates": {"latitude": 40.79126, "longitude": -74.00167}, "transactions": ["delivery", "pickup"], "price": "$$", "location": {"address1": "24 69th St", "address2": "", "address3": "", "city": "Guttenberg", "zip_code": "07093", "country": "US", "state": "NJ", "display_address": ["24 69th St", "Guttenberg, NJ 07093"]}, "phone": "+12018616588", "display_phone": "(201) 861-6588", "distance": 4475.471732489359}, {"id": "jol3Ay0RMCdJd0eSZdKOEQ", "alias": "benecis-weehawken", "name": "Beneci's", "image_url": "https://s3-media1.fl.yelpcdn.com/bphoto/TqGUc3cH_Hh8lpcHevQ9IA/o.jpg", "is_closed": false, "url": "https://www.yelp.com/biz/benecis-weehawken?adjust_creative=9gNmiWYX8uTbFBeTTvJMdA&utm_campaign=yelp_api_v3&utm_medium=api_v3_business_search&utm_source=9gNmiWYX8uTbFBeTTvJMdA", "review_count": 18, "categories": [{"alias": "italian", "title": "Italian"}], "rating": 4.5, "coordinates": {"latitude": 40.758870842563404, "longitude": -74.02360969020963}, "transactions": ["delivery", "pickup"], "location": {"address1": "500 Harbor Blvd", "address2": "", "address3": null, "city": "Weehawken", "zip_code": "07086", "country": "US", "state": "NJ", "display_address": ["500 Harbor Blvd", "Weehawken, NJ 07086"]}, "phone": "+12015535190", "display_phone": "(201) 553-5190", "distance": 4551.329864849381}, {"id": "gJg_Gh2lqrCprDzR6ZP9QQ", "alias": "314-pizza-pasta-and-cocktail-bar-new-york", "name": "314 Pizza Pasta & Cocktail Bar", "image_url": "https://s3-media1.fl.yelpcdn.com/bphoto/3ZCPpV8-HlZ1RwQ0ULdA0A/o.jpg", "is_closed": false, "url": "https://www.yelp.com/biz/314-pizza-pasta-and-cocktail-bar-new-york?adjust_creative=9gNmiWYX8uTbFBeTTvJMdA&utm_campaign=yelp_api_v3&utm_medium=api_v3_business_search&utm_source=9gNmiWYX8uTbFBeTTvJMdA", "review_count": 132, "categories": [{"alias": "italian", "title": "Italian"}, {"alias": "pizza", "title": "Pizza"}, {"alias": "cocktailbars", "title": "Cocktail Bars"}], "rating": 4.5, "coordinates": {"latitude": 40.8141969, "longitude": -73.9598383}, "transactions": ["delivery", "pickup"], "price": "$$", "location": {"address1": "3143 Broadway", "address2": "", "address3": null, "city": "New York", "zip_code": "10027", "country": "US", "state": "NY", "display_address": ["3143 Broadway", "New York, NY 10027"]}, "phone": "+16466827645", "display_phone": "(646) 682-7645", "distance": 6172.842454467146}, {"id": "nw85LVh6H3JIiw3ugvhAmw", "alias": "lasagna-chelsea-restaurant-new-york-5", "name": "Lasagna Chelsea Restaurant", "image_url": "https://s3-media2.fl.yelpcdn.com/bphoto/LihGGuHkxhHsc6lVBNPTow/o.jpg", "is_closed": false, "url": "https://www.yelp.com/biz/lasagna-chelsea-restaurant-new-york-5?adjust_creative=9gNmiWYX8uTbFBeTTvJMdA&utm_campaign=yelp_api_v3&utm_medium=api_v3_business_search&utm_source=9gNmiWYX8uTbFBeTTvJMdA", "review_count": 596, "categories": [{"alias": "italian", "title": "Italian"}, {"alias": "cocktailbars", "title": "Cocktail Bars"}, {"alias": "mediterranean", "title": "Mediterranean"}], "rating": 3.5, "coordinates": {"latitude": 40.7432418, "longitude": -73.99970359599844}, "transactions": ["delivery", "pickup"], "price": "$$", "location": {"address1": "196 8th Ave", "address2": null, "address3": "", "city": "New York", "zip_code": "10011", "country": "US", "state": "NY", "display_address": ["196 8th Ave", "New York, NY 10011"]}, "phone": "+12122424551", "display_phone": "(212) 242-4551", "distance": 3095.1844986818523}, {"id": "oV_B5pRkcICNab7_eVoIcA", "alias": "go-nonna-long-island-city", "name": "Go Nonna", "image_url": "https://s3-media3.fl.yelpcdn.com/bphoto/XDRxUgmPnJ6rwczyGGDjoA/o.jpg", "is_closed": false, "url": "https://www.yelp.com/biz/go-nonna-long-island-city?adjust_creative=9gNmiWYX8uTbFBeTTvJMdA&utm_campaign=yelp_api_v3&utm_medium=api_v3_business_search&utm_source=9gNmiWYX8uTbFBeTTvJMdA", "review_count": 147, "categories": [{"alias": "argentine", "title": "Argentine"}, {"alias": "italian", "title": "Italian"}], "rating": 4.5, "coordinates": {"latitude": 40.74831, "longitude": -73.9499}, "transactions": ["delivery", "pickup"], "price": "$$", "location": {"address1": "10-50 44th Dr", "address2": "", "address3": null, "city": "Long Island City", "zip_code": "11101", "country": "US", "state": "NY", "display_address": ["10-50 44th Dr", "Long Island City, NY 11101"]}, "phone": "+17184409914", "display_phone": "(718) 440-9914", "distance": 2046.2252614806746}, {"id": "bjzBkF2FFMsdkCk50xseFQ", "alias": "etcetera-etcetera-new-york-2", "name": "Etcetera Etcetera", "image_url": "https://s3-media4.fl.yelpcdn.com/bphoto/1tV1y48N7BSSTOyBrLK0aA/o.jpg", "is_closed": false, "url": "https://www.yelp.com/biz/etcetera-etcetera-new-york-2?adjust_creative=9gNmiWYX8uTbFBeTTvJMdA&utm_campaign=yelp_api_v3&utm_medium=api_v3_business_search&utm_source=9gNmiWYX8uTbFBeTTvJMdA", "review_count": 483, "categories": [{"alias": "italian", "title": "Italian"}, {"alias": "venues", "title": "Venues & Event Spaces"}, {"alias": "wine_bars", "title": "Wine Bars"}], "rating": 4.0, "coordinates": {"latitude": 40.75926, "longitude": -73.99115}, "transactions": ["delivery", "pickup"], "price": "$$$", "location": {"address1": "352 W 44th St", "address2": null, "address3": "", "city": "New York", "zip_code": "10036", "country": "US", "state": "NY", "display_address": ["352 W 44th St", "New York, NY 10036"]}, "phone": "+12123994141", "display_phone": "(212) 399-4141", "distance": 1817.4647082845654}, {"id": "owZRGT6cxeHrpPxFuslMVw", "alias": "cozy-royale-brooklyn", "name": "Cozy Royale", "image_url": "https://s3-media3.fl.yelpcdn.com/bphoto/SZgFfs0gjTCRnQszuPRh5g/o.jpg", "is_closed": false, "url": "https://www.yelp.com/biz/cozy-royale-brooklyn?adjust_creative=9gNmiWYX8uTbFBeTTvJMdA&utm_campaign=yelp_api_v3&utm_medium=api_v3_business_search&utm_source=9gNmiWYX8uTbFBeTTvJMdA", "review_count": 53, "categories": [{"alias": "wine_bars", "title": "Wine Bars"}, {"alias": "beerbar", "title": "Beer Bar"}, {"alias": "cocktailbars", "title": "Cocktail Bars"}], "rating": 4.5, "coordinates": {"latitude": 40.71693, "longitude": -73.94295}, "transactions": ["delivery"], "price": "$$", "location": {"address1": "434 Humboldt St", "address2": "", "address3": null, "city": "Brooklyn", "zip_code": "11211", "country": "US", "state": "NY", "display_address": ["434 Humboldt St", "Brooklyn, NY 11211"]}, "phone": "+17183493989", "display_phone": "(718) 349-3989", "distance": 5205.631498220017}, {"id": "b-VbRreVGS9HQLwhYol5Xw", "alias": "don-filippo-restaurant-new-york", "name": "Don Filippo Restaurant", "image_url": "https://s3-media2.fl.yelpcdn.com/bphoto/AOIQmHbFnPEquT5vYzYPtg/o.jpg", "is_closed": false, "url": "https://www.yelp.com/biz/don-filippo-restaurant-new-york?adjust_creative=9gNmiWYX8uTbFBeTTvJMdA&utm_campaign=yelp_api_v3&utm_medium=api_v3_business_search&utm_source=9gNmiWYX8uTbFBeTTvJMdA", "review_count": 191, "categories": [{"alias": "pizza", "title": "Pizza"}], "rating": 4.0, "coordinates": {"latitude": 40.774562, "longitude": -73.958892}, "transactions": ["delivery", "pickup"], "price": "$", "location": {"address1": "1133 Lexington Ave", "address2": "", "address3": "", "city": "New York", "zip_code": "10021", "country": "US", "state": "NY", "display_address": ["1133 Lexington Ave", "New York, NY 10021"]}, "phone": "+12127443610", "display_phone": "(212) 744-3610", "distance": 1932.7246609568033}, {"id": "CAGAWbPE8uPr2VVvEnv0ZA", "alias": "ribalta-pizza-new-york", "name": "Ribalta Pizza", "image_url": "https://s3-media3.fl.yelpcdn.com/bphoto/O6RftJPph1inJ4dbf6o3rw/o.jpg", "is_closed": false, "url": "https://www.yelp.com/biz/ribalta-pizza-new-york?adjust_creative=9gNmiWYX8uTbFBeTTvJMdA&utm_campaign=yelp_api_v3&utm_medium=api_v3_business_search&utm_source=9gNmiWYX8uTbFBeTTvJMdA", "review_count": 745, "categories": [{"alias": "pizza", "title": "Pizza"}, {"alias": "italian", "title": "Italian"}, {"alias": "gluten_free", "title": "Gluten-Free"}], "rating": 4.0, "coordinates": {"latitude": 40.7334346, "longitude": -73.9916923}, "transactions": ["delivery", "pickup"], "price": "$$", "location": {"address1": "48 E 12th St", "address2": "", "address3": "", "city": "New York", "zip_code": "10003", "country": "US", "state": "NY", "display_address": ["48 E 12th St", "New York, NY 10003"]}, "phone": "+12127777781", "display_phone": "(212) 777-7781", "distance": 3415.2377439936768}, {"id": "ieoPAi6nbdEkrwv4vGVSwg", "alias": "via-trenta-osteria-astoria-2", "name": "Via Trenta Osteria", "image_url": "https://s3-media1.fl.yelpcdn.com/bphoto/iPy0yFCIFEn2g_F9UwyT9w/o.jpg", "is_closed": false, "url": "https://www.yelp.com/biz/via-trenta-osteria-astoria-2?adjust_creative=9gNmiWYX8uTbFBeTTvJMdA&utm_campaign=yelp_api_v3&utm_medium=api_v3_business_search&utm_source=9gNmiWYX8uTbFBeTTvJMdA", "review_count": 520, "categories": [{"alias": "italian", "title": "Italian"}, {"alias": "wine_bars", "title": "Wine Bars"}], "rating": 3.5, "coordinates": {"latitude": 40.76491, "longitude": -73.91654}, "transactions": ["delivery"], "price": "$$", "location": {"address1": "3619 30th Ave", "address2": "", "address3": "", "city": "Astoria", "zip_code": "11103", "country": "US", "state": "NY", "display_address": ["3619 30th Ave", "Astoria, NY 11103"]}, "phone": "+17185452090", "display_phone": "(718) 545-2090", "distance": 4516.8140559962285}, {"id": "UJe9_p6NEl0kA6xHVo5PKw", "alias": "amelie-new-york-2", "name": "Amelie", "image_url": "https://s3-media3.fl.yelpcdn.com/bphoto/mpOm1RGKrF__by6Y3YlfMw/o.jpg", "is_closed": false, "url": "https://www.yelp.com/biz/amelie-new-york-2?adjust_creative=9gNmiWYX8uTbFBeTTvJMdA&utm_campaign=yelp_api_v3&utm_medium=api_v3_business_search&utm_source=9gNmiWYX8uTbFBeTTvJMdA", "review_count": 279, "categories": [{"alias": "french", "title": "French"}, {"alias": "wine_bars", "title": "Wine Bars"}, {"alias": "breakfast_brunch", "title": "Breakfast & Brunch"}], "rating": 4.5, "coordinates": {"latitude": 40.78875, "longitude": -73.97464}, "transactions": ["delivery", "pickup"], "price": "$$$", "location": {"address1": "566 Amsterdam Ave", "address2": "", "address3": null, "city": "New York", "zip_code": "10024", "country": "US", "state": "NY", "display_address": ["566 Amsterdam Ave", "New York, NY 10024"]}, "phone": "+16464227167", "display_phone": "(646) 422-7167", "distance": 3318.995504176099}, {"id": "wV2YuZKjk5VhZz3I27xtsA", "alias": "monterey-new-york-2", "name": "Monterey", "image_url": "https://s3-media1.fl.yelpcdn.com/bphoto/2DX0ilyIpuGCz0P8-jCCmQ/o.jpg", "is_closed": false, "url": "https://www.yelp.com/biz/monterey-new-york-2?adjust_creative=9gNmiWYX8uTbFBeTTvJMdA&utm_campaign=yelp_api_v3&utm_medium=api_v3_business_search&utm_source=9gNmiWYX8uTbFBeTTvJMdA", "review_count": 23, "categories": [{"alias": "newamerican", "title": "American (New)"}, {"alias": "desserts", "title": "Desserts"}, {"alias": "italian", "title": "Italian"}], "rating": 3.5, "coordinates": {"latitude": 40.75767029068569, "longitude": -73.97455063884706}, "transactions": [], "location": {"address1": "37 E 50th St", "address2": "", "address3": null, "city": "New York", "zip_code": "10022", "country": "US", "state": "NY", "display_address": ["37 E 50th St", "New York, NY 10022"]}, "phone": "+12123777171", "display_phone": "(212) 377-7171", "distance": 451.31490695185425}, {"id": "zxILWp8GcMOKSb9iYn55XA", "alias": "allora-5th-ave-new-york-2", "name": "ALLORA 5th Ave", "image_url": "https://s3-media3.fl.yelpcdn.com/bphoto/CuY7_CSiBSoPNdpoGqlgZQ/o.jpg", "is_closed": false, "url": "https://www.yelp.com/biz/allora-5th-ave-new-york-2?adjust_creative=9gNmiWYX8uTbFBeTTvJMdA&utm_campaign=yelp_api_v3&utm_medium=api_v3_business_search&utm_source=9gNmiWYX8uTbFBeTTvJMdA", "review_count": 4, "categories": [{"alias": "italian", "title": "Italian"}], "rating": 5.0, "coordinates": {"latitude": 40.74633, "longitude": -73.98633}, "transactions": ["restaurant_reservation"], "location": {"address1": "292 5th Ave", "address2": "", "address3": null, "city": "New York", "zip_code": "10001", "country": "US", "state": "NY", "display_address": ["292 5th Ave", "New York, NY 10001"]}, "phone": "+16469285198", "display_phone": "(646) 928-5198", "distance": 2009.5539814050326}, {"id": "ETgJqJHV7BW6pIr9Ox74sA", "alias": "am\u00e9lie-new-york", "name": "Am\u00e9lie", "image_url": "https://s3-media4.fl.yelpcdn.com/bphoto/cSDgVuPMnJgMLTrTNSEXug/o.jpg", "is_closed": false, "url": "https://www.yelp.com/biz/am%C3%A9lie-new-york?adjust_creative=9gNmiWYX8uTbFBeTTvJMdA&utm_campaign=yelp_api_v3&utm_medium=api_v3_business_search&utm_source=9gNmiWYX8uTbFBeTTvJMdA", "review_count": 2893, "categories": [{"alias": "french", "title": "French"}, {"alias": "wine_bars", "title": "Wine Bars"}], "rating": 4.5, "coordinates": {"latitude": 40.7327, "longitude": -73.99766}, "transactions": ["delivery", "pickup"], "price": "$$$", "location": {"address1": "22 W 8th St", "address2": "", "address3": "", "city": "New York", "zip_code": "10011", "country": "US", "state": "NY", "display_address": ["22 W 8th St", "New York, NY 10011"]}, "phone": "+12125332962", "display_phone": "(212) 533-2962", "distance": 3781.8368265027334}, {"id": "foRWizWrQ32g6Vv4g9UTnA", "alias": "nocciola-ristorante-new-york-3", "name": "Nocciola Ristorante", "image_url": "https://s3-media2.fl.yelpcdn.com/bphoto/d-mDLnZaeXx7_Uu_O3uI3w/o.jpg", "is_closed": false, "url": "https://www.yelp.com/biz/nocciola-ristorante-new-york-3?adjust_creative=9gNmiWYX8uTbFBeTTvJMdA&utm_campaign=yelp_api_v3&utm_medium=api_v3_business_search&utm_source=9gNmiWYX8uTbFBeTTvJMdA", "review_count": 263, "categories": [{"alias": "italian", "title": "Italian"}, {"alias": "desserts", "title": "Desserts"}, {"alias": "salad", "title": "Salad"}], "rating": 4.0, "coordinates": {"latitude": 40.797525, "longitude": -73.938393}, "transactions": ["delivery", "pickup"], "price": "$$", "location": {"address1": "237 E 116th St", "address2": null, "address3": "", "city": "New York", "zip_code": "10029", "country": "US", "state": "NY", "display_address": ["237 E 116th St", "New York, NY 10029"]}, "phone": "+16465595304", "display_phone": "(646) 559-5304", "distance": 5005.952493752429}, {"id": "R-biStUvl2zuhIQFk40GsQ", "alias": "ocabanon-new-york", "name": "OCabanon", "image_url": "https://s3-media2.fl.yelpcdn.com/bphoto/FNrsHOYTQ_FMBdKMyRuzqg/o.jpg", "is_closed": false, "url": "https://www.yelp.com/biz/ocabanon-new-york?adjust_creative=9gNmiWYX8uTbFBeTTvJMdA&utm_campaign=yelp_api_v3&utm_medium=api_v3_business_search&utm_source=9gNmiWYX8uTbFBeTTvJMdA", "review_count": 447, "categories": [{"alias": "french", "title": "French"}, {"alias": "wine_bars", "title": "Wine Bars"}, {"alias": "tapas", "title": "Tapas Bars"}], "rating": 4.0, "coordinates": {"latitude": 40.7486725, "longitude": -73.9945145}, "transactions": ["delivery", "pickup"], "price": "$$", "location": {"address1": "245 W 29th St", "address2": null, "address3": "", "city": "New York", "zip_code": "10001", "country": "US", "state": "NY", "display_address": ["245 W 29th St", "New York, NY 10001"]}, "phone": "+16466697879", "display_phone": "(646) 669-7879", "distance": 2396.5061869991473}], "total": 4600, "region": {"center": {"longitude": -73.96957397460938, "latitude": 40.75917470627005}}}