{"businesses": [{"id": "M-4J09S14mPsH1EJrnR1Og", "alias": "yemen-chuanchuan-\u723a\u4eec\u4e32\u4e32-\u7237\u4eec\u4e32\u4e32-new-york", "name": "Yemen chuanchuan \u723a\u4eec\u4e32\u4e32 \u7237\u4eec\u4e32\u4e32", "image_url": "https://s3-media2.fl.yelpcdn.com/bphoto/qN1CVFYlSHzNoHUuIvIXeA/o.jpg", "is_closed": false, "url": "https://www.yelp.com/biz/yemen-chuanchuan-%E7%88%BA%E4%BB%AC%E4%B8%B2%E4%B8%B2-%E7%88%B7%E4%BB%AC%E4%B8%B2%E4%B8%B2-new-york?adjust_creative=9gNmiWYX8uTbFBeTTvJMdA&utm_campaign=yelp_api_v3&utm_medium=api_v3_business_search&utm_source=9gNmiWYX8uTbFBeTTvJMdA", "review_count": 8, "categories": [{"alias": "szechuan", "title": "Szechuan"}, {"alias": "hotpot", "title": "Hot Pot"}], "rating": 4.5, "coordinates": {"latitude": 40.745733, "longitude": -73.99132}, "transactions": [], "location": {"address1": "105 W27 St", "address2": null, "address3": "", "city": "New York", "zip_code": "10001", "country": "US", "state": "NY", "display_address": ["105 W27 St", "New York, NY 10001"]}, "phone": "+16464764935", "display_phone": "(646) 476-4935", "distance": 2360.380599191976}, {"id": "Y92VtOkTZ6BirkJbUKCMOw", "alias": "rong-cheng-house-new-york-4", "name": "Rong Cheng House", "image_url": "https://s3-media3.fl.yelpcdn.com/bphoto/xjrkHIw1hTah0XWR7kxStg/o.jpg", "is_closed": false, "url": "https://www.yelp.com/biz/rong-cheng-house-new-york-4?adjust_creative=9gNmiWYX8uTbFBeTTvJMdA&utm_campaign=yelp_api_v3&utm_medium=api_v3_business_search&utm_source=9gNmiWYX8uTbFBeTTvJMdA", "review_count": 127, "categories": [{"alias": "szechuan", "title": "Szechuan"}], "rating": 4.0, "coordinates": {"latitude": 40.76572, "longitude": -73.98286}, "transactions": ["delivery", "pickup"], "price": "$$", "location": {"address1": "242 W 56th St", "address2": "", "address3": null, "city": "New York", "zip_code": "10019", "country": "US", "state": "NY", "display_address": ["242 W 56th St", "New York, NY 10019"]}, "phone": "+12122652226", "display_phone": "(212) 265-2226", "distance": 1340.3923447171944}, {"id": "KjN7kiCP4kZbt1dj8w3A3g", "alias": "steam-shanghai-asian-fusion-new-york-2", "name": "Steam - Shanghai Asian Fusion", "image_url": "https://s3-media1.fl.yelpcdn.com/bphoto/MheTOlXN-AVttcLwrjg78A/o.jpg", "is_closed": false, "url": "https://www.yelp.com/biz/steam-shanghai-asian-fusion-new-york-2?adjust_creative=9gNmiWYX8uTbFBeTTvJMdA&utm_campaign=yelp_api_v3&utm_medium=api_v3_business_search&utm_source=9gNmiWYX8uTbFBeTTvJMdA", "review_count": 74, "categories": [{"alias": "dimsum", "title": "Dim Sum"}, {"alias": "asianfusion", "title": "Asian Fusion"}], "rating": 4.5, "coordinates": {"latitude": 40.735570389859696, "longitude": -73.997784032187}, "transactions": ["pickup", "delivery"], "price": "$$", "location": {"address1": "470 6th Ave", "address2": null, "address3": "", "city": "New York", "zip_code": "10011", "country": "US", "state": "NY", "display_address": ["470 6th Ave", "New York, NY 10011"]}, "phone": "+19172620565", "display_phone": "(917) 262-0565", "distance": 3540.6726783616464}, {"id": "pCfGgX0WxGASGM4-Yhr2Pw", "alias": "hao-noodle-chelsea-new-york-7", "name": "Hao Noodle Chelsea", "image_url": "https://s3-media2.fl.yelpcdn.com/bphoto/WbBI5Kd8FAegVcV1g-BkyQ/o.jpg", "is_closed": false, "url": "https://www.yelp.com/biz/hao-noodle-chelsea-new-york-7?adjust_creative=9gNmiWYX8uTbFBeTTvJMdA&utm_campaign=yelp_api_v3&utm_medium=api_v3_business_search&utm_source=9gNmiWYX8uTbFBeTTvJMdA", "review_count": 580, "categories": [{"alias": "chinese", "title": "Chinese"}, {"alias": "bbq", "title": "Barbeque"}, {"alias": "noodles", "title": "Noodles"}], "rating": 4.5, "coordinates": {"latitude": 40.7406999, "longitude": -74.00436}, "transactions": ["pickup", "delivery"], "price": "$$", "location": {"address1": "343 W 14th St", "address2": "", "address3": null, "city": "New York", "zip_code": "10014", "country": "US", "state": "NY", "display_address": ["343 W 14th St", "New York, NY 10014"]}, "phone": "+16468820059", "display_phone": "(646) 882-0059", "distance": 3574.316528725494}, {"id": "qGgQMVExGERqGhZNDM2ROg", "alias": "wu-liang-ye-new-york", "name": "Wu Liang Ye", "image_url": "https://s3-media2.fl.yelpcdn.com/bphoto/q0AwfgkDMt8qT44z53M1ew/o.jpg", "is_closed": false, "url": "https://www.yelp.com/biz/wu-liang-ye-new-york?adjust_creative=9gNmiWYX8uTbFBeTTvJMdA&utm_campaign=yelp_api_v3&utm_medium=api_v3_business_search&utm_source=9gNmiWYX8uTbFBeTTvJMdA", "review_count": 557, "categories": [{"alias": "szechuan", "title": "Szechuan"}], "rating": 3.5, "coordinates": {"latitude": 40.75781, "longitude": -73.97994}, "transactions": ["pickup", "delivery"], "price": "$$", "location": {"address1": "36 W 48th St", "address2": "", "address3": "", "city": "New York", "zip_code": "10036", "country": "US", "state": "NY", "display_address": ["36 W 48th St", "New York, NY 10036"]}, "phone": "+12123982308", "display_phone": "(212) 398-2308", "distance": 885.5303602278213}, {"id": "LVkBYW-FNaZ2h-0zB8-vzA", "alias": "jiangs-kitchen-new-york", "name": "Jiang's Kitchen", "image_url": "https://s3-media3.fl.yelpcdn.com/bphoto/LW4yXem-qACinRMI_fEfvA/o.jpg", "is_closed": false, "url": "https://www.yelp.com/biz/jiangs-kitchen-new-york?adjust_creative=9gNmiWYX8uTbFBeTTvJMdA&utm_campaign=yelp_api_v3&utm_medium=api_v3_business_search&utm_source=9gNmiWYX8uTbFBeTTvJMdA", "review_count": 48, "categories": [{"alias": "chinese", "title": "Chinese"}], "rating": 4.5, "coordinates": {"latitude": 40.72808, "longitude": -73.98615}, "transactions": ["pickup", "delivery"], "location": {"address1": "65 St Marks Pl", "address2": null, "address3": "", "city": "New York", "zip_code": "10003", "country": "US", "state": "NY", "display_address": ["65 St Marks Pl", "New York, NY 10003"]}, "phone": "+16463987722", "display_phone": "(646) 398-7722", "distance": 3714.9644596779463}, {"id": "M-odQWSEfsR2mVEw7nKG-g", "alias": "nyonya-new-york", "name": "Nyonya", "image_url": "https://s3-media2.fl.yelpcdn.com/bphoto/YuWC1Gwo7ku4PvD-7mDQnA/o.jpg", "is_closed": false, "url": "https://www.yelp.com/biz/nyonya-new-york?adjust_creative=9gNmiWYX8uTbFBeTTvJMdA&utm_campaign=yelp_api_v3&utm_medium=api_v3_business_search&utm_source=9gNmiWYX8uTbFBeTTvJMdA", "review_count": 2324, "categories": [{"alias": "malaysian", "title": "Malaysian"}, {"alias": "chinese", "title": "Chinese"}], "rating": 4.0, "coordinates": {"latitude": 40.719116974367, "longitude": -73.9968322948353}, "transactions": ["delivery"], "price": "$$", "location": {"address1": "199 Grand St", "address2": "", "address3": "", "city": "New York", "zip_code": "10013", "country": "US", "state": "NY", "display_address": ["199 Grand St", "New York, NY 10013"]}, "phone": "+12123343669", "display_phone": "(212) 334-3669", "distance": 5017.679524808288}, {"id": "-VRnWGBVMovSS0Ijta_qyg", "alias": "da-long-yi-hot-pot-long-island-city", "name": "Da Long Yi Hot Pot", "image_url": "https://s3-media1.fl.yelpcdn.com/bphoto/-jM37f39rd_nK4f05RyEuw/o.jpg", "is_closed": false, "url": "https://www.yelp.com/biz/da-long-yi-hot-pot-long-island-city?adjust_creative=9gNmiWYX8uTbFBeTTvJMdA&utm_campaign=yelp_api_v3&utm_medium=api_v3_business_search&utm_source=9gNmiWYX8uTbFBeTTvJMdA", "review_count": 60, "categories": [{"alias": "szechuan", "title": "Szechuan"}, {"alias": "hotpot", "title": "Hot Pot"}], "rating": 4.5, "coordinates": {"latitude": 40.750168, "longitude": -73.941345}, "transactions": ["restaurant_reservation"], "price": "$$$", "location": {"address1": "42-22 Crescent St", "address2": "", "address3": null, "city": "Long Island City", "zip_code": "11101", "country": "US", "state": "NY", "display_address": ["42-22 Crescent St", "Long Island City, NY 11101"]}, "phone": "+13478134569", "display_phone": "(347) 813-4569", "distance": 2575.9753755303764}, {"id": "xCHApgtkLpEyh0lz-uhZvg", "alias": "szechuan-garden-new-york", "name": "Szechuan Garden", "image_url": "https://s3-media1.fl.yelpcdn.com/bphoto/g0szneLpAM3H6Ur6qyv_Ag/o.jpg", "is_closed": false, "url": "https://www.yelp.com/biz/szechuan-garden-new-york?adjust_creative=9gNmiWYX8uTbFBeTTvJMdA&utm_campaign=yelp_api_v3&utm_medium=api_v3_business_search&utm_source=9gNmiWYX8uTbFBeTTvJMdA", "review_count": 376, "categories": [{"alias": "szechuan", "title": "Szechuan"}, {"alias": "dimsum", "title": "Dim Sum"}, {"alias": "seafood", "title": "Seafood"}], "rating": 4.0, "coordinates": {"latitude": 40.80053, "longitude": -73.967586}, "transactions": ["pickup", "delivery"], "price": "$$", "location": {"address1": "239 W 105th St", "address2": "", "address3": "", "city": "New York", "zip_code": "10025", "country": "US", "state": "NY", "display_address": ["239 W 105th St", "New York, NY 10025"]}, "phone": "+12128658808", "display_phone": "(212) 865-8808", "distance": 4603.426287927263}, {"id": "BtsXojrMtfLRhhFK7rm35A", "alias": "hupo-long-island-city-11", "name": "Hupo", "image_url": "https://s3-media1.fl.yelpcdn.com/bphoto/6D5pFnR_fW2h69XMdUHERg/o.jpg", "is_closed": false, "url": "https://www.yelp.com/biz/hupo-long-island-city-11?adjust_creative=9gNmiWYX8uTbFBeTTvJMdA&utm_campaign=yelp_api_v3&utm_medium=api_v3_business_search&utm_source=9gNmiWYX8uTbFBeTTvJMdA", "review_count": 209, "categories": [{"alias": "szechuan", "title": "Szechuan"}, {"alias": "dimsum", "title": "Dim Sum"}, {"alias": "cocktailbars", "title": "Cocktail Bars"}], "rating": 4.5, "coordinates": {"latitude": 40.742827, "longitude": -73.953575}, "transactions": ["delivery", "pickup"], "price": "$$", "location": {"address1": "1007 50th Ave", "address2": null, "address3": "", "city": "Long Island City", "zip_code": "11101", "country": "US", "state": "NY", "display_address": ["1007 50th Ave", "Long Island City, NY 11101"]}, "phone": "+17182556722", "display_phone": "(718) 255-6722", "distance": 2260.544408102461}, {"id": "0vg2Z-HPwkyVVX613j2ysg", "alias": "pengs-noodle-folk-new-york-2", "name": "Peng's Noodle Folk", "image_url": "https://s3-media3.fl.yelpcdn.com/bphoto/zvRVsO-Hp201-AEplRGfVg/o.jpg", "is_closed": false, "url": "https://www.yelp.com/biz/pengs-noodle-folk-new-york-2?adjust_creative=9gNmiWYX8uTbFBeTTvJMdA&utm_campaign=yelp_api_v3&utm_medium=api_v3_business_search&utm_source=9gNmiWYX8uTbFBeTTvJMdA", "review_count": 537, "categories": [{"alias": "chinese", "title": "Chinese"}, {"alias": "noodles", "title": "Noodles"}, {"alias": "ramen", "title": "Ramen"}], "rating": 4.5, "coordinates": {"latitude": 40.77726, "longitude": -73.94932}, "transactions": ["pickup", "delivery"], "price": "$$", "location": {"address1": "1659 1st Ave", "address2": "", "address3": null, "city": "New York", "zip_code": "10028", "country": "US", "state": "NY", "display_address": ["1659 1st Ave", "New York, NY 10028"]}, "phone": "+19293913950", "display_phone": "(929) 391-3950", "distance": 2638.8285415545115}, {"id": "NN3mOWF5e_pnR1ArqM2bHQ", "alias": "obao-new-york-3", "name": "OBAO", "image_url": "https://s3-media4.fl.yelpcdn.com/bphoto/CpVI2XJLrvg09Fm83bfPog/o.jpg", "is_closed": false, "url": "https://www.yelp.com/biz/obao-new-york-3?adjust_creative=9gNmiWYX8uTbFBeTTvJMdA&utm_campaign=yelp_api_v3&utm_medium=api_v3_business_search&utm_source=9gNmiWYX8uTbFBeTTvJMdA", "review_count": 3800, "categories": [{"alias": "vietnamese", "title": "Vietnamese"}, {"alias": "thai", "title": "Thai"}, {"alias": "asianfusion", "title": "Asian Fusion"}], "rating": 4.0, "coordinates": {"latitude": 40.7606544, "longitude": -73.991332}, "transactions": ["pickup", "delivery"], "price": "$$", "location": {"address1": "647 9th Ave", "address2": "", "address3": "", "city": "New York", "zip_code": "10036", "country": "US", "state": "NY", "display_address": ["647 9th Ave", "New York, NY 10036"]}, "phone": "+12122458880", "display_phone": "(212) 245-8880", "distance": 1839.9351869570796}, {"id": "SNhDVaf_n7VDZcfry8mYdA", "alias": "the-bao-new-york", "name": "The Bao", "image_url": "https://s3-media3.fl.yelpcdn.com/bphoto/eOmq-bSKqrcYyq5O15qQ8g/o.jpg", "is_closed": false, "url": "https://www.yelp.com/biz/the-bao-new-york?adjust_creative=9gNmiWYX8uTbFBeTTvJMdA&utm_campaign=yelp_api_v3&utm_medium=api_v3_business_search&utm_source=9gNmiWYX8uTbFBeTTvJMdA", "review_count": 1407, "categories": [{"alias": "shanghainese", "title": "Shanghainese"}, {"alias": "dimsum", "title": "Dim Sum"}, {"alias": "seafood", "title": "Seafood"}], "rating": 4.0, "coordinates": {"latitude": 40.72939, "longitude": -73.9889199}, "transactions": ["pickup", "delivery"], "price": "$$", "location": {"address1": "13 St Marks Pl", "address2": "", "address3": "", "city": "New York", "zip_code": "10003", "country": "US", "state": "NY", "display_address": ["13 St Marks Pl", "New York, NY 10003"]}, "phone": "+12123889238", "display_phone": "(212) 388-9238", "distance": 3694.886907965192}, {"id": "-lgNzAEyFr8LCTuBTWnAMg", "alias": "dim-sum-palace-new-york-7", "name": "Dim Sum Palace", "image_url": "https://s3-media3.fl.yelpcdn.com/bphoto/AhPbs37lnFTvB_FCbUI3NA/o.jpg", "is_closed": false, "url": "https://www.yelp.com/biz/dim-sum-palace-new-york-7?adjust_creative=9gNmiWYX8uTbFBeTTvJMdA&utm_campaign=yelp_api_v3&utm_medium=api_v3_business_search&utm_source=9gNmiWYX8uTbFBeTTvJMdA", "review_count": 427, "categories": [{"alias": "dimsum", "title": "Dim Sum"}, {"alias": "seafood", "title": "Seafood"}, {"alias": "cantonese", "title": "Cantonese"}], "rating": 4.0, "coordinates": {"latitude": 40.762765496672955, "longitude": -73.97609185077448}, "transactions": ["pickup", "delivery"], "price": "$$", "location": {"address1": "28 W 56th St", "address2": null, "address3": "", "city": "New York", "zip_code": "10019", "country": "US", "state": "NY", "display_address": ["28 W 56th St", "New York, NY 10019"]}, "phone": "+16466093966", "display_phone": "(646) 609-3966", "distance": 678.8054129997126}, {"id": "OvdCm3j_5HzItolfvwrEUA", "alias": "lilli-and-loo-new-york", "name": "Lilli & Loo", "image_url": "https://s3-media1.fl.yelpcdn.com/bphoto/ZEfpK25GqJ_1CQJBTJlzOQ/o.jpg", "is_closed": false, "url": "https://www.yelp.com/biz/lilli-and-loo-new-york?adjust_creative=9gNmiWYX8uTbFBeTTvJMdA&utm_campaign=yelp_api_v3&utm_medium=api_v3_business_search&utm_source=9gNmiWYX8uTbFBeTTvJMdA", "review_count": 459, "categories": [{"alias": "chinese", "title": "Chinese"}, {"alias": "sushi", "title": "Sushi Bars"}], "rating": 3.5, "coordinates": {"latitude": 40.76357, "longitude": -73.96703}, "transactions": ["pickup", "delivery"], "price": "$$", "location": {"address1": "785 Lexington Ave", "address2": "", "address3": "", "city": "New York", "zip_code": "10065", "country": "US", "state": "NY", "display_address": ["785 Lexington Ave", "New York, NY 10065"]}, "phone": "+12124217800", "display_phone": "(212) 421-7800", "distance": 532.0768572437443}, {"id": "Vzx-7-jSEBz2g8NuGVhHvQ", "alias": "philippe-by-philippe-chow-new-york", "name": "Philippe By Philippe Chow", "image_url": "https://s3-media1.fl.yelpcdn.com/bphoto/7tnd0b7u-zcCNfop8HfaEg/o.jpg", "is_closed": false, "url": "https://www.yelp.com/biz/philippe-by-philippe-chow-new-york?adjust_creative=9gNmiWYX8uTbFBeTTvJMdA&utm_campaign=yelp_api_v3&utm_medium=api_v3_business_search&utm_source=9gNmiWYX8uTbFBeTTvJMdA", "review_count": 890, "categories": [{"alias": "chinese", "title": "Chinese"}, {"alias": "asianfusion", "title": "Asian Fusion"}], "rating": 3.5, "coordinates": {"latitude": 40.76409, "longitude": -73.97039}, "transactions": ["pickup", "delivery"], "price": "$$$$", "location": {"address1": "33 E 60th St", "address2": "", "address3": "", "city": "New York", "zip_code": "10065", "country": "US", "state": "NY", "display_address": ["33 E 60th St", "New York, NY 10065"]}, "phone": "+12126448885", "display_phone": "(212) 644-8885", "distance": 559.1794552375736}, {"id": "SBJHGtqJyfaU47NPjGAU6A", "alias": "china-jade-new-york-2", "name": "China Jade", "image_url": "https://s3-media3.fl.yelpcdn.com/bphoto/Q7eFZ31KkCvOyWVCSHQW5w/o.jpg", "is_closed": false, "url": "https://www.yelp.com/biz/china-jade-new-york-2?adjust_creative=9gNmiWYX8uTbFBeTTvJMdA&utm_campaign=yelp_api_v3&utm_medium=api_v3_business_search&utm_source=9gNmiWYX8uTbFBeTTvJMdA", "review_count": 212, "categories": [{"alias": "szechuan", "title": "Szechuan"}], "rating": 3.5, "coordinates": {"latitude": 40.777392, "longitude": -73.952329}, "transactions": ["pickup", "delivery"], "price": "$$", "location": {"address1": "1643 2nd Ave", "address2": null, "address3": "", "city": "New York", "zip_code": "10028", "country": "US", "state": "NY", "display_address": ["1643 2nd Ave", "New York, NY 10028"]}, "phone": "+12127176688", "display_phone": "(212) 717-6688", "distance": 2492.473018591672}, {"id": "xm_-5QZFzJidiUO--PgOYg", "alias": "bites-of-xian-new-york-2", "name": "Bites of Xi'an", "image_url": "https://s3-media4.fl.yelpcdn.com/bphoto/6OheZ6oBw-p_Hs87RgTQdA/o.jpg", "is_closed": false, "url": "https://www.yelp.com/biz/bites-of-xian-new-york-2?adjust_creative=9gNmiWYX8uTbFBeTTvJMdA&utm_campaign=yelp_api_v3&utm_medium=api_v3_business_search&utm_source=9gNmiWYX8uTbFBeTTvJMdA", "review_count": 67, "categories": [{"alias": "chinese", "title": "Chinese"}, {"alias": "noodles", "title": "Noodles"}], "rating": 4.0, "coordinates": {"latitude": 40.76335868622376, "longitude": -73.97709537292124}, "transactions": ["pickup", "delivery"], "location": {"address1": "60 W 56th St", "address2": "", "address3": null, "city": "New York", "zip_code": "10019", "country": "US", "state": "NY", "display_address": ["60 W 56th St", "New York, NY 10019"]}, "phone": "+16464490771", "display_phone": "(646) 449-0771", "distance": 785.9616282832578}, {"id": "Qgv2vyUV-DwK8YwrhU-jtw", "alias": "lan-sheng-restaurant-new-york", "name": "Lan Sheng Restaurant", "image_url": "https://s3-media4.fl.yelpcdn.com/bphoto/9Sm_9spy2ONMUbu3mlaREw/o.jpg", "is_closed": false, "url": "https://www.yelp.com/biz/lan-sheng-restaurant-new-york?adjust_creative=9gNmiWYX8uTbFBeTTvJMdA&utm_campaign=yelp_api_v3&utm_medium=api_v3_business_search&utm_source=9gNmiWYX8uTbFBeTTvJMdA", "review_count": 218, "categories": [{"alias": "szechuan", "title": "Szechuan"}], "rating": 4.0, "coordinates": {"latitude": 40.7517141867087, "longitude": -73.9883603449123}, "transactions": ["pickup", "delivery"], "price": "$$", "location": {"address1": "128 W 36th St", "address2": null, "address3": "", "city": "New York", "zip_code": "10018", "country": "US", "state": "NY", "display_address": ["128 W 36th St", "New York, NY 10018"]}, "phone": "+12125758899", "display_phone": "(212) 575-8899", "distance": 1786.6519094543394}, {"id": "3oB2_2vpeIyxJt1GvlcZBA", "alias": "baodega-new-york", "name": "Baodega", "image_url": "https://s3-media1.fl.yelpcdn.com/bphoto/Ol0wX-SNY1Z0w5aRkbtY9A/o.jpg", "is_closed": false, "url": "https://www.yelp.com/biz/baodega-new-york?adjust_creative=9gNmiWYX8uTbFBeTTvJMdA&utm_campaign=yelp_api_v3&utm_medium=api_v3_business_search&utm_source=9gNmiWYX8uTbFBeTTvJMdA", "review_count": 281, "categories": [{"alias": "dimsum", "title": "Dim Sum"}, {"alias": "noodles", "title": "Noodles"}], "rating": 4.0, "coordinates": {"latitude": 40.740201, "longitude": -73.991727}, "transactions": ["pickup", "delivery"], "price": "$$", "location": {"address1": "7 W 20th St", "address2": "", "address3": null, "city": "New York", "zip_code": "10011", "country": "US", "state": "NY", "display_address": ["7 W 20th St", "New York, NY 10011"]}, "phone": "+12124620007", "display_phone": "(212) 462-0007", "distance": 2819.2216271013926}, {"id": "HOfNVzn45dwctTOCLVPj2g", "alias": "so-do-fun-new-york-2", "name": "So Do Fun", "image_url": "https://s3-media2.fl.yelpcdn.com/bphoto/R5OiVEAB0NfNrUBhlEdgQw/o.jpg", "is_closed": false, "url": "https://www.yelp.com/biz/so-do-fun-new-york-2?adjust_creative=9gNmiWYX8uTbFBeTTvJMdA&utm_campaign=yelp_api_v3&utm_medium=api_v3_business_search&utm_source=9gNmiWYX8uTbFBeTTvJMdA", "review_count": 40, "categories": [{"alias": "szechuan", "title": "Szechuan"}, {"alias": "desserts", "title": "Desserts"}, {"alias": "soup", "title": "Soup"}], "rating": 4.5, "coordinates": {"latitude": 40.73415, "longitude": -73.98633}, "transactions": ["delivery", "pickup", "restaurant_reservation"], "location": {"address1": "155 3rd Ave", "address2": null, "address3": "", "city": "New York", "zip_code": "10003", "country": "US", "state": "NY", "display_address": ["155 3rd Ave", "New York, NY 10003"]}, "phone": "+16468223530", "display_phone": "(646) 822-3530", "distance": 3120.1268960805173}, {"id": "DsH2GQdj6lX-znyfDFFhhQ", "alias": "goody-fresh-dimsum-new-york", "name": "Goody Fresh Dimsum", "image_url": "https://s3-media2.fl.yelpcdn.com/bphoto/ydveO5h7JMdHsDuT7o2kuA/o.jpg", "is_closed": false, "url": "https://www.yelp.com/biz/goody-fresh-dimsum-new-york?adjust_creative=9gNmiWYX8uTbFBeTTvJMdA&utm_campaign=yelp_api_v3&utm_medium=api_v3_business_search&utm_source=9gNmiWYX8uTbFBeTTvJMdA", "review_count": 52, "categories": [{"alias": "dimsum", "title": "Dim Sum"}, {"alias": "bubbletea", "title": "Bubble Tea"}], "rating": 4.5, "coordinates": {"latitude": 40.73699, "longitude": -73.99744}, "transactions": ["pickup", "delivery"], "price": "$$", "location": {"address1": "513 6th Ave", "address2": null, "address3": "", "city": "New York", "zip_code": "10011", "country": "US", "state": "NY", "display_address": ["513 6th Ave", "New York, NY 10011"]}, "phone": "+16469228968", "display_phone": "(646) 922-8968", "distance": 3403.9732318320366}, {"id": "iiP46Z-A_ClynkS_qFQKEQ", "alias": "munchiez-by-mei-lai-wah-new-york", "name": "Munchiez by Mei Lai Wah", "image_url": "https://s3-media2.fl.yelpcdn.com/bphoto/FFsyUnBl35DaoMhRLMnQ5w/o.jpg", "is_closed": false, "url": "https://www.yelp.com/biz/munchiez-by-mei-lai-wah-new-york?adjust_creative=9gNmiWYX8uTbFBeTTvJMdA&utm_campaign=yelp_api_v3&utm_medium=api_v3_business_search&utm_source=9gNmiWYX8uTbFBeTTvJMdA", "review_count": 88, "categories": [{"alias": "dimsum", "title": "Dim Sum"}, {"alias": "coffee", "title": "Coffee & Tea"}], "rating": 5.0, "coordinates": {"latitude": 40.730027, "longitude": -74.000204}, "transactions": ["pickup", "delivery"], "price": "$", "location": {"address1": "126 MacDougal St", "address2": "", "address3": null, "city": "New York", "zip_code": "10012", "country": "US", "state": "NY", "display_address": ["126 MacDougal St", "New York, NY 10012"]}, "phone": "", "display_phone": "", "distance": 4146.65617481898}, {"id": "VW2Epq3C8jqysu6Edpu-RA", "alias": "atlas-kitchen-new-york", "name": "Atlas Kitchen", "image_url": "https://s3-media1.fl.yelpcdn.com/bphoto/uRbFq0fflOohLJT82KgR4Q/o.jpg", "is_closed": false, "url": "https://www.yelp.com/biz/atlas-kitchen-new-york?adjust_creative=9gNmiWYX8uTbFBeTTvJMdA&utm_campaign=yelp_api_v3&utm_medium=api_v3_business_search&utm_source=9gNmiWYX8uTbFBeTTvJMdA", "review_count": 186, "categories": [{"alias": "chinese", "title": "Chinese"}], "rating": 4.0, "coordinates": {"latitude": 40.80332, "longitude": -73.9668}, "transactions": ["delivery", "pickup"], "price": "$$", "location": {"address1": "258 W 109th St", "address2": null, "address3": "", "city": "New York", "zip_code": "10025", "country": "US", "state": "NY", "display_address": ["258 W 109th St", "New York, NY 10025"]}, "phone": "+16469280522", "display_phone": "(646) 928-0522", "distance": 4904.779933351771}, {"id": "JJLFsLZbL21fbYRqcIGCLA", "alias": "awesum-dimsum-new-york-5", "name": "Awesum Dimsum", "image_url": "https://s3-media2.fl.yelpcdn.com/bphoto/_VTit7H74K4No8enOb5Hcw/o.jpg", "is_closed": false, "url": "https://www.yelp.com/biz/awesum-dimsum-new-york-5?adjust_creative=9gNmiWYX8uTbFBeTTvJMdA&utm_campaign=yelp_api_v3&utm_medium=api_v3_business_search&utm_source=9gNmiWYX8uTbFBeTTvJMdA", "review_count": 240, "categories": [{"alias": "dimsum", "title": "Dim Sum"}, {"alias": "cantonese", "title": "Cantonese"}, {"alias": "comfortfood", "title": "Comfort Food"}], "rating": 4.5, "coordinates": {"latitude": 40.7557, "longitude": -73.9907}, "transactions": ["pickup", "delivery"], "price": "$$", "location": {"address1": "612 8th Ave", "address2": "", "address3": null, "city": "New York", "zip_code": "10018", "country": "US", "state": "NY", "display_address": ["612 8th Ave", "New York, NY 10018"]}, "phone": "+12125208099", "display_phone": "(212) 520-8099", "distance": 1816.2113828638378}, {"id": "l44CFBTejwL0ElKmkH7xQQ", "alias": "decoy-new-york", "name": "Decoy", "image_url": "https://s3-media1.fl.yelpcdn.com/bphoto/lFlWK-cY16p-xccEltZ7ig/o.jpg", "is_closed": false, "url": "https://www.yelp.com/biz/decoy-new-york?adjust_creative=9gNmiWYX8uTbFBeTTvJMdA&utm_campaign=yelp_api_v3&utm_medium=api_v3_business_search&utm_source=9gNmiWYX8uTbFBeTTvJMdA", "review_count": 456, "categories": [{"alias": "chinese", "title": "Chinese"}, {"alias": "bars", "title": "Bars"}], "rating": 4.0, "coordinates": {"latitude": 40.734207418277244, "longitude": -74.006519}, "transactions": [], "price": "$$$", "location": {"address1": "529 Hudson St", "address2": "", "address3": "", "city": "New York", "zip_code": "10014", "country": "US", "state": "NY", "display_address": ["529 Hudson St", "New York, NY 10014"]}, "phone": "+12126919700", "display_phone": "(212) 691-9700", "distance": 4170.599634483563}, {"id": "jwKPVep2qZYBUA6SLLQPvg", "alias": "legend-72-new-york-9", "name": "Legend 72", "image_url": "https://s3-media1.fl.yelpcdn.com/bphoto/Ly8b-awA06mBIx1v2pQLkA/o.jpg", "is_closed": false, "url": "https://www.yelp.com/biz/legend-72-new-york-9?adjust_creative=9gNmiWYX8uTbFBeTTvJMdA&utm_campaign=yelp_api_v3&utm_medium=api_v3_business_search&utm_source=9gNmiWYX8uTbFBeTTvJMdA", "review_count": 279, "categories": [{"alias": "chinese", "title": "Chinese"}, {"alias": "seafood", "title": "Seafood"}, {"alias": "noodles", "title": "Noodles"}], "rating": 3.5, "coordinates": {"latitude": 40.77796, "longitude": -73.9796901}, "transactions": ["pickup", "delivery"], "price": "$$", "location": {"address1": "127 W 72nd St", "address2": "", "address3": "", "city": "New York", "zip_code": "10023", "country": "US", "state": "NY", "display_address": ["127 W 72nd St", "New York, NY 10023"]}, "phone": "+19174414790", "display_phone": "(917) 441-4790", "distance": 2255.8725468807925}, {"id": "pBNMZp_tKCAfRNx7-ybcHQ", "alias": "calle-dao-chelsea-new-york-3", "name": "Calle Dao - Chelsea", "image_url": "https://s3-media4.fl.yelpcdn.com/bphoto/Pi8c75Kul_LBgju_na56HQ/o.jpg", "is_closed": false, "url": "https://www.yelp.com/biz/calle-dao-chelsea-new-york-3?adjust_creative=9gNmiWYX8uTbFBeTTvJMdA&utm_campaign=yelp_api_v3&utm_medium=api_v3_business_search&utm_source=9gNmiWYX8uTbFBeTTvJMdA", "review_count": 997, "categories": [{"alias": "cuban", "title": "Cuban"}, {"alias": "chinese", "title": "Chinese"}, {"alias": "asianfusion", "title": "Asian Fusion"}], "rating": 4.5, "coordinates": {"latitude": 40.74765439999999, "longitude": -74.00352480000001}, "transactions": ["pickup", "delivery"], "price": "$$", "location": {"address1": "461 W 23rd St", "address2": "", "address3": null, "city": "New York", "zip_code": "10011", "country": "US", "state": "NY", "display_address": ["461 W 23rd St", "New York, NY 10011"]}, "phone": "+12124144104", "display_phone": "(212) 414-4104", "distance": 3133.5746440051894}, {"id": "kXYTWVIPTnCukSo2jfxZ8A", "alias": "east-river-eatery-new-york-2", "name": "East River Eatery", "image_url": "https://s3-media2.fl.yelpcdn.com/bphoto/bgRKOv6HJBG7xi283wLXeg/o.jpg", "is_closed": false, "url": "https://www.yelp.com/biz/east-river-eatery-new-york-2?adjust_creative=9gNmiWYX8uTbFBeTTvJMdA&utm_campaign=yelp_api_v3&utm_medium=api_v3_business_search&utm_source=9gNmiWYX8uTbFBeTTvJMdA", "review_count": 77, "categories": [{"alias": "seafood", "title": "Seafood"}, {"alias": "dimsum", "title": "Dim Sum"}, {"alias": "noodles", "title": "Noodles"}], "rating": 4.5, "coordinates": {"latitude": 40.7623, "longitude": -73.959115}, "transactions": ["delivery", "pickup", "restaurant_reservation"], "location": {"address1": "408 E 64th St", "address2": null, "address3": "", "city": "New York", "zip_code": "10065", "country": "US", "state": "NY", "display_address": ["408 E 64th St", "New York, NY 10065"]}, "phone": "+19172658948", "display_phone": "(917) 265-8948", "distance": 945.9687402439287}, {"id": "TU_BU9HLflYI2xlyqVQdRA", "alias": "tao-uptown-new-york-2", "name": "TAO Uptown", "image_url": "https://s3-media4.fl.yelpcdn.com/bphoto/Hlkr0IJaok7ORA1TSurTnA/o.jpg", "is_closed": false, "url": "https://www.yelp.com/biz/tao-uptown-new-york-2?adjust_creative=9gNmiWYX8uTbFBeTTvJMdA&utm_campaign=yelp_api_v3&utm_medium=api_v3_business_search&utm_source=9gNmiWYX8uTbFBeTTvJMdA", "review_count": 2863, "categories": [{"alias": "asianfusion", "title": "Asian Fusion"}], "rating": 3.5, "coordinates": {"latitude": 40.76266943713004, "longitude": -73.97144107883544}, "transactions": ["pickup", "delivery"], "price": "$$$", "location": {"address1": "42 E 58th St", "address2": "", "address3": "", "city": "New York", "zip_code": "10022", "country": "US", "state": "NY", "display_address": ["42 E 58th St", "New York, NY 10022"]}, "phone": "+12128882288", "display_phone": "(212) 888-2288", "distance": 419.20829002506173}, {"id": "jjJc_CrkB2HodEinB6cWww", "alias": "lovemama-new-york", "name": "LoveMama", "image_url": "https://s3-media1.fl.yelpcdn.com/bphoto/bLlFKTlVuLfmF-lIDGIjZA/o.jpg", "is_closed": false, "url": "https://www.yelp.com/biz/lovemama-new-york?adjust_creative=9gNmiWYX8uTbFBeTTvJMdA&utm_campaign=yelp_api_v3&utm_medium=api_v3_business_search&utm_source=9gNmiWYX8uTbFBeTTvJMdA", "review_count": 6363, "categories": [{"alias": "thai", "title": "Thai"}, {"alias": "malaysian", "title": "Malaysian"}, {"alias": "vietnamese", "title": "Vietnamese"}], "rating": 4.5, "coordinates": {"latitude": 40.730408722512074, "longitude": -73.98612673033213}, "transactions": ["restaurant_reservation", "pickup", "delivery"], "price": "$$", "location": {"address1": "174 2nd Ave", "address2": "", "address3": "", "city": "New York", "zip_code": "10003", "country": "US", "state": "NY", "display_address": ["174 2nd Ave", "New York, NY 10003"]}, "phone": "+12122545370", "display_phone": "(212) 254-5370", "distance": 3489.378554502803}, {"id": "6YehBdKHcLDsvaewhcEjFQ", "alias": "hey-yuet-new-york", "name": "Hey Yuet", "image_url": "https://s3-media2.fl.yelpcdn.com/bphoto/byR4wTPgJGp32VZ67Hsf8Q/o.jpg", "is_closed": false, "url": "https://www.yelp.com/biz/hey-yuet-new-york?adjust_creative=9gNmiWYX8uTbFBeTTvJMdA&utm_campaign=yelp_api_v3&utm_medium=api_v3_business_search&utm_source=9gNmiWYX8uTbFBeTTvJMdA", "review_count": 181, "categories": [{"alias": "dimsum", "title": "Dim Sum"}, {"alias": "cantonese", "title": "Cantonese"}], "rating": 4.5, "coordinates": {"latitude": 40.74703, "longitude": -73.99645}, "transactions": ["pickup", "delivery"], "price": "$$", "location": {"address1": "251 W 26th St", "address2": null, "address3": "", "city": "New York", "zip_code": "10001", "country": "US", "state": "NY", "display_address": ["251 W 26th St", "New York, NY 10001"]}, "phone": "+16469984196", "display_phone": "(646) 998-4196", "distance": 2623.80285864192}, {"id": "8Oo2AtQEPDfxIOnA8wfXoQ", "alias": "886-new-york", "name": "886", "image_url": "https://s3-media3.fl.yelpcdn.com/bphoto/N-V-Dl4nrmMhN1TcVt6a8g/o.jpg", "is_closed": false, "url": "https://www.yelp.com/biz/886-new-york?adjust_creative=9gNmiWYX8uTbFBeTTvJMdA&utm_campaign=yelp_api_v3&utm_medium=api_v3_business_search&utm_source=9gNmiWYX8uTbFBeTTvJMdA", "review_count": 639, "categories": [{"alias": "taiwanese", "title": "Taiwanese"}, {"alias": "asianfusion", "title": "Asian Fusion"}], "rating": 4.0, "coordinates": {"latitude": 40.72877, "longitude": -73.98873}, "transactions": ["pickup", "delivery"], "price": "$$", "location": {"address1": "26 Saint Marks Pl", "address2": "", "address3": null, "city": "New York", "zip_code": "10003", "country": "US", "state": "NY", "display_address": ["26 Saint Marks Pl", "New York, NY 10003"]}, "phone": "+16468820231", "display_phone": "(646) 882-0231", "distance": 3743.802842221469}, {"id": "YDZX2bJ1IyV0lunBYqbb4w", "alias": "new-chinatown-asian-cuisine-bar-new-york", "name": "New Chinatown  Asian Cuisine/ Bar", "image_url": "https://s3-media3.fl.yelpcdn.com/bphoto/RulCaaSt28wkdGLVmIOP4A/o.jpg", "is_closed": false, "url": "https://www.yelp.com/biz/new-chinatown-asian-cuisine-bar-new-york?adjust_creative=9gNmiWYX8uTbFBeTTvJMdA&utm_campaign=yelp_api_v3&utm_medium=api_v3_business_search&utm_source=9gNmiWYX8uTbFBeTTvJMdA", "review_count": 4, "categories": [{"alias": "asianfusion", "title": "Asian Fusion"}, {"alias": "thai", "title": "Thai"}, {"alias": "chinese", "title": "Chinese"}], "rating": 4.5, "coordinates": {"latitude": 40.782945, "longitude": -73.95132}, "transactions": ["restaurant_reservation"], "location": {"address1": "1650 3rd Ave", "address2": null, "address3": "", "city": "New York", "zip_code": "10128", "country": "US", "state": "NY", "display_address": ["1650 3rd Ave", "New York, NY 10128"]}, "phone": "+12125208124", "display_phone": "(212) 520-8124", "distance": 3060.887030268738}, {"id": "pPqEu60FMffpiWqk2MCrVA", "alias": "hutaoli-music-restaurant-and-bar-new-york", "name": "Hutaoli Music Restaurant & Bar", "image_url": "https://s3-media2.fl.yelpcdn.com/bphoto/x0a-MtOFoO48K_bosGSD9w/o.jpg", "is_closed": false, "url": "https://www.yelp.com/biz/hutaoli-music-restaurant-and-bar-new-york?adjust_creative=9gNmiWYX8uTbFBeTTvJMdA&utm_campaign=yelp_api_v3&utm_medium=api_v3_business_search&utm_source=9gNmiWYX8uTbFBeTTvJMdA", "review_count": 174, "categories": [{"alias": "chinese", "title": "Chinese"}, {"alias": "bars", "title": "Bars"}, {"alias": "musicvenues", "title": "Music Venues"}], "rating": 4.0, "coordinates": {"latitude": 40.748413, "longitude": -73.9871229}, "transactions": ["pickup", "delivery"], "price": "$$$", "location": {"address1": "42 W 33rd St", "address2": null, "address3": "", "city": "New York", "zip_code": "10001", "country": "US", "state": "NY", "display_address": ["42 W 33rd St", "New York, NY 10001"]}, "phone": "+19172616989", "display_phone": "(917) 261-6989", "distance": 1906.836634356182}, {"id": "_fTRTishY3G5dLPLYGCVAw", "alias": "tipsy-shanghai-new-york-5", "name": "Tipsy Shanghai", "image_url": "https://s3-media4.fl.yelpcdn.com/bphoto/Sb38CbURTXf5vtfVTjiUmg/o.jpg", "is_closed": false, "url": "https://www.yelp.com/biz/tipsy-shanghai-new-york-5?adjust_creative=9gNmiWYX8uTbFBeTTvJMdA&utm_campaign=yelp_api_v3&utm_medium=api_v3_business_search&utm_source=9gNmiWYX8uTbFBeTTvJMdA", "review_count": 36, "categories": [{"alias": "chinese", "title": "Chinese"}, {"alias": "noodles", "title": "Noodles"}], "rating": 4.0, "coordinates": {"latitude": 40.74879, "longitude": -73.9761}, "transactions": ["pickup", "delivery"], "location": {"address1": "594 3rd Ave", "address2": "", "address3": null, "city": "New York", "zip_code": "10016", "country": "US", "state": "NY", "display_address": ["594 3rd Ave", "New York, NY 10016"]}, "phone": "+12124666488", "display_phone": "(212) 466-6488", "distance": 1278.6428690613768}, {"id": "7ZQSMqWzvXMSetXnii2fBg", "alias": "excellent-dumpling-house-new-york-3", "name": "Excellent Dumpling House", "image_url": "https://s3-media4.fl.yelpcdn.com/bphoto/ZnK3r6Knbjjqv3wfQUIExQ/o.jpg", "is_closed": false, "url": "https://www.yelp.com/biz/excellent-dumpling-house-new-york-3?adjust_creative=9gNmiWYX8uTbFBeTTvJMdA&utm_campaign=yelp_api_v3&utm_medium=api_v3_business_search&utm_source=9gNmiWYX8uTbFBeTTvJMdA", "review_count": 755, "categories": [{"alias": "dimsum", "title": "Dim Sum"}, {"alias": "shanghainese", "title": "Shanghainese"}], "rating": 4.0, "coordinates": {"latitude": 40.7440494396358, "longitude": -73.995028194335}, "transactions": ["pickup", "delivery"], "price": "$$", "location": {"address1": "165 W 23rd St", "address2": "", "address3": null, "city": "New York", "zip_code": "10011", "country": "US", "state": "NY", "display_address": ["165 W 23rd St", "New York, NY 10011"]}, "phone": "+12129898885", "display_phone": "(212) 989-8885", "distance": 2725.063274866418}, {"id": "8ZBbl3VN-cu6PFOL0D7-8A", "alias": "hunan-village-new-york", "name": "Hunan Village", "image_url": "https://s3-media1.fl.yelpcdn.com/bphoto/bmOOK2HpMaLtRuRYS8cpCw/o.jpg", "is_closed": false, "url": "https://www.yelp.com/biz/hunan-village-new-york?adjust_creative=9gNmiWYX8uTbFBeTTvJMdA&utm_campaign=yelp_api_v3&utm_medium=api_v3_business_search&utm_source=9gNmiWYX8uTbFBeTTvJMdA", "review_count": 34, "categories": [{"alias": "szechuan", "title": "Szechuan"}, {"alias": "dimsum", "title": "Dim Sum"}, {"alias": "cantonese", "title": "Cantonese"}], "rating": 4.0, "coordinates": {"latitude": 40.749688, "longitude": -73.977171}, "transactions": ["pickup", "delivery"], "location": {"address1": "339 Lexington Ave New York Ny", "address2": null, "address3": "", "city": "New York", "zip_code": "10016", "country": "US", "state": "NY", "display_address": ["339 Lexington Ave New York Ny", "New York, NY 10016"]}, "phone": "+16466924888", "display_phone": "(646) 692-4888", "distance": 1233.7912674504735}, {"id": "85wkGMKbHV0RdTGIWpep5A", "alias": "zen-pot-new-york", "name": "Zen Pot", "image_url": "https://s3-media1.fl.yelpcdn.com/bphoto/u0HpsFYKeT9Ni1LDyUz-kg/o.jpg", "is_closed": false, "url": "https://www.yelp.com/biz/zen-pot-new-york?adjust_creative=9gNmiWYX8uTbFBeTTvJMdA&utm_campaign=yelp_api_v3&utm_medium=api_v3_business_search&utm_source=9gNmiWYX8uTbFBeTTvJMdA", "review_count": 15, "categories": [{"alias": "szechuan", "title": "Szechuan"}], "rating": 4.5, "coordinates": {"latitude": 40.765612, "longitude": -73.982937}, "transactions": ["delivery"], "location": {"address1": "242 W 56th St", "address2": null, "address3": "", "city": "New York", "zip_code": "10019", "country": "US", "state": "NY", "display_address": ["242 W 56th St", "New York, NY 10019"]}, "phone": "+19173361732", "display_phone": "(917) 336-1732", "distance": 1340.3923447171944}, {"id": "wurhcLKXD4YJ5XfTxpbE5Q", "alias": "grand-sichuan-new-york-12", "name": "Grand Sichuan", "image_url": "https://s3-media3.fl.yelpcdn.com/bphoto/dCa2bVSt-MUvfsKSCf2DJw/o.jpg", "is_closed": false, "url": "https://www.yelp.com/biz/grand-sichuan-new-york-12?adjust_creative=9gNmiWYX8uTbFBeTTvJMdA&utm_campaign=yelp_api_v3&utm_medium=api_v3_business_search&utm_source=9gNmiWYX8uTbFBeTTvJMdA", "review_count": 488, "categories": [{"alias": "chinese", "title": "Chinese"}], "rating": 3.5, "coordinates": {"latitude": 40.747413, "longitude": -74.001052}, "transactions": ["pickup", "delivery"], "price": "$$", "location": {"address1": "229 9th Ave", "address2": "", "address3": "", "city": "New York", "zip_code": "10001", "country": "US", "state": "NY", "display_address": ["229 9th Ave", "New York, NY 10001"]}, "phone": "+12126205200", "display_phone": "(212) 620-5200", "distance": 2956.309906830957}, {"id": "XaEFFUabnbH8ZF7ccmSAlQ", "alias": "south-of-the-clouds-new-york", "name": "South Of The Clouds", "image_url": "https://s3-media1.fl.yelpcdn.com/bphoto/4KB1spo25WfPbo9fm5oLtg/o.jpg", "is_closed": false, "url": "https://www.yelp.com/biz/south-of-the-clouds-new-york?adjust_creative=9gNmiWYX8uTbFBeTTvJMdA&utm_campaign=yelp_api_v3&utm_medium=api_v3_business_search&utm_source=9gNmiWYX8uTbFBeTTvJMdA", "review_count": 240, "categories": [{"alias": "chinese", "title": "Chinese"}, {"alias": "noodles", "title": "Noodles"}, {"alias": "desserts", "title": "Desserts"}], "rating": 4.0, "coordinates": {"latitude": 40.73264, "longitude": -73.99752}, "transactions": ["pickup", "delivery"], "price": "$$", "location": {"address1": "16 W 8th St", "address2": null, "address3": "", "city": "New York", "zip_code": "10011", "country": "US", "state": "NY", "display_address": ["16 W 8th St", "New York, NY 10011"]}, "phone": "+12128889653", "display_phone": "(212) 888-9653", "distance": 3776.4974650220092}, {"id": "6dVXDdgzDEVt4DvHzpWo9w", "alias": "tang-pavilion-new-york-3", "name": "Tang Pavilion", "image_url": "https://s3-media2.fl.yelpcdn.com/bphoto/L1zFu4P1DSF2qp1VZznghQ/o.jpg", "is_closed": false, "url": "https://www.yelp.com/biz/tang-pavilion-new-york-3?adjust_creative=9gNmiWYX8uTbFBeTTvJMdA&utm_campaign=yelp_api_v3&utm_medium=api_v3_business_search&utm_source=9gNmiWYX8uTbFBeTTvJMdA", "review_count": 343, "categories": [{"alias": "shanghainese", "title": "Shanghainese"}], "rating": 3.5, "coordinates": {"latitude": 40.76275, "longitude": -73.97725}, "transactions": ["pickup", "delivery"], "price": "$$", "location": {"address1": "65 W 55th St", "address2": "", "address3": "", "city": "New York", "zip_code": "10019", "country": "US", "state": "NY", "display_address": ["65 W 55th St", "New York, NY 10019"]}, "phone": "+12129566888", "display_phone": "(212) 956-6888", "distance": 762.4043377583238}, {"id": "WRRs3smfm6rHP5k4Slzr3w", "alias": "hop-won-restaurant-new-york", "name": "Hop Won Restaurant", "image_url": "https://s3-media2.fl.yelpcdn.com/bphoto/1xbDW6LiGb_uk-fZcSuTbg/o.jpg", "is_closed": false, "url": "https://www.yelp.com/biz/hop-won-restaurant-new-york?adjust_creative=9gNmiWYX8uTbFBeTTvJMdA&utm_campaign=yelp_api_v3&utm_medium=api_v3_business_search&utm_source=9gNmiWYX8uTbFBeTTvJMdA", "review_count": 156, "categories": [{"alias": "chinese", "title": "Chinese"}], "rating": 3.0, "coordinates": {"latitude": 40.75322, "longitude": -73.97399}, "transactions": ["delivery", "pickup"], "price": "$", "location": {"address1": "139 E 45th St", "address2": "", "address3": "", "city": "New York", "zip_code": "10017", "country": "US", "state": "NY", "display_address": ["139 E 45th St", "New York, NY 10017"]}, "phone": "+12128674996", "display_phone": "(212) 867-4996", "distance": 762.1681776568453}, {"id": "UBY796Pa8HAuqC2uRR0WNg", "alias": "dim-sum-sam-new-york-2", "name": "Dim Sum Sam", "image_url": "https://s3-media4.fl.yelpcdn.com/bphoto/gdJrT5uEbH-h1rxwTZgNiw/o.jpg", "is_closed": false, "url": "https://www.yelp.com/biz/dim-sum-sam-new-york-2?adjust_creative=9gNmiWYX8uTbFBeTTvJMdA&utm_campaign=yelp_api_v3&utm_medium=api_v3_business_search&utm_source=9gNmiWYX8uTbFBeTTvJMdA", "review_count": 55, "categories": [{"alias": "bbq", "title": "Barbeque"}, {"alias": "dimsum", "title": "Dim Sum"}, {"alias": "coffee", "title": "Coffee & Tea"}], "rating": 4.5, "coordinates": {"latitude": 40.755247, "longitude": -73.989578}, "transactions": ["pickup", "delivery"], "location": {"address1": "240 W 40th St", "address2": null, "address3": "", "city": "New York", "zip_code": "10018", "country": "US", "state": "NY", "display_address": ["240 W 40th St", "New York, NY 10018"]}, "phone": "+19174727688", "display_phone": "(917) 472-7688", "distance": 1740.3711825506102}, {"id": "i7cKPMXreR4XfTjdpqZ_5A", "alias": "emperor-dumpling-new-york", "name": "Emperor Dumpling", "image_url": "https://s3-media1.fl.yelpcdn.com/bphoto/kd6BU3C65C7rYyxwcVg_FQ/o.jpg", "is_closed": false, "url": "https://www.yelp.com/biz/emperor-dumpling-new-york?adjust_creative=9gNmiWYX8uTbFBeTTvJMdA&utm_campaign=yelp_api_v3&utm_medium=api_v3_business_search&utm_source=9gNmiWYX8uTbFBeTTvJMdA", "review_count": 32, "categories": [{"alias": "chinese", "title": "Chinese"}], "rating": 4.5, "coordinates": {"latitude": 40.74613, "longitude": -73.99015}, "transactions": ["pickup", "delivery"], "location": {"address1": "818 6th Ave", "address2": null, "address3": null, "city": "New York", "zip_code": "10001", "country": "US", "state": "NY", "display_address": ["818 6th Ave", "New York, NY 10001"]}, "phone": "+16464227128", "display_phone": "(646) 422-7128", "distance": 2263.1122742182406}, {"id": "iM2DKMjyU_R1r8x-3AZGQg", "alias": "new-cottage-new-york-2", "name": "New Cottage", "image_url": "https://s3-media4.fl.yelpcdn.com/bphoto/0CmwE4qcQg1oYAauqFP8WQ/o.jpg", "is_closed": false, "url": "https://www.yelp.com/biz/new-cottage-new-york-2?adjust_creative=9gNmiWYX8uTbFBeTTvJMdA&utm_campaign=yelp_api_v3&utm_medium=api_v3_business_search&utm_source=9gNmiWYX8uTbFBeTTvJMdA", "review_count": 68, "categories": [{"alias": "cantonese", "title": "Cantonese"}, {"alias": "szechuan", "title": "Szechuan"}], "rating": 4.0, "coordinates": {"latitude": 40.78326357630784, "longitude": -73.98078454782609}, "transactions": [], "price": "$$", "location": {"address1": "2199 Broadway", "address2": "", "address3": null, "city": "New York", "zip_code": "10024", "country": "US", "state": "NY", "display_address": ["2199 Broadway", "New York, NY 10024"]}, "phone": "+12125957450", "display_phone": "(212) 595-7450", "distance": 2840.0515790269296}, {"id": "HPwH6d3yshPeF0pywgDfSw", "alias": "jiang-nan-jersey-city-2", "name": "Jiang Nan", "image_url": "https://s3-media2.fl.yelpcdn.com/bphoto/uHilRpIplXVuNjoFLk67Zw/o.jpg", "is_closed": false, "url": "https://www.yelp.com/biz/jiang-nan-jersey-city-2?adjust_creative=9gNmiWYX8uTbFBeTTvJMdA&utm_campaign=yelp_api_v3&utm_medium=api_v3_business_search&utm_source=9gNmiWYX8uTbFBeTTvJMdA", "review_count": 71, "categories": [{"alias": "chinese", "title": "Chinese"}], "rating": 4.0, "coordinates": {"latitude": 40.71681948978749, "longitude": -74.03873209999999}, "transactions": [], "location": {"address1": "97 Montgomery St", "address2": "", "address3": null, "city": "Jersey City", "zip_code": "07302", "country": "US", "state": "NJ", "display_address": ["97 Montgomery St", "Jersey City, NJ 07302"]}, "phone": "+12013336668", "display_phone": "(201) 333-6668", "distance": 7492.131200051838}, {"id": "keZkNTROSC-wFJsXHJdMAA", "alias": "bings-and-noodles-new-york", "name": "Bings & Noodles", "image_url": "https://s3-media2.fl.yelpcdn.com/bphoto/7HD2cb3OzfHho5cG55aH8w/o.jpg", "is_closed": false, "url": "https://www.yelp.com/biz/bings-and-noodles-new-york?adjust_creative=9gNmiWYX8uTbFBeTTvJMdA&utm_campaign=yelp_api_v3&utm_medium=api_v3_business_search&utm_source=9gNmiWYX8uTbFBeTTvJMdA", "review_count": 17, "categories": [{"alias": "chinese", "title": "Chinese"}, {"alias": "noodles", "title": "Noodles"}], "rating": 4.0, "coordinates": {"latitude": 40.730003496197085, "longitude": -73.9996072}, "transactions": ["pickup", "delivery"], "location": {"address1": "240 Sullivan St", "address2": null, "address3": "", "city": "New York", "zip_code": "10012", "country": "US", "state": "NY", "display_address": ["240 Sullivan St", "New York, NY 10012"]}, "phone": "", "display_phone": "", "distance": 4113.760909896146}, {"id": "c_YQu6gmnG_v7nXoTQHzHA", "alias": "xiao-chuan-dian-palisades-park-2", "name": "Xiao Chuan Dian", "image_url": "https://s3-media1.fl.yelpcdn.com/bphoto/6N99VH-8G9gu6v3Qt2K3bQ/o.jpg", "is_closed": false, "url": "https://www.yelp.com/biz/xiao-chuan-dian-palisades-park-2?adjust_creative=9gNmiWYX8uTbFBeTTvJMdA&utm_campaign=yelp_api_v3&utm_medium=api_v3_business_search&utm_source=9gNmiWYX8uTbFBeTTvJMdA", "review_count": 54, "categories": [{"alias": "chinese", "title": "Chinese"}], "rating": 4.0, "coordinates": {"latitude": 40.8462581, "longitude": -73.9995048}, "transactions": [], "price": "$$", "location": {"address1": "8 Henry Ave", "address2": "", "address3": "", "city": "Palisades Park", "zip_code": "07650", "country": "US", "state": "NJ", "display_address": ["8 Henry Ave", "Palisades Park, NJ 07650"]}, "phone": "+12014292226", "display_phone": "(201) 429-2226", "distance": 10002.641262880961}, {"id": "bSi2f2TaOr4RVTI5eFt0wQ", "alias": "taste-of-north-china-jersey-city", "name": "Taste Of North China", "image_url": "https://s3-media1.fl.yelpcdn.com/bphoto/Rw30BCZuDlfbIouScSQs-A/o.jpg", "is_closed": false, "url": "https://www.yelp.com/biz/taste-of-north-china-jersey-city?adjust_creative=9gNmiWYX8uTbFBeTTvJMdA&utm_campaign=yelp_api_v3&utm_medium=api_v3_business_search&utm_source=9gNmiWYX8uTbFBeTTvJMdA", "review_count": 300, "categories": [{"alias": "bubbletea", "title": "Bubble Tea"}, {"alias": "dimsum", "title": "Dim Sum"}, {"alias": "noodles", "title": "Noodles"}], "rating": 3.0, "coordinates": {"latitude": 40.7167868, "longitude": -74.0377625661521}, "transactions": ["pickup", "delivery"], "price": "$$", "location": {"address1": "75 Montgomery St", "address2": "", "address3": "", "city": "Jersey City", "zip_code": "07302", "country": "US", "state": "NJ", "display_address": ["75 Montgomery St", "Jersey City, NJ 07302"]}, "phone": "+12015211800", "display_phone": "(201) 521-1800", "distance": 7431.086604917914}], "total": 3300, "region": {"center": {"longitude": -73.96957397460938, "latitude": 40.75917470627005}}}