{"businesses": [{"id": "N--h7x9gMLbu7EgCLZ_w9A", "alias": "ging-li-long-island-city", "name": "Ging Li", "image_url": "https://s3-media2.fl.yelpcdn.com/bphoto/UM6oCTT4PtOkF0ROfm4Bkg/o.jpg", "is_closed": false, "url": "https://www.yelp.com/biz/ging-li-long-island-city?adjust_creative=9gNmiWYX8uTbFBeTTvJMdA&utm_campaign=yelp_api_v3&utm_medium=api_v3_business_search&utm_source=9gNmiWYX8uTbFBeTTvJMdA", "review_count": 30, "categories": [{"alias": "asianfusion", "title": "Asian Fusion"}, {"alias": "sushi", "title": "Sushi Bars"}, {"alias": "japanese", "title": "Japanese"}], "rating": 3.5, "coordinates": {"latitude": 40.74819542402061, "longitude": -73.94030605276092}, "transactions": [], "location": {"address1": "27-35 Jackson Ave", "address2": "", "address3": null, "city": "Long Island City", "zip_code": "11101", "country": "US", "state": "NY", "display_address": ["27-35 Jackson Ave", "Long Island City, NY 11101"]}, "phone": "+17182556661", "display_phone": "(718) 255-6661", "distance": 2751.0398098529718}, {"id": "tguMh2GgOcU9fu6WN3dqpw", "alias": "the-original-buddha-bodai-kosher-vegetarian-restaurant-new-york-4", "name": "The Original Buddha Bodai Kosher Vegetarian Restaurant", "image_url": "https://s3-media2.fl.yelpcdn.com/bphoto/amfkulADNxnzUgWez2J4oA/o.jpg", "is_closed": false, "url": "https://www.yelp.com/biz/the-original-buddha-bodai-kosher-vegetarian-restaurant-new-york-4?adjust_creative=9gNmiWYX8uTbFBeTTvJMdA&utm_campaign=yelp_api_v3&utm_medium=api_v3_business_search&utm_source=9gNmiWYX8uTbFBeTTvJMdA", "review_count": 1236, "categories": [{"alias": "chinese", "title": "Chinese"}, {"alias": "kosher", "title": "Kosher"}, {"alias": "vegan", "title": "Vegan"}], "rating": 4.0, "coordinates": {"latitude": 40.7138543, "longitude": -73.9989484}, "transactions": ["pickup", "delivery"], "price": "$$", "location": {"address1": "5 Mott St", "address2": null, "address3": "", "city": "New York", "zip_code": "10013", "country": "US", "state": "NY", "display_address": ["5 Mott St", "New York, NY 10013"]}, "phone": "+12125668388", "display_phone": "(212) 566-8388", "distance": 5614.332983938372}, {"id": "IQ91FltwJmIPhS6fKKf2pw", "alias": "china-1-kitchen-new-york", "name": "China 1 Kitchen", "image_url": "https://s3-media3.fl.yelpcdn.com/bphoto/tO5K2i9atBHBdg48wzWdeQ/o.jpg", "is_closed": false, "url": "https://www.yelp.com/biz/china-1-kitchen-new-york?adjust_creative=9gNmiWYX8uTbFBeTTvJMdA&utm_campaign=yelp_api_v3&utm_medium=api_v3_business_search&utm_source=9gNmiWYX8uTbFBeTTvJMdA", "review_count": 69, "categories": [{"alias": "chinese", "title": "Chinese"}], "rating": 3.0, "coordinates": {"latitude": 40.7632023290684, "longitude": -73.9490040654764}, "transactions": ["pickup", "delivery"], "price": "$", "location": {"address1": "609 Main St", "address2": "", "address3": "", "city": "New York", "zip_code": "10044", "country": "US", "state": "NY", "display_address": ["609 Main St", "New York, NY 10044"]}, "phone": "+12125880806", "display_phone": "(212) 588-0806", "distance": 1789.4116764896853}, {"id": "Sqp7ukA0qpGcqWbDgMSOCA", "alias": "radiance-noodle-bar-new-york", "name": "Radiance Noodle Bar", "image_url": "https://s3-media1.fl.yelpcdn.com/bphoto/EZECRbgtbXWkyhLkkbeP0Q/o.jpg", "is_closed": false, "url": "https://www.yelp.com/biz/radiance-noodle-bar-new-york?adjust_creative=9gNmiWYX8uTbFBeTTvJMdA&utm_campaign=yelp_api_v3&utm_medium=api_v3_business_search&utm_source=9gNmiWYX8uTbFBeTTvJMdA", "review_count": 20, "categories": [{"alias": "cantonese", "title": "Cantonese"}, {"alias": "noodles", "title": "Noodles"}], "rating": 3.0, "coordinates": {"latitude": 40.755573, "longitude": -73.970648}, "transactions": [], "price": "$", "location": {"address1": "805 3rd Avenue - Atrium", "address2": null, "address3": "", "city": "New York", "zip_code": "10022", "country": "US", "state": "NY", "display_address": ["805 3rd Avenue - Atrium", "New York, NY 10022"]}, "phone": "+12128888060", "display_phone": "(212) 888-8060", "distance": 410.5808122687056}, {"id": "ltk6eEztrcwqnxlJyz09Iw", "alias": "killer-thai-new-york", "name": "Killer Thai", "image_url": "https://s3-media1.fl.yelpcdn.com/bphoto/8YwA8kE3EezoyvfbmWXv_Q/o.jpg", "is_closed": false, "url": "https://www.yelp.com/biz/killer-thai-new-york?adjust_creative=9gNmiWYX8uTbFBeTTvJMdA&utm_campaign=yelp_api_v3&utm_medium=api_v3_business_search&utm_source=9gNmiWYX8uTbFBeTTvJMdA", "review_count": 6, "categories": [{"alias": "seafood", "title": "Seafood"}, {"alias": "noodles", "title": "Noodles"}, {"alias": "thai", "title": "Thai"}], "rating": 4.0, "coordinates": {"latitude": 40.70513697091654, "longitude": -73.9234444}, "transactions": ["pickup", "delivery"], "location": {"address1": "207 Starr St", "address2": null, "address3": "", "city": "New York", "zip_code": "11237", "country": "US", "state": "NY", "display_address": ["207 Starr St", "New York, NY 11237"]}, "phone": "+17189543036", "display_phone": "(718) 954-3036", "distance": 7156.286558675883}, {"id": "i2sHvYTM-vuvqqmgbFZwnQ", "alias": "cha-kee-new-york", "name": "Cha Kee", "image_url": "https://s3-media4.fl.yelpcdn.com/bphoto/4EKuubkUoN4KYFP9NTzlQw/o.jpg", "is_closed": false, "url": "https://www.yelp.com/biz/cha-kee-new-york?adjust_creative=9gNmiWYX8uTbFBeTTvJMdA&utm_campaign=yelp_api_v3&utm_medium=api_v3_business_search&utm_source=9gNmiWYX8uTbFBeTTvJMdA", "review_count": 93, "categories": [{"alias": "chinese", "title": "Chinese"}, {"alias": "seafood", "title": "Seafood"}, {"alias": "cocktailbars", "title": "Cocktail Bars"}], "rating": 3.5, "coordinates": {"latitude": 40.71519, "longitude": -73.99886}, "transactions": ["pickup", "delivery"], "price": "$$", "location": {"address1": "43 Mott St", "address2": "", "address3": null, "city": "New York", "zip_code": "10013", "country": "US", "state": "NY", "display_address": ["43 Mott St", "New York, NY 10013"]}, "phone": "+12125772888", "display_phone": "(212) 577-2888", "distance": 5479.241658801631}, {"id": "DJTvIuXvjoYsypytSD5qJw", "alias": "gyeonghoeru-korean-fort-lee", "name": "Gyeonghoeru Korean", "image_url": "https://s3-media3.fl.yelpcdn.com/bphoto/VFrb_OxFPuwrM88_i6Nxng/o.jpg", "is_closed": false, "url": "https://www.yelp.com/biz/gyeonghoeru-korean-fort-lee?adjust_creative=9gNmiWYX8uTbFBeTTvJMdA&utm_campaign=yelp_api_v3&utm_medium=api_v3_business_search&utm_source=9gNmiWYX8uTbFBeTTvJMdA", "review_count": 119, "categories": [{"alias": "chinese", "title": "Chinese"}, {"alias": "korean", "title": "Korean"}], "rating": 4.0, "coordinates": {"latitude": 40.8449793520601, "longitude": -73.9802233502269}, "transactions": ["delivery"], "price": "$$", "location": {"address1": "1355 16th St", "address2": "", "address3": null, "city": "Fort Lee", "zip_code": "07024", "country": "US", "state": "NJ", "display_address": ["1355 16th St", "Fort Lee, NJ 07024"]}, "phone": "+12012246600", "display_phone": "(201) 224-6600", "distance": 9583.044851078359}, {"id": "nALIXRUb7yvg8ZCS68m8iw", "alias": "no-1-chinese-restaurant-weehawken", "name": "No 1 Chinese Restaurant", "image_url": "https://s3-media1.fl.yelpcdn.com/bphoto/ZEMiNgr_o55AQQac3uFlNA/o.jpg", "is_closed": false, "url": "https://www.yelp.com/biz/no-1-chinese-restaurant-weehawken?adjust_creative=9gNmiWYX8uTbFBeTTvJMdA&utm_campaign=yelp_api_v3&utm_medium=api_v3_business_search&utm_source=9gNmiWYX8uTbFBeTTvJMdA", "review_count": 51, "categories": [{"alias": "chinese", "title": "Chinese"}], "rating": 3.5, "coordinates": {"latitude": 40.767345, "longitude": -74.029036}, "transactions": ["delivery"], "price": "$", "location": {"address1": "2504 Palisade Ave", "address2": "", "address3": "", "city": "Weehawken", "zip_code": "07086", "country": "US", "state": "NJ", "display_address": ["2504 Palisade Ave", "Weehawken, NJ 07086"]}, "phone": "+12016175349", "display_phone": "(201) 617-5349", "distance": 5092.949306550946}, {"id": "huguW14qFJAMfVNhH_VxqQ", "alias": "lions-gate-grill-new-york-2", "name": "Lions Gate Grill", "image_url": "https://s3-media2.fl.yelpcdn.com/bphoto/2KEtuzFuJCi8y-R_ZTu-Ow/o.jpg", "is_closed": false, "url": "https://www.yelp.com/biz/lions-gate-grill-new-york-2?adjust_creative=9gNmiWYX8uTbFBeTTvJMdA&utm_campaign=yelp_api_v3&utm_medium=api_v3_business_search&utm_source=9gNmiWYX8uTbFBeTTvJMdA", "review_count": 6, "categories": [{"alias": "tradamerican", "title": "American (Traditional)"}, {"alias": "chinese", "title": "Chinese"}], "rating": 4.0, "coordinates": {"latitude": 40.76742, "longitude": -73.98216}, "transactions": ["pickup", "delivery"], "location": {"address1": "1000 S 8th Ave", "address2": "Ste 12", "address3": null, "city": "New York", "zip_code": "10019", "country": "US", "state": "NY", "display_address": ["1000 S 8th Ave", "Ste 12", "New York, NY 10019"]}, "phone": "", "display_phone": "", "distance": 1401.4940412431347}, {"id": "d6pcRMV1YUDFTKO_p9d-sA", "alias": "wong-kwong-hop-elmhurst", "name": "Wong Kwong Hop", "image_url": "https://s3-media1.fl.yelpcdn.com/bphoto/BF-fhOy5iUM6LaYqlP7Jlg/o.jpg", "is_closed": false, "url": "https://www.yelp.com/biz/wong-kwong-hop-elmhurst?adjust_creative=9gNmiWYX8uTbFBeTTvJMdA&utm_campaign=yelp_api_v3&utm_medium=api_v3_business_search&utm_source=9gNmiWYX8uTbFBeTTvJMdA", "review_count": 92, "categories": [{"alias": "chinese", "title": "Chinese"}], "rating": 4.5, "coordinates": {"latitude": 40.735727, "longitude": -73.88152}, "transactions": ["delivery"], "price": "$", "location": {"address1": "85-27 Grand Ave", "address2": "", "address3": "", "city": "Elmhurst", "zip_code": "11373", "country": "US", "state": "NY", "display_address": ["85-27 Grand Ave", "Elmhurst, NY 11373"]}, "phone": "+17182055537", "display_phone": "(718) 205-5537", "distance": 7862.586872365433}, {"id": "4OGtGzKP6fvRu7MfQMRSEQ", "alias": "hong-kong-new-york-2", "name": "Hong Kong", "image_url": "https://s3-media4.fl.yelpcdn.com/bphoto/fk-OQWdtfQxdauwXgcJ1Qg/o.jpg", "is_closed": false, "url": "https://www.yelp.com/biz/hong-kong-new-york-2?adjust_creative=9gNmiWYX8uTbFBeTTvJMdA&utm_campaign=yelp_api_v3&utm_medium=api_v3_business_search&utm_source=9gNmiWYX8uTbFBeTTvJMdA", "review_count": 19, "categories": [{"alias": "chinese", "title": "Chinese"}], "rating": 4.0, "coordinates": {"latitude": 40.7926783064322, "longitude": -73.9457814748688}, "transactions": ["delivery"], "price": "$$", "location": {"address1": "1703 Lexington Ave", "address2": "", "address3": "", "city": "New York", "zip_code": "10029", "country": "US", "state": "NY", "display_address": ["1703 Lexington Ave", "New York, NY 10029"]}, "phone": "+12123482813", "display_phone": "(212) 348-2813", "distance": 4229.958408626356}, {"id": "KUEwlsurqKAl6JcAxzVAvA", "alias": "mr-bing-manhattan", "name": "Mr Bing", "image_url": "https://s3-media3.fl.yelpcdn.com/bphoto/UBhSyJTSEhedE4ANEzqDoA/o.jpg", "is_closed": false, "url": "https://www.yelp.com/biz/mr-bing-manhattan?adjust_creative=9gNmiWYX8uTbFBeTTvJMdA&utm_campaign=yelp_api_v3&utm_medium=api_v3_business_search&utm_source=9gNmiWYX8uTbFBeTTvJMdA", "review_count": 2, "categories": [{"alias": "chinese", "title": "Chinese"}], "rating": 5.0, "coordinates": {"latitude": 40.754464, "longitude": -73.976746}, "transactions": ["pickup", "delivery"], "location": {"address1": "180 Maiden Ln", "address2": "", "address3": "", "city": "Manhattan", "zip_code": "10038", "country": "US", "state": "NY", "display_address": ["180 Maiden Ln", "Manhattan, NY 10038"]}, "phone": "", "display_phone": "", "distance": 799.560837039888}, {"id": "LJntAPKObO0OfydYm3_bzQ", "alias": "kings-co-imperial-new-york-3", "name": "Kings Co Imperial", "image_url": "https://s3-media4.fl.yelpcdn.com/bphoto/zpFQ81Oj_LG9BuAc_WV4vQ/o.jpg", "is_closed": false, "url": "https://www.yelp.com/biz/kings-co-imperial-new-york-3?adjust_creative=9gNmiWYX8uTbFBeTTvJMdA&utm_campaign=yelp_api_v3&utm_medium=api_v3_business_search&utm_source=9gNmiWYX8uTbFBeTTvJMdA", "review_count": 96, "categories": [{"alias": "chinese", "title": "Chinese"}, {"alias": "venues", "title": "Venues & Event Spaces"}, {"alias": "noodles", "title": "Noodles"}], "rating": 4.0, "coordinates": {"latitude": 40.7180159, "longitude": -73.9853739}, "transactions": ["pickup", "delivery"], "price": "$$", "location": {"address1": "168 1/2 Delancey St", "address2": "", "address3": null, "city": "New York", "zip_code": "10002", "country": "US", "state": "NY", "display_address": ["168 1/2 Delancey St", "New York, NY 10002"]}, "phone": "+12124750244", "display_phone": "(212) 475-0244", "distance": 4766.308756632981}, {"id": "96D85AGxI37JNnveZbC6CA", "alias": "foliage-garden-west-new-york", "name": "Foliage Garden", "image_url": "https://s3-media1.fl.yelpcdn.com/bphoto/5Do0EfbHChgqRrzKEA3hUw/o.jpg", "is_closed": false, "url": "https://www.yelp.com/biz/foliage-garden-west-new-york?adjust_creative=9gNmiWYX8uTbFBeTTvJMdA&utm_campaign=yelp_api_v3&utm_medium=api_v3_business_search&utm_source=9gNmiWYX8uTbFBeTTvJMdA", "review_count": 57, "categories": [{"alias": "chinese", "title": "Chinese"}], "rating": 3.5, "coordinates": {"latitude": 40.7858, "longitude": -74.00865}, "transactions": ["pickup", "delivery"], "price": "$", "location": {"address1": "6014 Park Ave", "address2": "", "address3": "", "city": "West New York", "zip_code": "07093", "country": "US", "state": "NJ", "display_address": ["6014 Park Ave", "West New York, NJ 07093"]}, "phone": "+12018696911", "display_phone": "(201) 869-6911", "distance": 4435.713740142999}, {"id": "RUnj4RTVOSbbHE5zyguhrg", "alias": "no-1-flower-drum-house-astoria-2", "name": "No 1 Flower Drum House", "image_url": "https://s3-media2.fl.yelpcdn.com/bphoto/LoPDrjhxFpAHbS3MVd3K7Q/o.jpg", "is_closed": false, "url": "https://www.yelp.com/biz/no-1-flower-drum-house-astoria-2?adjust_creative=9gNmiWYX8uTbFBeTTvJMdA&utm_campaign=yelp_api_v3&utm_medium=api_v3_business_search&utm_source=9gNmiWYX8uTbFBeTTvJMdA", "review_count": 99, "categories": [{"alias": "chinese", "title": "Chinese"}], "rating": 3.5, "coordinates": {"latitude": 40.777674, "longitude": -73.908463}, "transactions": ["pickup", "delivery"], "price": "$", "location": {"address1": "21-05 31st St", "address2": "", "address3": "", "city": "Astoria", "zip_code": "11105", "country": "US", "state": "NY", "display_address": ["21-05 31st St", "Astoria, NY 11105"]}, "phone": "+17189563677", "display_phone": "(718) 956-3677", "distance": 5542.268996044169}, {"id": "UeaA5kaaqC8sdCuPqZujmg", "alias": "shoo-loong-kan-flushing", "name": "Shoo Loong Kan", "image_url": "https://s3-media4.fl.yelpcdn.com/bphoto/wWhmjSO4saqru0iuDv5cFA/o.jpg", "is_closed": false, "url": "https://www.yelp.com/biz/shoo-loong-kan-flushing?adjust_creative=9gNmiWYX8uTbFBeTTvJMdA&utm_campaign=yelp_api_v3&utm_medium=api_v3_business_search&utm_source=9gNmiWYX8uTbFBeTTvJMdA", "review_count": 85, "categories": [{"alias": "hotpot", "title": "Hot Pot"}, {"alias": "szechuan", "title": "Szechuan"}], "rating": 4.5, "coordinates": {"latitude": 40.760404, "longitude": -73.833627}, "transactions": [], "price": "$$$", "location": {"address1": "133-36 37th Ave", "address2": "", "address3": null, "city": "Flushing", "zip_code": "11354", "country": "US", "state": "NY", "display_address": ["133-36 37th Ave", "Flushing, NY 11354"]}, "phone": "+17189579886", "display_phone": "(718) 957-9886", "distance": 11461.289117240247}, {"id": "6LfskUyZzmcDSV6h5kOwGw", "alias": "peking-duck-house-new-york", "name": "Peking Duck House", "image_url": "https://s3-media2.fl.yelpcdn.com/bphoto/W5Jju_46CyhWxXfF8PB4MQ/o.jpg", "is_closed": false, "url": "https://www.yelp.com/biz/peking-duck-house-new-york?adjust_creative=9gNmiWYX8uTbFBeTTvJMdA&utm_campaign=yelp_api_v3&utm_medium=api_v3_business_search&utm_source=9gNmiWYX8uTbFBeTTvJMdA", "review_count": 959, "categories": [{"alias": "chinese", "title": "Chinese"}], "rating": 3.0, "coordinates": {"latitude": 40.71461, "longitude": -73.99871}, "transactions": ["pickup", "delivery"], "price": "$$$", "location": {"address1": "28 Mott St", "address2": "Ste A", "address3": "", "city": "New York", "zip_code": "10013", "country": "US", "state": "NY", "display_address": ["28 Mott St", "Ste A", "New York, NY 10013"]}, "phone": "+12122271810", "display_phone": "(212) 227-1810", "distance": 5524.871746072747}, {"id": "fNaLjoYBnUfO5LooVNGiZw", "alias": "chu-restaurant-new-york", "name": "Chu Restaurant", "image_url": "https://s3-media4.fl.yelpcdn.com/bphoto/g3c1WhwhNih5ypcNEHywtA/o.jpg", "is_closed": false, "url": "https://www.yelp.com/biz/chu-restaurant-new-york?adjust_creative=9gNmiWYX8uTbFBeTTvJMdA&utm_campaign=yelp_api_v3&utm_medium=api_v3_business_search&utm_source=9gNmiWYX8uTbFBeTTvJMdA", "review_count": 13, "categories": [{"alias": "chinese", "title": "Chinese"}], "rating": 5.0, "coordinates": {"latitude": 40.74513366819956, "longitude": -73.92156046085624}, "transactions": ["pickup", "delivery"], "location": {"address1": "42-18 43rd Ave", "address2": null, "address3": "", "city": "New York", "zip_code": "11104", "country": "US", "state": "NY", "display_address": ["42-18 43rd Ave", "New York, NY 11104"]}, "phone": "+17189122126", "display_phone": "(718) 912-2126", "distance": 4335.294241531027}, {"id": "8ceGPxcSMdwa8k7y-DLZxA", "alias": "sweet-yummy-house-elmhurst", "name": "Sweet Yummy House", "image_url": "https://s3-media2.fl.yelpcdn.com/bphoto/A2FdgwvPl7lOA9z1iQgw6w/o.jpg", "is_closed": false, "url": "https://www.yelp.com/biz/sweet-yummy-house-elmhurst?adjust_creative=9gNmiWYX8uTbFBeTTvJMdA&utm_campaign=yelp_api_v3&utm_medium=api_v3_business_search&utm_source=9gNmiWYX8uTbFBeTTvJMdA", "review_count": 80, "categories": [{"alias": "chinese", "title": "Chinese"}], "rating": 3.5, "coordinates": {"latitude": 40.74095, "longitude": -73.87938}, "transactions": [], "price": "$$", "location": {"address1": "83-13 Broadway", "address2": "", "address3": "", "city": "Elmhurst", "zip_code": "11373", "country": "US", "state": "NY", "display_address": ["83-13 Broadway", "Elmhurst, NY 11373"]}, "phone": "+17188786603", "display_phone": "(718) 878-6603", "distance": 7860.003082371473}, {"id": "5KDfEi17KRFD1TrzZyT4lQ", "alias": "profit-chinese-restaurant-ii-new-york", "name": "Profit Chinese Restaurant II", "image_url": "https://s3-media1.fl.yelpcdn.com/bphoto/j9kvd2sZxh15q8EEaRftdw/o.jpg", "is_closed": false, "url": "https://www.yelp.com/biz/profit-chinese-restaurant-ii-new-york?adjust_creative=9gNmiWYX8uTbFBeTTvJMdA&utm_campaign=yelp_api_v3&utm_medium=api_v3_business_search&utm_source=9gNmiWYX8uTbFBeTTvJMdA", "review_count": 44, "categories": [{"alias": "chinese", "title": "Chinese"}, {"alias": "seafood", "title": "Seafood"}, {"alias": "soup", "title": "Soup"}], "rating": 3.0, "coordinates": {"latitude": 40.74565, "longitude": -73.9755799}, "transactions": ["pickup", "delivery"], "price": "$", "location": {"address1": "643 2nd Ave", "address2": "", "address3": null, "city": "New York", "zip_code": "10016", "country": "US", "state": "NY", "display_address": ["643 2nd Ave", "New York, NY 10016"]}, "phone": "+12126898388", "display_phone": "(212) 689-8388", "distance": 1586.4800186478205}, {"id": "IregrqaJgF9jEghC5yljFw", "alias": "new-dynasty-chinese-restaurant-new-york", "name": "New Dynasty Chinese Restaurant", "image_url": "https://s3-media2.fl.yelpcdn.com/bphoto/VD7DovEd0I-5b2rBUr501Q/o.jpg", "is_closed": false, "url": "https://www.yelp.com/biz/new-dynasty-chinese-restaurant-new-york?adjust_creative=9gNmiWYX8uTbFBeTTvJMdA&utm_campaign=yelp_api_v3&utm_medium=api_v3_business_search&utm_source=9gNmiWYX8uTbFBeTTvJMdA", "review_count": 36, "categories": [{"alias": "chinese", "title": "Chinese"}], "rating": 3.0, "coordinates": {"latitude": 40.749512, "longitude": -73.995766}, "transactions": ["delivery"], "price": "$", "location": {"address1": "393 8th Ave", "address2": "", "address3": "", "city": "New York", "zip_code": "10001", "country": "US", "state": "NY", "display_address": ["393 8th Ave", "New York, NY 10001"]}, "phone": "+12125949734", "display_phone": "(212) 594-9734", "distance": 2454.098643829792}, {"id": "5sG_S51rleFhCKLgQpXc_g", "alias": "new-sunny-east-88-new-york", "name": "New Sunny East 88", "image_url": "https://s3-media2.fl.yelpcdn.com/bphoto/KcY-SN4cVC40FLbOLmgKmw/o.jpg", "is_closed": false, "url": "https://www.yelp.com/biz/new-sunny-east-88-new-york?adjust_creative=9gNmiWYX8uTbFBeTTvJMdA&utm_campaign=yelp_api_v3&utm_medium=api_v3_business_search&utm_source=9gNmiWYX8uTbFBeTTvJMdA", "review_count": 81, "categories": [{"alias": "chinese", "title": "Chinese"}], "rating": 3.5, "coordinates": {"latitude": 40.777902, "longitude": -73.94825}, "transactions": ["pickup", "delivery"], "price": "$", "location": {"address1": "1680 1st Ave", "address2": "", "address3": "", "city": "New York", "zip_code": "10128", "country": "US", "state": "NY", "display_address": ["1680 1st Ave", "New York, NY 10128"]}, "phone": "+12128769332", "display_phone": "(212) 876-9332", "distance": 2749.7449704069318}, {"id": "ru9KtvY8f_b2SKrKwtS3CA", "alias": "lo-fatt-chow-hoboken", "name": "Lo-Fatt-Chow", "image_url": "https://s3-media4.fl.yelpcdn.com/bphoto/mW3R0P-L87FqVKkIK5KbtQ/o.jpg", "is_closed": false, "url": "https://www.yelp.com/biz/lo-fatt-chow-hoboken?adjust_creative=9gNmiWYX8uTbFBeTTvJMdA&utm_campaign=yelp_api_v3&utm_medium=api_v3_business_search&utm_source=9gNmiWYX8uTbFBeTTvJMdA", "review_count": 154, "categories": [{"alias": "chinese", "title": "Chinese"}], "rating": 3.5, "coordinates": {"latitude": 40.7474615723213, "longitude": -74.0378006521148}, "transactions": [], "price": "$", "location": {"address1": "720 Monroe St C-103", "address2": "", "address3": "(Monroe & 8th St)", "city": "Hoboken", "zip_code": "07030", "country": "US", "state": "NJ", "display_address": ["720 Monroe St C-103", "(Monroe & 8th St)", "Hoboken, NJ 07030"]}, "phone": "+12017985050", "display_phone": "(201) 798-5050", "distance": 5892.682535602999}, {"id": "h4co9O0SLuvhTtr_Cs9IIQ", "alias": "new-kam-lai-new-york", "name": "New Kam Lai", "image_url": "https://s3-media2.fl.yelpcdn.com/bphoto/zENTm2rD4be66jkevWhwLw/o.jpg", "is_closed": false, "url": "https://www.yelp.com/biz/new-kam-lai-new-york?adjust_creative=9gNmiWYX8uTbFBeTTvJMdA&utm_campaign=yelp_api_v3&utm_medium=api_v3_business_search&utm_source=9gNmiWYX8uTbFBeTTvJMdA", "review_count": 51, "categories": [{"alias": "chinese", "title": "Chinese"}], "rating": 3.5, "coordinates": {"latitude": 40.7988096, "longitude": -73.96714639885978}, "transactions": ["pickup", "delivery"], "price": "$", "location": {"address1": "708 Amsterdam Ave", "address2": null, "address3": null, "city": "New York", "zip_code": "10025", "country": "US", "state": "NY", "display_address": ["708 Amsterdam Ave", "New York, NY 10025"]}, "phone": "+12127498990", "display_phone": "(212) 749-8990", "distance": 4411.931719630882}, {"id": "owKe1hapqCCLnme2Xr3mrA", "alias": "spice-noodle-new-york-3", "name": "Spice Noodle", "image_url": "https://s3-media2.fl.yelpcdn.com/bphoto/gFYkx41cu6Vmz88tTIAeaA/o.jpg", "is_closed": false, "url": "https://www.yelp.com/biz/spice-noodle-new-york-3?adjust_creative=9gNmiWYX8uTbFBeTTvJMdA&utm_campaign=yelp_api_v3&utm_medium=api_v3_business_search&utm_source=9gNmiWYX8uTbFBeTTvJMdA", "review_count": 66, "categories": [{"alias": "vietnamese", "title": "Vietnamese"}, {"alias": "chinese", "title": "Chinese"}], "rating": 3.0, "coordinates": {"latitude": 40.786726, "longitude": -73.949952}, "transactions": ["pickup", "delivery"], "price": "$", "location": {"address1": "1509 Lexington Ave", "address2": null, "address3": null, "city": "New York", "zip_code": "10029", "country": "US", "state": "NY", "display_address": ["1509 Lexington Ave", "New York, NY 10029"]}, "phone": "+12123695019", "display_phone": "(212) 369-5019", "distance": 3480.7474395789704}, {"id": "cOtB9fWWLrbaBebZDjJquQ", "alias": "dunhuang-miss-noodles-brooklyn", "name": "DunHuang Miss Noodles", "image_url": "https://s3-media4.fl.yelpcdn.com/bphoto/RrlOuwLfm1pi5oqXk6CN4Q/o.jpg", "is_closed": false, "url": "https://www.yelp.com/biz/dunhuang-miss-noodles-brooklyn?adjust_creative=9gNmiWYX8uTbFBeTTvJMdA&utm_campaign=yelp_api_v3&utm_medium=api_v3_business_search&utm_source=9gNmiWYX8uTbFBeTTvJMdA", "review_count": 85, "categories": [{"alias": "chinese", "title": "Chinese"}, {"alias": "noodles", "title": "Noodles"}, {"alias": "asianfusion", "title": "Asian Fusion"}], "rating": 4.0, "coordinates": {"latitude": 40.693868137768895, "longitude": -73.9634565145772}, "transactions": ["pickup", "delivery"], "location": {"address1": "531 Myrtle Ave", "address2": null, "address3": "", "city": "Brooklyn", "zip_code": "11205", "country": "US", "state": "NY", "display_address": ["531 Myrtle Ave", "Brooklyn, NY 11205"]}, "phone": "+17187893530", "display_phone": "(718) 789-3530", "distance": 7280.025308190042}, {"id": "sb1_MyLHzmjV1Jk21pyOIA", "alias": "sao-mai-new-york", "name": "Sao Mai", "image_url": "https://s3-media3.fl.yelpcdn.com/bphoto/qiIccrFY95xYU87YHtVjSg/o.jpg", "is_closed": false, "url": "https://www.yelp.com/biz/sao-mai-new-york?adjust_creative=9gNmiWYX8uTbFBeTTvJMdA&utm_campaign=yelp_api_v3&utm_medium=api_v3_business_search&utm_source=9gNmiWYX8uTbFBeTTvJMdA", "review_count": 641, "categories": [{"alias": "vietnamese", "title": "Vietnamese"}, {"alias": "noodles", "title": "Noodles"}, {"alias": "soup", "title": "Soup"}], "rating": 4.0, "coordinates": {"latitude": 40.730362, "longitude": -73.98362}, "transactions": ["pickup", "delivery"], "price": "$$", "location": {"address1": "203 1st Ave", "address2": "", "address3": "", "city": "New York", "zip_code": "10003", "country": "US", "state": "NY", "display_address": ["203 1st Ave", "New York, NY 10003"]}, "phone": "+12123588880", "display_phone": "(212) 358-8880", "distance": 3413.3703371354854}, {"id": "dSaMEWm0EQTG4TOeUetU5w", "alias": "jian-bing-man-new-york", "name": "Jian Bing Man", "image_url": "https://s3-media4.fl.yelpcdn.com/bphoto/ZrksyBOTT8jf94nVU1fLNg/o.jpg", "is_closed": false, "url": "https://www.yelp.com/biz/jian-bing-man-new-york?adjust_creative=9gNmiWYX8uTbFBeTTvJMdA&utm_campaign=yelp_api_v3&utm_medium=api_v3_business_search&utm_source=9gNmiWYX8uTbFBeTTvJMdA", "review_count": 176, "categories": [{"alias": "chinese", "title": "Chinese"}, {"alias": "creperies", "title": "Creperies"}], "rating": 3.0, "coordinates": {"latitude": 40.74761, "longitude": -73.98631}, "transactions": ["pickup", "delivery"], "price": "$$", "location": {"address1": "11 W 32nd St", "address2": "", "address3": "Booth 3", "city": "New York", "zip_code": "10001", "country": "US", "state": "NY", "display_address": ["11 W 32nd St", "Booth 3", "New York, NY 10001"]}, "phone": "+12126951388", "display_phone": "(212) 695-1388", "distance": 1891.5317102914698}, {"id": "U0SmczzYhahOeRxftjBPSg", "alias": "chef-28-new-york-2", "name": "Chef 28", "image_url": "https://s3-media1.fl.yelpcdn.com/bphoto/aMtjwGRRlAIJ0nAzAeiHSQ/o.jpg", "is_closed": false, "url": "https://www.yelp.com/biz/chef-28-new-york-2?adjust_creative=9gNmiWYX8uTbFBeTTvJMdA&utm_campaign=yelp_api_v3&utm_medium=api_v3_business_search&utm_source=9gNmiWYX8uTbFBeTTvJMdA", "review_count": 184, "categories": [{"alias": "chinese", "title": "Chinese"}, {"alias": "japanese", "title": "Japanese"}, {"alias": "seafood", "title": "Seafood"}], "rating": 3.5, "coordinates": {"latitude": 40.74393, "longitude": -73.98493}, "transactions": ["pickup", "delivery"], "price": "$$", "location": {"address1": "29 E 28th St", "address2": "", "address3": "", "city": "New York", "zip_code": "10016", "country": "US", "state": "NY", "display_address": ["29 E 28th St", "New York, NY 10016"]}, "phone": "+12126858871", "display_phone": "(212) 685-8871", "distance": 2136.9051613205756}, {"id": "3Qpi419I29t3sCHMzC_h-g", "alias": "harvest-chinese-and-thai-cuisine-new-york", "name": "Harvest Chinese & Thai Cuisine", "image_url": "https://s3-media3.fl.yelpcdn.com/bphoto/bVXHoSFdZ8kMnGMmgk9tIQ/o.jpg", "is_closed": false, "url": "https://www.yelp.com/biz/harvest-chinese-and-thai-cuisine-new-york?adjust_creative=9gNmiWYX8uTbFBeTTvJMdA&utm_campaign=yelp_api_v3&utm_medium=api_v3_business_search&utm_source=9gNmiWYX8uTbFBeTTvJMdA", "review_count": 110, "categories": [{"alias": "thai", "title": "Thai"}, {"alias": "chinese", "title": "Chinese"}], "rating": 3.5, "coordinates": {"latitude": 40.7718201, "longitude": -73.9526672}, "transactions": ["pickup", "delivery"], "price": "$$", "location": {"address1": "1502 1st Ave", "address2": "", "address3": "", "city": "New York", "zip_code": "10075", "country": "US", "state": "NY", "display_address": ["1502 1st Ave", "New York, NY 10075"]}, "phone": "+12129882268", "display_phone": "(212) 988-2268", "distance": 1999.6924009312675}, {"id": "GCcJqfBm3Fq-ccYwit6xcw", "alias": "asian-taste-new-york-2", "name": "Asian Taste", "image_url": "https://s3-media1.fl.yelpcdn.com/bphoto/2AqcnPlBakGU67yQp3DL4w/o.jpg", "is_closed": false, "url": "https://www.yelp.com/biz/asian-taste-new-york-2?adjust_creative=9gNmiWYX8uTbFBeTTvJMdA&utm_campaign=yelp_api_v3&utm_medium=api_v3_business_search&utm_source=9gNmiWYX8uTbFBeTTvJMdA", "review_count": 27, "categories": [{"alias": "chinese", "title": "Chinese"}], "rating": 4.0, "coordinates": {"latitude": 40.7228795731505, "longitude": -73.9829911834261}, "transactions": ["pickup", "delivery"], "location": {"address1": "199 E 3rd St", "address2": "", "address3": null, "city": "New York", "zip_code": "10009", "country": "US", "state": "NY", "display_address": ["199 E 3rd St", "New York, NY 10009"]}, "phone": "+16465969595", "display_phone": "(646) 596-9595", "distance": 4191.144019233365}, {"id": "DtkyPDGAodq5bAesiFa-JQ", "alias": "amaze-58-asian-fusion-new-york", "name": "Amaze 58 Asian Fusion", "image_url": "https://s3-media3.fl.yelpcdn.com/bphoto/Z1hGzHC9SkF_q5qkDvbYtw/o.jpg", "is_closed": false, "url": "https://www.yelp.com/biz/amaze-58-asian-fusion-new-york?adjust_creative=9gNmiWYX8uTbFBeTTvJMdA&utm_campaign=yelp_api_v3&utm_medium=api_v3_business_search&utm_source=9gNmiWYX8uTbFBeTTvJMdA", "review_count": 114, "categories": [{"alias": "asianfusion", "title": "Asian Fusion"}, {"alias": "sushi", "title": "Sushi Bars"}, {"alias": "seafood", "title": "Seafood"}], "rating": 3.5, "coordinates": {"latitude": 40.7590052, "longitude": -73.9620854}, "transactions": ["pickup", "delivery"], "price": "$$", "location": {"address1": "1066 1st Ave", "address2": "", "address3": "", "city": "New York", "zip_code": "10022", "country": "US", "state": "NY", "display_address": ["1066 1st Ave", "New York, NY 10022"]}, "phone": "+12126888808", "display_phone": "(212) 688-8808", "distance": 631.012544233903}, {"id": "8ObY1IkKWvx99nIOqRBshA", "alias": "chi-dumpling-and-noodle-new-york", "name": "Chi Dumpling & Noodle", "image_url": "https://s3-media4.fl.yelpcdn.com/bphoto/4WcFKYeEq1G-pvrrE4t4pA/o.jpg", "is_closed": false, "url": "https://www.yelp.com/biz/chi-dumpling-and-noodle-new-york?adjust_creative=9gNmiWYX8uTbFBeTTvJMdA&utm_campaign=yelp_api_v3&utm_medium=api_v3_business_search&utm_source=9gNmiWYX8uTbFBeTTvJMdA", "review_count": 46, "categories": [{"alias": "noodles", "title": "Noodles"}], "rating": 2.0, "coordinates": {"latitude": 40.764227506361664, "longitude": -73.97427562766836}, "transactions": [], "price": "$$", "location": {"address1": "1 W 59th St", "address2": "", "address3": "", "city": "New York", "zip_code": "10019", "country": "US", "state": "NY", "display_address": ["1 W 59th St", "New York, NY 10019"]}, "phone": "+12129869260", "display_phone": "(212) 986-9260", "distance": 687.3673675085633}, {"id": "Ug2_5DOrlfaU1Pce5Lvikw", "alias": "garden-shabu-and-grill-little-ferry-4", "name": "Garden Shabu & Grill", "image_url": "https://s3-media4.fl.yelpcdn.com/bphoto/QJdM-bRJMcNvWAzdOfYVug/o.jpg", "is_closed": false, "url": "https://www.yelp.com/biz/garden-shabu-and-grill-little-ferry-4?adjust_creative=9gNmiWYX8uTbFBeTTvJMdA&utm_campaign=yelp_api_v3&utm_medium=api_v3_business_search&utm_source=9gNmiWYX8uTbFBeTTvJMdA", "review_count": 248, "categories": [{"alias": "hotpot", "title": "Hot Pot"}, {"alias": "seafood", "title": "Seafood"}, {"alias": "steak", "title": "Steakhouses"}], "rating": 4.0, "coordinates": {"latitude": 40.854026, "longitude": -74.033212}, "transactions": [], "price": "$$", "location": {"address1": "1 Valley Rd", "address2": "", "address3": null, "city": "Little Ferry", "zip_code": "07643", "country": "US", "state": "NJ", "display_address": ["1 Valley Rd", "Little Ferry, NJ 07643"]}, "phone": "+12018706177", "display_phone": "(201) 870-6177", "distance": 11829.061381615604}, {"id": "_EgBjtufCZIWwUkRn53OAA", "alias": "alley-41-flushing-3", "name": "Alley 41", "image_url": "https://s3-media2.fl.yelpcdn.com/bphoto/Zv-7OIDX5BmtFNPv1O2JVA/o.jpg", "is_closed": false, "url": "https://www.yelp.com/biz/alley-41-flushing-3?adjust_creative=9gNmiWYX8uTbFBeTTvJMdA&utm_campaign=yelp_api_v3&utm_medium=api_v3_business_search&utm_source=9gNmiWYX8uTbFBeTTvJMdA", "review_count": 230, "categories": [{"alias": "asianfusion", "title": "Asian Fusion"}, {"alias": "szechuan", "title": "Szechuan"}], "rating": 4.0, "coordinates": {"latitude": 40.75902495400541, "longitude": -73.82798221349337}, "transactions": ["pickup", "delivery"], "price": "$$", "location": {"address1": "136-45 41st Ave", "address2": "", "address3": null, "city": "Flushing", "zip_code": "11355", "country": "US", "state": "NY", "display_address": ["136-45 41st Ave", "Flushing, NY 11355"]}, "phone": "+17183533608", "display_phone": "(718) 353-3608", "distance": 11925.68409535347}, {"id": "kqJApXkfFn42SZZG7QTc4w", "alias": "go-zen-new-york-3", "name": "Go Zen", "image_url": "https://s3-media3.fl.yelpcdn.com/bphoto/dKqWeeKv3zeuUG2R2gvNHQ/o.jpg", "is_closed": false, "url": "https://www.yelp.com/biz/go-zen-new-york-3?adjust_creative=9gNmiWYX8uTbFBeTTvJMdA&utm_campaign=yelp_api_v3&utm_medium=api_v3_business_search&utm_source=9gNmiWYX8uTbFBeTTvJMdA", "review_count": 598, "categories": [{"alias": "vegan", "title": "Vegan"}, {"alias": "asianfusion", "title": "Asian Fusion"}, {"alias": "kosher", "title": "Kosher"}], "rating": 4.0, "coordinates": {"latitude": 40.7313398845326, "longitude": -74.0005102638063}, "transactions": ["pickup", "delivery"], "price": "$$", "location": {"address1": "144 W 4th St", "address2": "", "address3": "", "city": "New York", "zip_code": "10012", "country": "US", "state": "NY", "display_address": ["144 W 4th St", "New York, NY 10012"]}, "phone": "+12122607130", "display_phone": "(212) 260-7130", "distance": 4046.197533768502}, {"id": "A0saPXtRGKl-SVJGQyQAOw", "alias": "brooklyn-chop-house-new-york-3", "name": "Brooklyn Chop House", "image_url": "https://s3-media4.fl.yelpcdn.com/bphoto/A1vFyBJuw-WKn-FolA71iQ/o.jpg", "is_closed": false, "url": "https://www.yelp.com/biz/brooklyn-chop-house-new-york-3?adjust_creative=9gNmiWYX8uTbFBeTTvJMdA&utm_campaign=yelp_api_v3&utm_medium=api_v3_business_search&utm_source=9gNmiWYX8uTbFBeTTvJMdA", "review_count": 903, "categories": [{"alias": "dimsum", "title": "Dim Sum"}, {"alias": "steak", "title": "Steakhouses"}, {"alias": "asianfusion", "title": "Asian Fusion"}], "rating": 4.0, "coordinates": {"latitude": 40.71151, "longitude": -74.00597}, "transactions": ["pickup", "restaurant_reservation", "delivery"], "price": "$$$", "location": {"address1": "150 Nassau St", "address2": null, "address3": "", "city": "New York", "zip_code": "10038", "country": "US", "state": "NY", "display_address": ["150 Nassau St", "New York, NY 10038"]}, "phone": "+12126191200", "display_phone": "(212) 619-1200", "distance": 6126.640646095922}, {"id": "dv-RaOwKFizDe4c5-sVJ5w", "alias": "peking-bbq-woodside", "name": "Peking BBQ", "image_url": "https://s3-media4.fl.yelpcdn.com/bphoto/tWdhRwgGklGq5rdX69MGuw/o.jpg", "is_closed": false, "url": "https://www.yelp.com/biz/peking-bbq-woodside?adjust_creative=9gNmiWYX8uTbFBeTTvJMdA&utm_campaign=yelp_api_v3&utm_medium=api_v3_business_search&utm_source=9gNmiWYX8uTbFBeTTvJMdA", "review_count": 288, "categories": [{"alias": "chinese", "title": "Chinese"}, {"alias": "peruvian", "title": "Peruvian"}, {"alias": "bbq", "title": "Barbeque"}], "rating": 4.0, "coordinates": {"latitude": 40.7457277, "longitude": -73.9062112}, "transactions": ["delivery"], "price": "$", "location": {"address1": "58-11 Woodside Ave", "address2": "", "address3": "", "city": "Woodside", "zip_code": "11377", "country": "US", "state": "NY", "display_address": ["58-11 Woodside Ave", "Woodside, NY 11377"]}, "phone": "+17186721414", "display_phone": "(718) 672-1414", "distance": 5575.084918174234}, {"id": "bAMTBEztHz4zQqYiIyzf4w", "alias": "chongqing-lao-zao-flushing-2", "name": "ChongQing Lao Zao", "image_url": "https://s3-media1.fl.yelpcdn.com/bphoto/8E0Y8Hw7IzNaiwB28jB9pQ/o.jpg", "is_closed": false, "url": "https://www.yelp.com/biz/chongqing-lao-zao-flushing-2?adjust_creative=9gNmiWYX8uTbFBeTTvJMdA&utm_campaign=yelp_api_v3&utm_medium=api_v3_business_search&utm_source=9gNmiWYX8uTbFBeTTvJMdA", "review_count": 251, "categories": [{"alias": "hotpot", "title": "Hot Pot"}, {"alias": "chinese", "title": "Chinese"}], "rating": 4.5, "coordinates": {"latitude": 40.76065, "longitude": -73.83304}, "transactions": ["delivery"], "price": "$$$", "location": {"address1": "37-04 Prince St", "address2": null, "address3": "", "city": "Flushing", "zip_code": "11354", "country": "US", "state": "NY", "display_address": ["37-04 Prince St", "Flushing, NY 11354"]}, "phone": "+19175637171", "display_phone": "(917) 563-7171", "distance": 11502.131699958827}, {"id": "vsFGj_fQkrTmEoLaXU3DCA", "alias": "happy-family-new-york-7", "name": "Happy Family", "image_url": "https://s3-media1.fl.yelpcdn.com/bphoto/-0d0nojqN_nfLCpYl7pgag/o.jpg", "is_closed": false, "url": "https://www.yelp.com/biz/happy-family-new-york-7?adjust_creative=9gNmiWYX8uTbFBeTTvJMdA&utm_campaign=yelp_api_v3&utm_medium=api_v3_business_search&utm_source=9gNmiWYX8uTbFBeTTvJMdA", "review_count": 4, "categories": [{"alias": "chinese", "title": "Chinese"}, {"alias": "seafood", "title": "Seafood"}], "rating": 3.0, "coordinates": {"latitude": 40.760041, "longitude": -73.995479}, "transactions": [], "location": {"address1": "500 West 43 St", "address2": null, "address3": "", "city": "New York", "zip_code": "10036", "country": "US", "state": "NY", "display_address": ["500 West 43 St", "New York, NY 10036"]}, "phone": "+12126956035", "display_phone": "(212) 695-6035", "distance": 2181.1854498825996}, {"id": "y8JSKjpWeQg8vzm5wovOwQ", "alias": "the-bund-forest-hills", "name": "The Bund", "image_url": "https://s3-media2.fl.yelpcdn.com/bphoto/3zIWBNfMuEWbRdg6f_HB7A/o.jpg", "is_closed": false, "url": "https://www.yelp.com/biz/the-bund-forest-hills?adjust_creative=9gNmiWYX8uTbFBeTTvJMdA&utm_campaign=yelp_api_v3&utm_medium=api_v3_business_search&utm_source=9gNmiWYX8uTbFBeTTvJMdA", "review_count": 304, "categories": [{"alias": "shanghainese", "title": "Shanghainese"}], "rating": 3.5, "coordinates": {"latitude": 40.7264404960967, "longitude": -73.8532474276788}, "transactions": ["pickup", "delivery"], "price": "$$", "location": {"address1": "100-30 Queens Blvd", "address2": "", "address3": null, "city": "Forest Hills", "zip_code": "11375", "country": "US", "state": "NY", "display_address": ["100-30 Queens Blvd", "Forest Hills, NY 11375"]}, "phone": "+17182758000", "display_phone": "(718) 275-8000", "distance": 10454.208733603982}, {"id": "S-aX_Pz8F7nDL6kRThKcHw", "alias": "vanessas-dumpling-house-brooklyn", "name": "Vanessa's Dumpling House", "image_url": "https://s3-media2.fl.yelpcdn.com/bphoto/S6rzB9o7oIijv57HbCGEBA/o.jpg", "is_closed": false, "url": "https://www.yelp.com/biz/vanessas-dumpling-house-brooklyn?adjust_creative=9gNmiWYX8uTbFBeTTvJMdA&utm_campaign=yelp_api_v3&utm_medium=api_v3_business_search&utm_source=9gNmiWYX8uTbFBeTTvJMdA", "review_count": 586, "categories": [{"alias": "chinese", "title": "Chinese"}], "rating": 3.5, "coordinates": {"latitude": 40.713795, "longitude": -73.961983}, "transactions": ["pickup", "delivery"], "price": "$", "location": {"address1": "310 Bedford Ave", "address2": "", "address3": "", "city": "Brooklyn", "zip_code": "11211", "country": "US", "state": "NY", "display_address": ["310 Bedford Ave", "Brooklyn, NY 11211"]}, "phone": "+17182188809", "display_phone": "(718) 218-8809", "distance": 5086.565784530991}, {"id": "xOL2SC34gdhKHSbyaDz9BA", "alias": "pearls-chinese-restaurant-new-york-2", "name": "Pearls Chinese Restaurant", "image_url": "https://s3-media2.fl.yelpcdn.com/bphoto/g1tF9hwnLW41k5cvSxCTRA/o.jpg", "is_closed": false, "url": "https://www.yelp.com/biz/pearls-chinese-restaurant-new-york-2?adjust_creative=9gNmiWYX8uTbFBeTTvJMdA&utm_campaign=yelp_api_v3&utm_medium=api_v3_business_search&utm_source=9gNmiWYX8uTbFBeTTvJMdA", "review_count": 169, "categories": [{"alias": "chinese", "title": "Chinese"}], "rating": 3.0, "coordinates": {"latitude": 40.7619901, "longitude": -73.9903719}, "transactions": ["pickup", "delivery"], "price": "$$", "location": {"address1": "689 9th Ave", "address2": "", "address3": "", "city": "New York", "zip_code": "10036", "country": "US", "state": "NY", "display_address": ["689 9th Ave", "New York, NY 10036"]}, "phone": "+12127490300", "display_phone": "(212) 749-0300", "distance": 1779.4366079084184}, {"id": "kHlYnhMOoMBbe3VCZflpKQ", "alias": "spy-c-cuisine-forest-hills", "name": "Spy C Cuisine", "image_url": "https://s3-media1.fl.yelpcdn.com/bphoto/Pn1mZ_FWL6KEaLNcux7ykA/o.jpg", "is_closed": false, "url": "https://www.yelp.com/biz/spy-c-cuisine-forest-hills?adjust_creative=9gNmiWYX8uTbFBeTTvJMdA&utm_campaign=yelp_api_v3&utm_medium=api_v3_business_search&utm_source=9gNmiWYX8uTbFBeTTvJMdA", "review_count": 313, "categories": [{"alias": "chinese", "title": "Chinese"}], "rating": 4.0, "coordinates": {"latitude": 40.71903, "longitude": -73.84249}, "transactions": ["pickup", "delivery"], "price": "$$", "location": {"address1": "72-06 Austin", "address2": "", "address3": null, "city": "Forest Hills", "zip_code": "11375", "country": "US", "state": "NY", "display_address": ["72-06 Austin", "Forest Hills, NY 11375"]}, "phone": "+17182630357", "display_phone": "(718) 263-0357", "distance": 11598.915297746496}, {"id": "WgQkB7cbPNgj0pLin7gQtw", "alias": "la-nueva-victoria-new-york", "name": "La Nueva Victoria", "image_url": "https://s3-media2.fl.yelpcdn.com/bphoto/xh4agDkmMggaXRwDbNSX3Q/o.jpg", "is_closed": false, "url": "https://www.yelp.com/biz/la-nueva-victoria-new-york?adjust_creative=9gNmiWYX8uTbFBeTTvJMdA&utm_campaign=yelp_api_v3&utm_medium=api_v3_business_search&utm_source=9gNmiWYX8uTbFBeTTvJMdA", "review_count": 110, "categories": [{"alias": "chinese", "title": "Chinese"}, {"alias": "spanish", "title": "Spanish"}, {"alias": "asianfusion", "title": "Asian Fusion"}], "rating": 3.5, "coordinates": {"latitude": 40.79372, "longitude": -73.971954}, "transactions": ["delivery"], "price": "$$", "location": {"address1": "2536 Broadway", "address2": "", "address3": "", "city": "New York", "zip_code": "10025", "country": "US", "state": "NY", "display_address": ["2536 Broadway", "New York, NY 10025"]}, "phone": "+12128651810", "display_phone": "(212) 865-1810", "distance": 3845.3622269123034}, {"id": "yVDNPV0Yf3vQAsXTJett1g", "alias": "i-fortune-cookie-long-island-city", "name": "i-Fortune Cookie", "image_url": "https://s3-media3.fl.yelpcdn.com/bphoto/LVeHllSVql4CDauiIL5ubg/o.jpg", "is_closed": false, "url": "https://www.yelp.com/biz/i-fortune-cookie-long-island-city?adjust_creative=9gNmiWYX8uTbFBeTTvJMdA&utm_campaign=yelp_api_v3&utm_medium=api_v3_business_search&utm_source=9gNmiWYX8uTbFBeTTvJMdA", "review_count": 70, "categories": [{"alias": "chinese", "title": "Chinese"}], "rating": 3.0, "coordinates": {"latitude": 40.7476578, "longitude": -73.947319}, "transactions": ["pickup", "delivery"], "price": "$", "location": {"address1": "44-69 21st St", "address2": "", "address3": "", "city": "Long Island City", "zip_code": "11101", "country": "US", "state": "NY", "display_address": ["44-69 21st St", "Long Island City, NY 11101"]}, "phone": "+17187864821", "display_phone": "(718) 786-4821", "distance": 2268.5837098814304}, {"id": "lGLeaVcg7U4tOfJFhVqGng", "alias": "sky-cafe-elmhurst", "name": "Sky Cafe", "image_url": "https://s3-media1.fl.yelpcdn.com/bphoto/ULC7-9VQpg8Sct7SZMxeTQ/o.jpg", "is_closed": false, "url": "https://www.yelp.com/biz/sky-cafe-elmhurst?adjust_creative=9gNmiWYX8uTbFBeTTvJMdA&utm_campaign=yelp_api_v3&utm_medium=api_v3_business_search&utm_source=9gNmiWYX8uTbFBeTTvJMdA", "review_count": 141, "categories": [{"alias": "indonesian", "title": "Indonesian"}, {"alias": "noodles", "title": "Noodles"}, {"alias": "soup", "title": "Soup"}], "rating": 4.5, "coordinates": {"latitude": 40.7419, "longitude": -73.87838}, "transactions": ["pickup", "delivery"], "price": "$$", "location": {"address1": "8620 Whitney Ave", "address2": "", "address3": "", "city": "Elmhurst", "zip_code": "11373", "country": "US", "state": "NY", "display_address": ["8620 Whitney Ave", "Elmhurst, NY 11373"]}, "phone": "+17186519759", "display_phone": "(718) 651-9759", "distance": 7915.596198565445}, {"id": "k4QfaFoqtpEZ1LZylJZqww", "alias": "jj-s-asian-fusion-astoria", "name": "Jj S Asian Fusion", "image_url": "https://s3-media2.fl.yelpcdn.com/bphoto/SiLLSMuwWwUyJ9i3mIRXgg/o.jpg", "is_closed": false, "url": "https://www.yelp.com/biz/jj-s-asian-fusion-astoria?adjust_creative=9gNmiWYX8uTbFBeTTvJMdA&utm_campaign=yelp_api_v3&utm_medium=api_v3_business_search&utm_source=9gNmiWYX8uTbFBeTTvJMdA", "review_count": 457, "categories": [{"alias": "sushi", "title": "Sushi Bars"}, {"alias": "japanese", "title": "Japanese"}, {"alias": "asianfusion", "title": "Asian Fusion"}], "rating": 4.0, "coordinates": {"latitude": 40.762159665773424, "longitude": -73.9182777002017}, "transactions": ["pickup", "delivery"], "price": "$$", "location": {"address1": "37-05 31 Ave Flr Grd", "address2": "FLR GRD", "address3": "", "city": "Astoria", "zip_code": "11103", "country": "US", "state": "NY", "display_address": ["37-05 31 Ave Flr Grd", "FLR GRD", "Astoria, NY 11103"]}, "phone": "+17186268888", "display_phone": "(718) 626-8888", "distance": 4333.096596372507}, {"id": "Ex_qolTE5syJ8so0NscfGw", "alias": "king-wah-astoria", "name": "King Wah", "image_url": "https://s3-media1.fl.yelpcdn.com/bphoto/Y1TdlZh9jFBFUz2CUGa2kQ/o.jpg", "is_closed": false, "url": "https://www.yelp.com/biz/king-wah-astoria?adjust_creative=9gNmiWYX8uTbFBeTTvJMdA&utm_campaign=yelp_api_v3&utm_medium=api_v3_business_search&utm_source=9gNmiWYX8uTbFBeTTvJMdA", "review_count": 51, "categories": [{"alias": "chinese", "title": "Chinese"}], "rating": 3.5, "coordinates": {"latitude": 40.7719699594225, "longitude": -73.9257651953376}, "transactions": ["pickup", "delivery"], "price": "$", "location": {"address1": "21-04 Newtown Ave", "address2": "", "address3": "", "city": "Astoria", "zip_code": "11102", "country": "US", "state": "NY", "display_address": ["21-04 Newtown Ave", "Astoria, NY 11102"]}, "phone": "+17185457000", "display_phone": "(718) 545-7000", "distance": 3954.2937558970284}, {"id": "TedFbN-fnKfoljL-uQQwIw", "alias": "aj-shanghai-restaurant-lyndhurst", "name": "AJ Shanghai Restaurant", "image_url": "https://s3-media2.fl.yelpcdn.com/bphoto/UKeuhvGqbq1j_ctn4fGNhw/o.jpg", "is_closed": false, "url": "https://www.yelp.com/biz/aj-shanghai-restaurant-lyndhurst?adjust_creative=9gNmiWYX8uTbFBeTTvJMdA&utm_campaign=yelp_api_v3&utm_medium=api_v3_business_search&utm_source=9gNmiWYX8uTbFBeTTvJMdA", "review_count": 82, "categories": [{"alias": "shanghainese", "title": "Shanghainese"}, {"alias": "dimsum", "title": "Dim Sum"}], "rating": 3.5, "coordinates": {"latitude": 40.80569, "longitude": -74.13536}, "transactions": ["pickup", "delivery"], "price": "$$", "location": {"address1": "775 Riverside Ave", "address2": null, "address3": "", "city": "Lyndhurst", "zip_code": "07071", "country": "US", "state": "NJ", "display_address": ["775 Riverside Ave", "Lyndhurst, NJ 07071"]}, "phone": "+12018853438", "display_phone": "(201) 885-3438", "distance": 14881.625095084117}], "total": 3300, "region": {"center": {"longitude": -73.96957397460938, "latitude": 40.75917470627005}}}