{"businesses": [{"id": "zEIt0xaPM9DIS-pc118O6A", "alias": "hometown-hotpot-and-bbq-new-york-2", "name": "Hometown Hotpot & BBQ", "image_url": "https://s3-media2.fl.yelpcdn.com/bphoto/B7p-cZUcJasqgM36BVes-w/o.jpg", "is_closed": false, "url": "https://www.yelp.com/biz/hometown-hotpot-and-bbq-new-york-2?adjust_creative=9gNmiWYX8uTbFBeTTvJMdA&utm_campaign=yelp_api_v3&utm_medium=api_v3_business_search&utm_source=9gNmiWYX8uTbFBeTTvJMdA", "review_count": 1448, "categories": [{"alias": "hotpot", "title": "Hot Pot"}, {"alias": "bbq", "title": "Barbeque"}], "rating": 4.0, "coordinates": {"latitude": 40.71931, "longitude": -73.99689}, "transactions": ["delivery"], "price": "$$$", "location": {"address1": "194 Grand St", "address2": "", "address3": "", "city": "New York", "zip_code": "10013", "country": "US", "state": "NY", "display_address": ["194 Grand St", "New York, NY 10013"]}, "phone": "+12122198833", "display_phone": "(212) 219-8833", "distance": 4992.813758856177}, {"id": "MOVU97uI95urhDH5gM5nQw", "alias": "aja-dumplings-queens", "name": "AJA Dumplings", "image_url": "https://s3-media2.fl.yelpcdn.com/bphoto/uAaoumegxlRhR9qfLD6tVA/o.jpg", "is_closed": false, "url": "https://www.yelp.com/biz/aja-dumplings-queens?adjust_creative=9gNmiWYX8uTbFBeTTvJMdA&utm_campaign=yelp_api_v3&utm_medium=api_v3_business_search&utm_source=9gNmiWYX8uTbFBeTTvJMdA", "review_count": 9, "categories": [{"alias": "dimsum", "title": "Dim Sum"}], "rating": 5.0, "coordinates": {"latitude": 40.74237799308303, "longitude": -73.95265309999999}, "transactions": ["pickup", "delivery"], "location": {"address1": "1050 Jackson Ave", "address2": null, "address3": "", "city": "Queens", "zip_code": "11101", "country": "US", "state": "NY", "display_address": ["1050 Jackson Ave", "Queens, NY 11101"]}, "phone": "+17187363065", "display_phone": "(718) 736-3065", "distance": 2349.459180898578}, {"id": "Qi1AoRNcFEX8etII_RZkFg", "alias": "ajisai-japanese-fusion-new-york", "name": "Ajisai Japanese Fusion", "image_url": "https://s3-media1.fl.yelpcdn.com/bphoto/4IwXQ1qgFCLty6IlyvCP_w/o.jpg", "is_closed": false, "url": "https://www.yelp.com/biz/ajisai-japanese-fusion-new-york?adjust_creative=9gNmiWYX8uTbFBeTTvJMdA&utm_campaign=yelp_api_v3&utm_medium=api_v3_business_search&utm_source=9gNmiWYX8uTbFBeTTvJMdA", "review_count": 175, "categories": [{"alias": "japanese", "title": "Japanese"}, {"alias": "asianfusion", "title": "Asian Fusion"}, {"alias": "sushi", "title": "Sushi Bars"}], "rating": 3.5, "coordinates": {"latitude": 40.763763, "longitude": -73.966743}, "transactions": ["pickup", "delivery"], "price": "$$", "location": {"address1": "795 Lexington Ave", "address2": "", "address3": "", "city": "New York", "zip_code": "10065", "country": "US", "state": "NY", "display_address": ["795 Lexington Ave", "New York, NY 10065"]}, "phone": "+12123550888", "display_phone": "(212) 355-0888", "distance": 562.930483723756}, {"id": "PKkCtyZQpVEzivSF41ZgIw", "alias": "sunrise-chinese-restaurant-astoria", "name": "Sunrise Chinese Restaurant", "image_url": "https://s3-media1.fl.yelpcdn.com/bphoto/tdZ9oecZEs9A7LNgnC-qjQ/o.jpg", "is_closed": false, "url": "https://www.yelp.com/biz/sunrise-chinese-restaurant-astoria?adjust_creative=9gNmiWYX8uTbFBeTTvJMdA&utm_campaign=yelp_api_v3&utm_medium=api_v3_business_search&utm_source=9gNmiWYX8uTbFBeTTvJMdA", "review_count": 65, "categories": [{"alias": "chinese", "title": "Chinese"}], "rating": 3.5, "coordinates": {"latitude": 40.760806, "longitude": -73.923281}, "transactions": ["pickup", "delivery"], "price": "$", "location": {"address1": "3320 Broadway", "address2": "", "address3": "", "city": "Astoria", "zip_code": "11106", "country": "US", "state": "NY", "display_address": ["3320 Broadway", "Astoria, NY 11106"]}, "phone": "+17189563223", "display_phone": "(718) 956-3223", "distance": 3903.2258169552633}, {"id": "6zM0c7vvoddgza_qvKkATw", "alias": "golden-unicorn-new-york", "name": "Golden Unicorn", "image_url": "https://s3-media3.fl.yelpcdn.com/bphoto/jfQVal9u0RMr03xX6GkPsA/o.jpg", "is_closed": false, "url": "https://www.yelp.com/biz/golden-unicorn-new-york?adjust_creative=9gNmiWYX8uTbFBeTTvJMdA&utm_campaign=yelp_api_v3&utm_medium=api_v3_business_search&utm_source=9gNmiWYX8uTbFBeTTvJMdA", "review_count": 2018, "categories": [{"alias": "dimsum", "title": "Dim Sum"}, {"alias": "cantonese", "title": "Cantonese"}], "rating": 3.5, "coordinates": {"latitude": 40.7136770496642, "longitude": -73.997163364418}, "transactions": ["pickup", "delivery"], "price": "$$", "location": {"address1": "18 E Broadway", "address2": "", "address3": "", "city": "New York", "zip_code": "10002", "country": "US", "state": "NY", "display_address": ["18 E Broadway", "New York, NY 10002"]}, "phone": "+12129410911", "display_phone": "(212) 941-0911", "distance": 5567.581221625428}, {"id": "-4pRolL6EQddbv4iHrIZwQ", "alias": "panda-express-new-york-18", "name": "Panda Express", "image_url": "https://s3-media3.fl.yelpcdn.com/bphoto/nyOn3mic6hZgbtTY8gIq-g/o.jpg", "is_closed": false, "url": "https://www.yelp.com/biz/panda-express-new-york-18?adjust_creative=9gNmiWYX8uTbFBeTTvJMdA&utm_campaign=yelp_api_v3&utm_medium=api_v3_business_search&utm_source=9gNmiWYX8uTbFBeTTvJMdA", "review_count": 108, "categories": [{"alias": "chinese", "title": "Chinese"}, {"alias": "hotdogs", "title": "Fast Food"}], "rating": 3.0, "coordinates": {"latitude": 40.7658172332478, "longitude": -73.9577729254961}, "transactions": ["pickup", "delivery"], "price": "$$", "location": {"address1": "1277 1st Ave", "address2": "", "address3": "", "city": "New York", "zip_code": "10065", "country": "US", "state": "NY", "display_address": ["1277 1st Ave", "New York, NY 10065"]}, "phone": "+12122881323", "display_phone": "(212) 288-1323", "distance": 1238.301919880561}, {"id": "spJTHaNjEzKwoEiYWR1ggA", "alias": "pings-seafood-new-york", "name": "Ping's Seafood", "image_url": "https://s3-media1.fl.yelpcdn.com/bphoto/G_-Y76pJLd86iGezcfxcGg/o.jpg", "is_closed": false, "url": "https://www.yelp.com/biz/pings-seafood-new-york?adjust_creative=9gNmiWYX8uTbFBeTTvJMdA&utm_campaign=yelp_api_v3&utm_medium=api_v3_business_search&utm_source=9gNmiWYX8uTbFBeTTvJMdA", "review_count": 774, "categories": [{"alias": "seafood", "title": "Seafood"}, {"alias": "dimsum", "title": "Dim Sum"}, {"alias": "cantonese", "title": "Cantonese"}], "rating": 3.5, "coordinates": {"latitude": 40.714442, "longitude": -73.998636}, "transactions": ["pickup", "delivery"], "price": "$$", "location": {"address1": "22 Mott St", "address2": "", "address3": "", "city": "New York", "zip_code": "10013", "country": "US", "state": "NY", "display_address": ["22 Mott St", "New York, NY 10013"]}, "phone": "+12126029988", "display_phone": "(212) 602-9988", "distance": 5544.070656829579}, {"id": "2AFr9Q5cfWh_lkj2ChykDg", "alias": "chef-chan-resturant-east-rutherford", "name": "Chef Chan Resturant", "image_url": "https://s3-media2.fl.yelpcdn.com/bphoto/aA4bMV_M61KMkXOZUOItRA/o.jpg", "is_closed": false, "url": "https://www.yelp.com/biz/chef-chan-resturant-east-rutherford?adjust_creative=9gNmiWYX8uTbFBeTTvJMdA&utm_campaign=yelp_api_v3&utm_medium=api_v3_business_search&utm_source=9gNmiWYX8uTbFBeTTvJMdA", "review_count": 67, "categories": [{"alias": "chinese", "title": "Chinese"}], "rating": 4.0, "coordinates": {"latitude": 40.83361543715, "longitude": -74.0973772108555}, "transactions": ["delivery"], "price": "$", "location": {"address1": "238 Paterson Ave", "address2": "", "address3": "", "city": "East Rutherford", "zip_code": "07073", "country": "US", "state": "NJ", "display_address": ["238 Paterson Ave", "East Rutherford, NJ 07073"]}, "phone": "+12019332288", "display_phone": "(201) 933-2288", "distance": 13577.145640947008}, {"id": "1SVf6bO7gWm6HWlupMF15Q", "alias": "great-wall-chinese-restaurant-bronx", "name": "Great Wall Chinese Restaurant", "image_url": "https://s3-media4.fl.yelpcdn.com/bphoto/9Cw5TRLLbWBb8Cyf7KSNbg/o.jpg", "is_closed": false, "url": "https://www.yelp.com/biz/great-wall-chinese-restaurant-bronx?adjust_creative=9gNmiWYX8uTbFBeTTvJMdA&utm_campaign=yelp_api_v3&utm_medium=api_v3_business_search&utm_source=9gNmiWYX8uTbFBeTTvJMdA", "review_count": 21, "categories": [{"alias": "chinese", "title": "Chinese"}], "rating": 2.5, "coordinates": {"latitude": 40.8196182250977, "longitude": -73.926383972168}, "transactions": ["pickup", "delivery"], "price": "$", "location": {"address1": "594 Grand Concourse", "address2": "", "address3": "", "city": "Bronx", "zip_code": "10451", "country": "US", "state": "NY", "display_address": ["594 Grand Concourse", "Bronx, NY 10451"]}, "phone": "+17189935420", "display_phone": "(718) 993-5420", "distance": 7646.447284768542}, {"id": "sinDhwX8Egru_3FCI7bhkw", "alias": "laut-new-york", "name": "Laut", "image_url": "https://s3-media2.fl.yelpcdn.com/bphoto/ycjbwPjMeWmPOfHsjjSt7w/o.jpg", "is_closed": false, "url": "https://www.yelp.com/biz/laut-new-york?adjust_creative=9gNmiWYX8uTbFBeTTvJMdA&utm_campaign=yelp_api_v3&utm_medium=api_v3_business_search&utm_source=9gNmiWYX8uTbFBeTTvJMdA", "review_count": 1465, "categories": [{"alias": "thai", "title": "Thai"}, {"alias": "malaysian", "title": "Malaysian"}, {"alias": "singaporean", "title": "Singaporean"}], "rating": 3.5, "coordinates": {"latitude": 40.73756, "longitude": -73.9911}, "transactions": ["pickup", "delivery"], "price": "$$", "location": {"address1": "15 E 17th St", "address2": "", "address3": "", "city": "New York", "zip_code": "10003", "country": "US", "state": "NY", "display_address": ["15 E 17th St", "New York, NY 10003"]}, "phone": "+12122068989", "display_phone": "(212) 206-8989", "distance": 3005.103588694124}, {"id": "majyHtjuTaFZKYpMNCLe_Q", "alias": "golden-house-restaurant-rutherford", "name": "Golden House Restaurant", "image_url": "https://s3-media1.fl.yelpcdn.com/bphoto/3gZ7FFNgtRGk2ucPYIcTqA/o.jpg", "is_closed": false, "url": "https://www.yelp.com/biz/golden-house-restaurant-rutherford?adjust_creative=9gNmiWYX8uTbFBeTTvJMdA&utm_campaign=yelp_api_v3&utm_medium=api_v3_business_search&utm_source=9gNmiWYX8uTbFBeTTvJMdA", "review_count": 40, "categories": [{"alias": "asianfusion", "title": "Asian Fusion"}, {"alias": "chinese", "title": "Chinese"}], "rating": 4.5, "coordinates": {"latitude": 40.83666, "longitude": -74.11401}, "transactions": ["delivery"], "price": "$", "location": {"address1": "334 Union Ave", "address2": "", "address3": "", "city": "Rutherford", "zip_code": "07070", "country": "US", "state": "NJ", "display_address": ["334 Union Ave", "Rutherford, NJ 07070"]}, "phone": "+12015075878", "display_phone": "(201) 507-5878", "distance": 14900.139806722058}, {"id": "Aw69I2eD-lYffytWGGYM8A", "alias": "pinwheel-garden-dumpling-and-noodle-bar-jersey-city", "name": "Pinwheel Garden Dumpling & Noodle Bar", "image_url": "https://s3-media4.fl.yelpcdn.com/bphoto/29p1rvLgWWfRbE9DrhlgBw/o.jpg", "is_closed": false, "url": "https://www.yelp.com/biz/pinwheel-garden-dumpling-and-noodle-bar-jersey-city?adjust_creative=9gNmiWYX8uTbFBeTTvJMdA&utm_campaign=yelp_api_v3&utm_medium=api_v3_business_search&utm_source=9gNmiWYX8uTbFBeTTvJMdA", "review_count": 400, "categories": [{"alias": "noodles", "title": "Noodles"}, {"alias": "asianfusion", "title": "Asian Fusion"}], "rating": 4.5, "coordinates": {"latitude": 40.71039, "longitude": -74.06102}, "transactions": ["pickup", "delivery"], "price": "$$", "location": {"address1": "318 Communipaw Ave", "address2": null, "address3": "", "city": "Jersey City", "zip_code": "07304", "country": "US", "state": "NJ", "display_address": ["318 Communipaw Ave", "Jersey City, NJ 07304"]}, "phone": "+12014135333", "display_phone": "(201) 413-5333", "distance": 9422.427099499946}, {"id": "1UtavhY5umBJPJkP2jJGMw", "alias": "memories-of-shanghai-forest-hills", "name": "Memories of Shanghai", "image_url": "https://s3-media2.fl.yelpcdn.com/bphoto/XdxmNt8G61UBDQoyMPqjKQ/o.jpg", "is_closed": false, "url": "https://www.yelp.com/biz/memories-of-shanghai-forest-hills?adjust_creative=9gNmiWYX8uTbFBeTTvJMdA&utm_campaign=yelp_api_v3&utm_medium=api_v3_business_search&utm_source=9gNmiWYX8uTbFBeTTvJMdA", "review_count": 239, "categories": [{"alias": "dimsum", "title": "Dim Sum"}, {"alias": "shanghainese", "title": "Shanghainese"}], "rating": 4.0, "coordinates": {"latitude": 40.722059732800346, "longitude": -73.85061884110445}, "transactions": ["pickup", "delivery"], "price": "$$", "location": {"address1": "68-60 Austin St", "address2": "", "address3": null, "city": "Forest Hills", "zip_code": "11375", "country": "US", "state": "NY", "display_address": ["68-60 Austin St", "Forest Hills, NY 11375"]}, "phone": "+19295527000", "display_phone": "(929) 552-7000", "distance": 10838.355611780067}, {"id": "5fRh0bh2HDGYb7Lsms36vQ", "alias": "china-moon-restaurant-palisades-park", "name": "China Moon Restaurant", "image_url": "https://s3-media2.fl.yelpcdn.com/bphoto/X807Fw3_pd9CxjLzppDW2g/o.jpg", "is_closed": false, "url": "https://www.yelp.com/biz/china-moon-restaurant-palisades-park?adjust_creative=9gNmiWYX8uTbFBeTTvJMdA&utm_campaign=yelp_api_v3&utm_medium=api_v3_business_search&utm_source=9gNmiWYX8uTbFBeTTvJMdA", "review_count": 34, "categories": [{"alias": "chinese", "title": "Chinese"}], "rating": 3.5, "coordinates": {"latitude": 40.8421908, "longitude": -74.0011607}, "transactions": ["delivery"], "price": "$", "location": {"address1": "16 E Columbia Ave", "address2": "", "address3": "", "city": "Palisades Park", "zip_code": "07650", "country": "US", "state": "NJ", "display_address": ["16 E Columbia Ave", "Palisades Park, NJ 07650"]}, "phone": "+12019456628", "display_phone": "(201) 945-6628", "distance": 9606.22415580194}, {"id": "p2zm0HnXZkI2yCAuYLb45g", "alias": "thai-market-new-york", "name": "Thai Market", "image_url": "https://s3-media1.fl.yelpcdn.com/bphoto/StF32ljho38Ynd1hLRZ6nA/o.jpg", "is_closed": false, "url": "https://www.yelp.com/biz/thai-market-new-york?adjust_creative=9gNmiWYX8uTbFBeTTvJMdA&utm_campaign=yelp_api_v3&utm_medium=api_v3_business_search&utm_source=9gNmiWYX8uTbFBeTTvJMdA", "review_count": 1090, "categories": [{"alias": "thai", "title": "Thai"}, {"alias": "noodles", "title": "Noodles"}, {"alias": "soup", "title": "Soup"}], "rating": 4.0, "coordinates": {"latitude": 40.80132, "longitude": -73.96529}, "transactions": ["pickup", "delivery"], "price": "$$", "location": {"address1": "960 Amsterdam Ave", "address2": "", "address3": "", "city": "New York", "zip_code": "10025", "country": "US", "state": "NY", "display_address": ["960 Amsterdam Ave", "New York, NY 10025"]}, "phone": "+12122804575", "display_phone": "(212) 280-4575", "distance": 4703.159895068273}, {"id": "2JGyD4VesHPsVRsLpNXgYw", "alias": "hong-kong-station-new-york-5", "name": "Hong Kong Station", "image_url": "https://s3-media3.fl.yelpcdn.com/bphoto/-UjIte3lNGpuB9P98VuCsg/o.jpg", "is_closed": false, "url": "https://www.yelp.com/biz/hong-kong-station-new-york-5?adjust_creative=9gNmiWYX8uTbFBeTTvJMdA&utm_campaign=yelp_api_v3&utm_medium=api_v3_business_search&utm_source=9gNmiWYX8uTbFBeTTvJMdA", "review_count": 5, "categories": [{"alias": "hkcafe", "title": "Hong Kong Style Cafe"}, {"alias": "chinese", "title": "Chinese"}, {"alias": "coffee", "title": "Coffee & Tea"}], "rating": 4.0, "coordinates": {"latitude": 40.71512, "longitude": -73.99729}, "transactions": [], "location": {"address1": "43 Bayard St", "address2": "", "address3": null, "city": "New York", "zip_code": "10013", "country": "US", "state": "NY", "display_address": ["43 Bayard St", "New York, NY 10013"]}, "phone": "+12122191318", "display_phone": "(212) 219-1318", "distance": 5424.795838739742}, {"id": "YKsHo3V-PkeRQdLYOdG7ZA", "alias": "lucky-chen-flushing-4", "name": "Lucky Chen", "image_url": "https://s3-media2.fl.yelpcdn.com/bphoto/fqL4huj3KEGthPmXNXG2Fw/o.jpg", "is_closed": false, "url": "https://www.yelp.com/biz/lucky-chen-flushing-4?adjust_creative=9gNmiWYX8uTbFBeTTvJMdA&utm_campaign=yelp_api_v3&utm_medium=api_v3_business_search&utm_source=9gNmiWYX8uTbFBeTTvJMdA", "review_count": 226, "categories": [{"alias": "szechuan", "title": "Szechuan"}, {"alias": "seafood", "title": "Seafood"}, {"alias": "dimsum", "title": "Dim Sum"}], "rating": 4.0, "coordinates": {"latitude": 40.7634, "longitude": -73.83159}, "transactions": ["pickup", "restaurant_reservation", "delivery"], "price": "$$", "location": {"address1": "13553 Northern Blvd", "address2": null, "address3": "", "city": "Flushing", "zip_code": "11354", "country": "US", "state": "NY", "display_address": ["13553 Northern Blvd", "Flushing, NY 11354"]}, "phone": "+17183536978", "display_phone": "(718) 353-6978", "distance": 11627.301173826952}, {"id": "Ms6jgxyr0uW_aPbJoz_1Yw", "alias": "new-china-3-woodside-2", "name": "New China 3", "image_url": "https://s3-media3.fl.yelpcdn.com/bphoto/s6dILeQyT5MoMf1lpvmgaw/o.jpg", "is_closed": false, "url": "https://www.yelp.com/biz/new-china-3-woodside-2?adjust_creative=9gNmiWYX8uTbFBeTTvJMdA&utm_campaign=yelp_api_v3&utm_medium=api_v3_business_search&utm_source=9gNmiWYX8uTbFBeTTvJMdA", "review_count": 52, "categories": [{"alias": "chinese", "title": "Chinese"}], "rating": 3.0, "coordinates": {"latitude": 40.745144, "longitude": -73.906067}, "transactions": ["pickup", "delivery"], "price": "$", "location": {"address1": "5814 Roosevelt Ave", "address2": "", "address3": "", "city": "Woodside", "zip_code": "11377", "country": "US", "state": "NY", "display_address": ["5814 Roosevelt Ave", "Woodside, NY 11377"]}, "phone": "+17186725300", "display_phone": "(718) 672-5300", "distance": 5568.404815453766}, {"id": "h3yz3w8ke1jIaGnqGln93A", "alias": "sun-wah-restaurant-astoria", "name": "Sun Wah Restaurant", "image_url": "https://s3-media2.fl.yelpcdn.com/bphoto/oMS89IftqN5IPPltNXHRfQ/o.jpg", "is_closed": false, "url": "https://www.yelp.com/biz/sun-wah-restaurant-astoria?adjust_creative=9gNmiWYX8uTbFBeTTvJMdA&utm_campaign=yelp_api_v3&utm_medium=api_v3_business_search&utm_source=9gNmiWYX8uTbFBeTTvJMdA", "review_count": 52, "categories": [{"alias": "chinese", "title": "Chinese"}], "rating": 3.5, "coordinates": {"latitude": 40.756608, "longitude": -73.930066}, "transactions": ["pickup", "delivery"], "price": "$", "location": {"address1": "3016 36th Ave", "address2": "", "address3": "", "city": "Astoria", "zip_code": "11106", "country": "US", "state": "NY", "display_address": ["3016 36th Ave", "Astoria, NY 11106"]}, "phone": "+17189375212", "display_phone": "(718) 937-5212", "distance": 3339.8664672215045}, {"id": "iGiDvA-WNKAL2WsU0m5_Xg", "alias": "so-good-taste-rice-noodle-new-york-3", "name": "So Good Taste Rice Noodle", "image_url": "https://s3-media1.fl.yelpcdn.com/bphoto/iSffYUnBIATmbXz8V8oHUA/o.jpg", "is_closed": false, "url": "https://www.yelp.com/biz/so-good-taste-rice-noodle-new-york-3?adjust_creative=9gNmiWYX8uTbFBeTTvJMdA&utm_campaign=yelp_api_v3&utm_medium=api_v3_business_search&utm_source=9gNmiWYX8uTbFBeTTvJMdA", "review_count": 1, "categories": [{"alias": "noodles", "title": "Noodles"}], "rating": 5.0, "coordinates": {"latitude": 40.72919, "longitude": -74.00145}, "transactions": ["pickup", "delivery"], "location": {"address1": "190 Bleecker St", "address2": null, "address3": "", "city": "New York", "zip_code": "10012", "country": "US", "state": "NY", "display_address": ["190 Bleecker St", "New York, NY 10012"]}, "phone": "+19176756499", "display_phone": "(917) 675-6499", "distance": 4301.284119890716}, {"id": "kNOr6_g6QfBHdhf89j3g5w", "alias": "taiwan-pork-chop-house-new-york", "name": "Taiwan Pork Chop House", "image_url": "https://s3-media2.fl.yelpcdn.com/bphoto/pO5Lq6bKe1n7R0io9SrM5A/o.jpg", "is_closed": false, "url": "https://www.yelp.com/biz/taiwan-pork-chop-house-new-york?adjust_creative=9gNmiWYX8uTbFBeTTvJMdA&utm_campaign=yelp_api_v3&utm_medium=api_v3_business_search&utm_source=9gNmiWYX8uTbFBeTTvJMdA", "review_count": 594, "categories": [{"alias": "taiwanese", "title": "Taiwanese"}, {"alias": "chinese", "title": "Chinese"}, {"alias": "noodles", "title": "Noodles"}], "rating": 4.0, "coordinates": {"latitude": 40.71429, "longitude": -73.99798}, "transactions": ["delivery"], "price": "$", "location": {"address1": "3 Doyers St", "address2": "", "address3": "", "city": "New York", "zip_code": "10013", "country": "US", "state": "NY", "display_address": ["3 Doyers St", "New York, NY 10013"]}, "phone": "+12127917007", "display_phone": "(212) 791-7007", "distance": 5535.1189156209}, {"id": "Qd4LleGL1MU7hcBYXcyVSA", "alias": "good-chinese-kitchen-north-bergen", "name": "Good Chinese Kitchen", "image_url": "https://s3-media4.fl.yelpcdn.com/bphoto/CVo17-NJ2SGGRcuLsmcVsQ/o.jpg", "is_closed": false, "url": "https://www.yelp.com/biz/good-chinese-kitchen-north-bergen?adjust_creative=9gNmiWYX8uTbFBeTTvJMdA&utm_campaign=yelp_api_v3&utm_medium=api_v3_business_search&utm_source=9gNmiWYX8uTbFBeTTvJMdA", "review_count": 37, "categories": [{"alias": "chinese", "title": "Chinese"}], "rating": 4.0, "coordinates": {"latitude": 40.80828, "longitude": -74.01806}, "transactions": ["pickup", "delivery"], "price": "$", "location": {"address1": "8101 Tonnelle Ave", "address2": "", "address3": "", "city": "North Bergen", "zip_code": "07047", "country": "US", "state": "NJ", "display_address": ["8101 Tonnelle Ave", "North Bergen, NJ 07047"]}, "phone": "+12012950806", "display_phone": "(201) 295-0806", "distance": 6803.46653115334}, {"id": "tX_fGX09HCMvXTzHDZQoYw", "alias": "new-ho-wah-astoria-9", "name": "New Ho Wah", "image_url": "https://s3-media2.fl.yelpcdn.com/bphoto/gNVpkvcDoPmr7kRJvuZqWw/o.jpg", "is_closed": false, "url": "https://www.yelp.com/biz/new-ho-wah-astoria-9?adjust_creative=9gNmiWYX8uTbFBeTTvJMdA&utm_campaign=yelp_api_v3&utm_medium=api_v3_business_search&utm_source=9gNmiWYX8uTbFBeTTvJMdA", "review_count": 37, "categories": [{"alias": "chinese", "title": "Chinese"}], "rating": 2.5, "coordinates": {"latitude": 40.758332, "longitude": -73.9171535856445}, "transactions": ["pickup", "delivery"], "price": "$", "location": {"address1": "4201 Broadway", "address2": "", "address3": "", "city": "Astoria", "zip_code": "11103", "country": "US", "state": "NY", "display_address": ["4201 Broadway", "Astoria, NY 11103"]}, "phone": "+17189561849", "display_phone": "(718) 956-1849", "distance": 4416.164323253891}, {"id": "_7rU61c3WTVfPS_-FNup8g", "alias": "j-j-chans-garden-east-elmhurst", "name": "J J Chan's Garden", "image_url": "https://s3-media2.fl.yelpcdn.com/bphoto/bgArcyyqJXVd08LsxmO6HA/o.jpg", "is_closed": false, "url": "https://www.yelp.com/biz/j-j-chans-garden-east-elmhurst?adjust_creative=9gNmiWYX8uTbFBeTTvJMdA&utm_campaign=yelp_api_v3&utm_medium=api_v3_business_search&utm_source=9gNmiWYX8uTbFBeTTvJMdA", "review_count": 141, "categories": [{"alias": "chinese", "title": "Chinese"}, {"alias": "seafood", "title": "Seafood"}, {"alias": "asianfusion", "title": "Asian Fusion"}], "rating": 3.5, "coordinates": {"latitude": 40.7593470534684, "longitude": -73.89224166101121}, "transactions": ["pickup", "delivery"], "price": "$$", "location": {"address1": "7521 31st Ave", "address2": "", "address3": "", "city": "East Elmhurst", "zip_code": "11370", "country": "US", "state": "NY", "display_address": ["7521 31st Ave", "East Elmhurst, NY 11370"]}, "phone": "+17188986686", "display_phone": "(718) 898-6686", "distance": 6513.385127628018}, {"id": "8_dWO1Y6o8fZk_FosHhg-A", "alias": "yummy-noodle-house-\u7ca5\u9eb5\u4e4b\u5bb6-bayside", "name": "Yummy Noodle House \u7ca5\u9eb5\u4e4b\u5bb6", "image_url": "https://s3-media3.fl.yelpcdn.com/bphoto/LsgKP2r3vdrMKS_aKdGKhg/o.jpg", "is_closed": false, "url": "https://www.yelp.com/biz/yummy-noodle-house-%E7%B2%A5%E9%BA%B5%E4%B9%8B%E5%AE%B6-bayside?adjust_creative=9gNmiWYX8uTbFBeTTvJMdA&utm_campaign=yelp_api_v3&utm_medium=api_v3_business_search&utm_source=9gNmiWYX8uTbFBeTTvJMdA", "review_count": 313, "categories": [{"alias": "noodles", "title": "Noodles"}, {"alias": "cantonese", "title": "Cantonese"}, {"alias": "hkcafe", "title": "Hong Kong Style Cafe"}], "rating": 4.5, "coordinates": {"latitude": 40.7665389818104, "longitude": -73.7897614784259}, "transactions": ["pickup", "delivery"], "price": "$$", "location": {"address1": "33-35 Francis Lewis Blvd", "address2": "", "address3": null, "city": "Bayside", "zip_code": "11358", "country": "US", "state": "NY", "display_address": ["33-35 Francis Lewis Blvd", "Bayside, NY 11358"]}, "phone": "+17188887848", "display_phone": "(718) 888-7848", "distance": 15178.137202382526}, {"id": "_eWN3zih_cnY0fiLWva9EA", "alias": "li-wan-restaurant-middle-village", "name": "Li Wan Restaurant", "image_url": "https://s3-media1.fl.yelpcdn.com/bphoto/GFasDY9T2kBhSDZtNOP5rQ/o.jpg", "is_closed": false, "url": "https://www.yelp.com/biz/li-wan-restaurant-middle-village?adjust_creative=9gNmiWYX8uTbFBeTTvJMdA&utm_campaign=yelp_api_v3&utm_medium=api_v3_business_search&utm_source=9gNmiWYX8uTbFBeTTvJMdA", "review_count": 33, "categories": [{"alias": "chinese", "title": "Chinese"}], "rating": 4.0, "coordinates": {"latitude": 40.7122917175293, "longitude": -73.8961334228516}, "transactions": ["delivery"], "price": "$$", "location": {"address1": "6428 Metropolitan Ave", "address2": "", "address3": "", "city": "Middle Village", "zip_code": "11379", "country": "US", "state": "NY", "display_address": ["6428 Metropolitan Ave", "Middle Village, NY 11379"]}, "phone": "+17184170808", "display_phone": "(718) 417-0808", "distance": 8087.093317830264}, {"id": "ezh0BG1qWKKLJa99gb-XzQ", "alias": "spice-spirit-jersey-city-5", "name": "Spice Spirit", "image_url": "https://s3-media2.fl.yelpcdn.com/bphoto/Oeye09pSI8UPcQS1w1VZKQ/o.jpg", "is_closed": false, "url": "https://www.yelp.com/biz/spice-spirit-jersey-city-5?adjust_creative=9gNmiWYX8uTbFBeTTvJMdA&utm_campaign=yelp_api_v3&utm_medium=api_v3_business_search&utm_source=9gNmiWYX8uTbFBeTTvJMdA", "review_count": 70, "categories": [{"alias": "szechuan", "title": "Szechuan"}, {"alias": "asianfusion", "title": "Asian Fusion"}], "rating": 4.0, "coordinates": {"latitude": 40.7299773848248, "longitude": -74.0650781984882}, "transactions": ["delivery"], "price": "$$", "location": {"address1": "900 Bergen Ave", "address2": "", "address3": null, "city": "Jersey City", "zip_code": "07306", "country": "US", "state": "NJ", "display_address": ["900 Bergen Ave", "Jersey City, NJ 07306"]}, "phone": "+12016563866", "display_phone": "(201) 656-3866", "distance": 8676.012603683428}, {"id": "I6XC8dNxUzIcIOEbq3LJsQ", "alias": "number-one-chinese-restaurant-west-new-york", "name": "Number One Chinese Restaurant", "image_url": "https://s3-media1.fl.yelpcdn.com/bphoto/JRmN6H-JTOc3K32zEYikbg/o.jpg", "is_closed": false, "url": "https://www.yelp.com/biz/number-one-chinese-restaurant-west-new-york?adjust_creative=9gNmiWYX8uTbFBeTTvJMdA&utm_campaign=yelp_api_v3&utm_medium=api_v3_business_search&utm_source=9gNmiWYX8uTbFBeTTvJMdA", "review_count": 25, "categories": [{"alias": "chinese", "title": "Chinese"}, {"alias": "seafood", "title": "Seafood"}, {"alias": "thai", "title": "Thai"}], "rating": 4.0, "coordinates": {"latitude": 40.78975, "longitude": -74.00513}, "transactions": ["delivery"], "price": "$", "location": {"address1": "6514 Park Ave", "address2": "", "address3": "", "city": "West New York", "zip_code": "07093", "country": "US", "state": "NJ", "display_address": ["6514 Park Ave", "West New York, NJ 07093"]}, "phone": "+12018619598", "display_phone": "(201) 861-9598", "distance": 4537.388852720602}, {"id": "gVcQC9fcWFB5kyLjFCsx1w", "alias": "china-fun-jersey-city", "name": "China Fun", "image_url": "https://s3-media4.fl.yelpcdn.com/bphoto/j9BZqdTXjoT0tlQ4DZR5rg/o.jpg", "is_closed": false, "url": "https://www.yelp.com/biz/china-fun-jersey-city?adjust_creative=9gNmiWYX8uTbFBeTTvJMdA&utm_campaign=yelp_api_v3&utm_medium=api_v3_business_search&utm_source=9gNmiWYX8uTbFBeTTvJMdA", "review_count": 16, "categories": [{"alias": "chinese", "title": "Chinese"}], "rating": 3.5, "coordinates": {"latitude": 40.7111223, "longitude": -74.0930023}, "transactions": ["pickup", "delivery"], "price": "$", "location": {"address1": "226 W Side Ave", "address2": "", "address3": "", "city": "Jersey City", "zip_code": "07305", "country": "US", "state": "NJ", "display_address": ["226 W Side Ave", "Jersey City, NJ 07305"]}, "phone": "+12014355403", "display_phone": "(201) 435-5403", "distance": 11683.04044611522}, {"id": "zqi2taRgN5VzkEMQGOMQHg", "alias": "shanghai-sogo-new-york", "name": "Shanghai Sogo", "image_url": "https://s3-media1.fl.yelpcdn.com/bphoto/8BCObo4yLTWdKpQP40DnCA/o.jpg", "is_closed": false, "url": "https://www.yelp.com/biz/shanghai-sogo-new-york?adjust_creative=9gNmiWYX8uTbFBeTTvJMdA&utm_campaign=yelp_api_v3&utm_medium=api_v3_business_search&utm_source=9gNmiWYX8uTbFBeTTvJMdA", "review_count": 13, "categories": [{"alias": "shanghainese", "title": "Shanghainese"}, {"alias": "foodtrucks", "title": "Food Trucks"}], "rating": 3.0, "coordinates": {"latitude": 40.757195, "longitude": -73.980431}, "transactions": [], "price": "$$", "location": {"address1": "36 W 47th St", "address2": "", "address3": "", "city": "New York", "zip_code": "10036", "country": "US", "state": "NY", "display_address": ["36 W 47th St", "New York, NY 10036"]}, "phone": "+14844697646", "display_phone": "(484) 469-7646", "distance": 935.861350129866}, {"id": "zz5vbf1jm5TIX6bOK7HJVg", "alias": "hello-yummy-new-york", "name": "Hello Yummy", "image_url": "https://s3-media2.fl.yelpcdn.com/bphoto/rXAoyuwAvG5wDNgwwKxYhg/o.jpg", "is_closed": false, "url": "https://www.yelp.com/biz/hello-yummy-new-york?adjust_creative=9gNmiWYX8uTbFBeTTvJMdA&utm_campaign=yelp_api_v3&utm_medium=api_v3_business_search&utm_source=9gNmiWYX8uTbFBeTTvJMdA", "review_count": 1, "categories": [{"alias": "chinese", "title": "Chinese"}, {"alias": "noodles", "title": "Noodles"}], "rating": 4.0, "coordinates": {"latitude": 40.73063, "longitude": -73.99518}, "transactions": ["pickup", "delivery"], "location": {"address1": "29 Waverly Pl", "address2": "", "address3": null, "city": "New York", "zip_code": "10003", "country": "US", "state": "NY", "display_address": ["29 Waverly Pl", "New York, NY 10003"]}, "phone": "+16316842590", "display_phone": "(631) 684-2590", "distance": 3833.5913496077906}, {"id": "vSkCDRWX6VvP4PJHHFgoDw", "alias": "new-king-wok-restaurant-new-york", "name": "New King Wok Restaurant", "image_url": "https://s3-media3.fl.yelpcdn.com/bphoto/DkSvXHGf4yWE05f_GgTHQQ/o.jpg", "is_closed": false, "url": "https://www.yelp.com/biz/new-king-wok-restaurant-new-york?adjust_creative=9gNmiWYX8uTbFBeTTvJMdA&utm_campaign=yelp_api_v3&utm_medium=api_v3_business_search&utm_source=9gNmiWYX8uTbFBeTTvJMdA", "review_count": 20, "categories": [{"alias": "chinese", "title": "Chinese"}], "rating": 3.5, "coordinates": {"latitude": 40.8064728, "longitude": -73.9498444}, "transactions": ["delivery"], "price": "$", "location": {"address1": "2025 7th Ave", "address2": "", "address3": "", "city": "New York", "zip_code": "10027", "country": "US", "state": "NY", "display_address": ["2025 7th Ave", "New York, NY 10027"]}, "phone": "+12122222868", "display_phone": "(212) 222-2868", "distance": 5521.459208571365}, {"id": "Wq9cARVEwOmoqfg41mNRNg", "alias": "noree-new-york-2", "name": "Noree ", "image_url": "https://s3-media3.fl.yelpcdn.com/bphoto/Lz3gP6NlNHAjO5ecuGwZxg/o.jpg", "is_closed": false, "url": "https://www.yelp.com/biz/noree-new-york-2?adjust_creative=9gNmiWYX8uTbFBeTTvJMdA&utm_campaign=yelp_api_v3&utm_medium=api_v3_business_search&utm_source=9gNmiWYX8uTbFBeTTvJMdA", "review_count": 203, "categories": [{"alias": "lounges", "title": "Lounges"}, {"alias": "cocktailbars", "title": "Cocktail Bars"}, {"alias": "asianfusion", "title": "Asian Fusion"}], "rating": 4.0, "coordinates": {"latitude": 40.718082705767486, "longitude": -73.9928564}, "transactions": ["pickup", "restaurant_reservation", "delivery"], "price": "$$", "location": {"address1": "274 Grand St", "address2": "", "address3": null, "city": "New York", "zip_code": "10002", "country": "US", "state": "NY", "display_address": ["274 Grand St", "New York, NY 10002"]}, "phone": "+16468640338", "display_phone": "(646) 864-0338", "distance": 4972.479612826212}, {"id": "6KWuxjK1ey72cW8LVuoV5A", "alias": "mr-bao-new-york", "name": "Mr Bao", "image_url": "https://s3-media3.fl.yelpcdn.com/bphoto/eIE2OCgvFCrKxQkI0DL-lw/o.jpg", "is_closed": false, "url": "https://www.yelp.com/biz/mr-bao-new-york?adjust_creative=9gNmiWYX8uTbFBeTTvJMdA&utm_campaign=yelp_api_v3&utm_medium=api_v3_business_search&utm_source=9gNmiWYX8uTbFBeTTvJMdA", "review_count": 76, "categories": [{"alias": "shanghainese", "title": "Shanghainese"}, {"alias": "dimsum", "title": "Dim Sum"}], "rating": 4.0, "coordinates": {"latitude": 40.717057, "longitude": -73.958764}, "transactions": ["pickup", "delivery"], "location": {"address1": "208 Bedford Ave", "address2": null, "address3": "", "city": "New York", "zip_code": "11249", "country": "US", "state": "NY", "display_address": ["208 Bedford Ave", "New York, NY 11249"]}, "phone": "+17183888898", "display_phone": "(718) 388-8898", "distance": 4770.095172318349}, {"id": "RBpwDqMpajBLLjMKOPrUxg", "alias": "lucky-foo-kearny", "name": "Lucky Foo", "image_url": "https://s3-media2.fl.yelpcdn.com/bphoto/PEjVKniy2n1CqXM1Y5tToA/o.jpg", "is_closed": false, "url": "https://www.yelp.com/biz/lucky-foo-kearny?adjust_creative=9gNmiWYX8uTbFBeTTvJMdA&utm_campaign=yelp_api_v3&utm_medium=api_v3_business_search&utm_source=9gNmiWYX8uTbFBeTTvJMdA", "review_count": 108, "categories": [{"alias": "chinese", "title": "Chinese"}, {"alias": "noodles", "title": "Noodles"}], "rating": 4.0, "coordinates": {"latitude": 40.75256, "longitude": -74.15769}, "transactions": ["delivery"], "price": "$", "location": {"address1": "5 Kearny Ave", "address2": "", "address3": "", "city": "Kearny", "zip_code": "07032", "country": "US", "state": "NJ", "display_address": ["5 Kearny Ave", "Kearny, NJ 07032"]}, "phone": "", "display_phone": "", "distance": 15858.124326442303}, {"id": "AeLz0uoZH3hxmkcXlwUIGg", "alias": "yips-new-york-4", "name": "Yip's", "image_url": "https://s3-media1.fl.yelpcdn.com/bphoto/24e3PuTSDW76jd72gNr86g/o.jpg", "is_closed": false, "url": "https://www.yelp.com/biz/yips-new-york-4?adjust_creative=9gNmiWYX8uTbFBeTTvJMdA&utm_campaign=yelp_api_v3&utm_medium=api_v3_business_search&utm_source=9gNmiWYX8uTbFBeTTvJMdA", "review_count": 108, "categories": [{"alias": "chinese", "title": "Chinese"}], "rating": 3.5, "coordinates": {"latitude": 40.70482, "longitude": -74.01238}, "transactions": ["delivery"], "price": "$", "location": {"address1": "18 Beaver St", "address2": "", "address3": "", "city": "New York", "zip_code": "10004", "country": "US", "state": "NY", "display_address": ["18 Beaver St", "New York, NY 10004"]}, "phone": "+12124809010", "display_phone": "(212) 480-9010", "distance": 7041.003877642592}, {"id": "HM6cvh5A9LLBeb4Sca6fPA", "alias": "ten-full-restaurant-sunnyside-2", "name": "Ten Full Restaurant", "image_url": "https://s3-media2.fl.yelpcdn.com/bphoto/O5gyGfSsICNZRujmxMEPMw/o.jpg", "is_closed": false, "url": "https://www.yelp.com/biz/ten-full-restaurant-sunnyside-2?adjust_creative=9gNmiWYX8uTbFBeTTvJMdA&utm_campaign=yelp_api_v3&utm_medium=api_v3_business_search&utm_source=9gNmiWYX8uTbFBeTTvJMdA", "review_count": 76, "categories": [{"alias": "chinese", "title": "Chinese"}], "rating": 3.0, "coordinates": {"latitude": 40.74018, "longitude": -73.92511}, "transactions": ["pickup", "delivery"], "price": "$", "location": {"address1": "39-49 48th Ave", "address2": "", "address3": "", "city": "Sunnyside", "zip_code": "11104", "country": "US", "state": "NY", "display_address": ["39-49 48th Ave", "Sunnyside, NY 11104"]}, "phone": "+17183618838", "display_phone": "(718) 361-8838", "distance": 4306.183783130238}, {"id": "-bM9YDomW6BX3zGDHN24XQ", "alias": "curry-house-new-york-3", "name": "Curry House", "image_url": "https://s3-media2.fl.yelpcdn.com/bphoto/JDwUItSZAbZrrTZrm20rfg/o.jpg", "is_closed": false, "url": "https://www.yelp.com/biz/curry-house-new-york-3?adjust_creative=9gNmiWYX8uTbFBeTTvJMdA&utm_campaign=yelp_api_v3&utm_medium=api_v3_business_search&utm_source=9gNmiWYX8uTbFBeTTvJMdA", "review_count": 35, "categories": [{"alias": "malaysian", "title": "Malaysian"}, {"alias": "thai", "title": "Thai"}], "rating": 4.5, "coordinates": {"latitude": 40.7147043540403, "longitude": -73.99770502336152}, "transactions": ["pickup", "restaurant_reservation", "delivery"], "location": {"address1": "9 Pell St", "address2": "", "address3": null, "city": "New York", "zip_code": "10013", "country": "US", "state": "NY", "display_address": ["9 Pell St", "New York, NY 10013"]}, "phone": "+16466785131", "display_phone": "(646) 678-5131", "distance": 5483.553915806395}, {"id": "PLHPKk7wDlKDNyA1qowV4w", "alias": "zhongzhong-noodles-bronx-the-bronx", "name": "Zhongzhong Noodles - Bronx", "image_url": "https://s3-media3.fl.yelpcdn.com/bphoto/cezbYjQ8-C6YNQmP5oV7hw/o.jpg", "is_closed": false, "url": "https://www.yelp.com/biz/zhongzhong-noodles-bronx-the-bronx?adjust_creative=9gNmiWYX8uTbFBeTTvJMdA&utm_campaign=yelp_api_v3&utm_medium=api_v3_business_search&utm_source=9gNmiWYX8uTbFBeTTvJMdA", "review_count": 55, "categories": [{"alias": "chinese", "title": "Chinese"}, {"alias": "noodles", "title": "Noodles"}, {"alias": "ramen", "title": "Ramen"}], "rating": 4.5, "coordinates": {"latitude": 40.85658, "longitude": -73.88415}, "transactions": ["pickup", "delivery"], "price": "$$", "location": {"address1": "657 E 189th St", "address2": null, "address3": "", "city": "The Bronx", "zip_code": "10458", "country": "US", "state": "NY", "display_address": ["657 E 189th St", "The Bronx, NY 10458"]}, "phone": "+13475974368", "display_phone": "(347) 597-4368", "distance": 13008.501113654032}, {"id": "lmiwPS9tl3cyMDGDeVstqQ", "alias": "new-apolo-brooklyn-2", "name": "New Apolo", "image_url": "https://s3-media4.fl.yelpcdn.com/bphoto/zmZHqMFTG1uYUsIPVeXFxg/o.jpg", "is_closed": false, "url": "https://www.yelp.com/biz/new-apolo-brooklyn-2?adjust_creative=9gNmiWYX8uTbFBeTTvJMdA&utm_campaign=yelp_api_v3&utm_medium=api_v3_business_search&utm_source=9gNmiWYX8uTbFBeTTvJMdA", "review_count": 166, "categories": [{"alias": "chinese", "title": "Chinese"}, {"alias": "spanish", "title": "Spanish"}], "rating": 3.5, "coordinates": {"latitude": 40.71078, "longitude": -73.95076}, "transactions": ["delivery"], "price": "$$", "location": {"address1": "508 Grand St", "address2": "", "address3": "", "city": "Brooklyn", "zip_code": "11211", "country": "US", "state": "NY", "display_address": ["508 Grand St", "Brooklyn, NY 11211"]}, "phone": "+17183871773", "display_phone": "(718) 387-1773", "distance": 5609.875475761163}, {"id": "s1uT-RIpz6X3dN-n3NeAZA", "alias": "lodi-chinatown-gourmet-kitchen-lodi", "name": "Lodi Chinatown Gourmet Kitchen", "image_url": "https://s3-media3.fl.yelpcdn.com/bphoto/yxvEQyhjfo0ld0G9IcsRhA/o.jpg", "is_closed": false, "url": "https://www.yelp.com/biz/lodi-chinatown-gourmet-kitchen-lodi?adjust_creative=9gNmiWYX8uTbFBeTTvJMdA&utm_campaign=yelp_api_v3&utm_medium=api_v3_business_search&utm_source=9gNmiWYX8uTbFBeTTvJMdA", "review_count": 73, "categories": [{"alias": "chinese", "title": "Chinese"}], "rating": 4.0, "coordinates": {"latitude": 40.8756476, "longitude": -74.0848824}, "transactions": ["delivery"], "price": "$", "location": {"address1": "25 Washington St", "address2": "", "address3": "", "city": "Lodi", "zip_code": "07644", "country": "US", "state": "NJ", "display_address": ["25 Washington St", "Lodi, NJ 07644"]}, "phone": "+19734720736", "display_phone": "(973) 472-0736", "distance": 16243.031864498824}, {"id": "741IMLpXPq755tDaEYXAtA", "alias": "joes-steam-rice-roll-\u77f3\u78e8\u8178\u7c89\u738b-flushing", "name": "Joe's Steam Rice Roll \u77f3\u78e8\u8178\u7c89\u738b", "image_url": "https://s3-media3.fl.yelpcdn.com/bphoto/95GJjZrUHFz6e2YJLLjawg/o.jpg", "is_closed": false, "url": "https://www.yelp.com/biz/joes-steam-rice-roll-%E7%9F%B3%E7%A3%A8%E8%85%B8%E7%B2%89%E7%8E%8B-flushing?adjust_creative=9gNmiWYX8uTbFBeTTvJMdA&utm_campaign=yelp_api_v3&utm_medium=api_v3_business_search&utm_source=9gNmiWYX8uTbFBeTTvJMdA", "review_count": 869, "categories": [{"alias": "dimsum", "title": "Dim Sum"}, {"alias": "cantonese", "title": "Cantonese"}, {"alias": "food_court", "title": "Food Court"}], "rating": 4.5, "coordinates": {"latitude": 40.76012, "longitude": -73.82941}, "transactions": ["pickup", "delivery"], "price": "$", "location": {"address1": "136-21 Roosevelt Ave", "address2": null, "address3": "", "city": "Flushing", "zip_code": "11354", "country": "US", "state": "NY", "display_address": ["136-21 Roosevelt Ave", "Flushing, NY 11354"]}, "phone": "+16462037380", "display_phone": "(646) 203-7380", "distance": 11811.2883325761}, {"id": "6OWMji5GiqRlRPZSb1lJ4A", "alias": "fay-da-bakery-new-york-10", "name": "Fay Da Bakery", "image_url": "https://s3-media2.fl.yelpcdn.com/bphoto/st651tWBABjosZZ-nj1GSg/o.jpg", "is_closed": false, "url": "https://www.yelp.com/biz/fay-da-bakery-new-york-10?adjust_creative=9gNmiWYX8uTbFBeTTvJMdA&utm_campaign=yelp_api_v3&utm_medium=api_v3_business_search&utm_source=9gNmiWYX8uTbFBeTTvJMdA", "review_count": 246, "categories": [{"alias": "bakeries", "title": "Bakeries"}, {"alias": "chinese", "title": "Chinese"}], "rating": 4.0, "coordinates": {"latitude": 40.73115, "longitude": -74.00176}, "transactions": ["pickup", "delivery"], "price": "$", "location": {"address1": "321 W 6th Ave", "address2": "", "address3": "", "city": "New York", "zip_code": "10012", "country": "US", "state": "NY", "display_address": ["321 W 6th Ave", "New York, NY 10012"]}, "phone": "+12122559888", "display_phone": "(212) 255-9888", "distance": 4128.71892701697}, {"id": "y8Z9Tos6qtDVd0X0QVm70g", "alias": "yoan-ming-garden-new-york", "name": "Yoan Ming Garden", "image_url": "https://s3-media1.fl.yelpcdn.com/bphoto/EARpNuHmSpgR-1E7vpusmQ/o.jpg", "is_closed": false, "url": "https://www.yelp.com/biz/yoan-ming-garden-new-york?adjust_creative=9gNmiWYX8uTbFBeTTvJMdA&utm_campaign=yelp_api_v3&utm_medium=api_v3_business_search&utm_source=9gNmiWYX8uTbFBeTTvJMdA", "review_count": 47, "categories": [{"alias": "chinese", "title": "Chinese"}], "rating": 3.0, "coordinates": {"latitude": 40.78819, "longitude": -73.95328}, "transactions": ["delivery"], "price": "$", "location": {"address1": "1407 Madison Ave", "address2": "", "address3": "", "city": "New York", "zip_code": "10029", "country": "US", "state": "NY", "display_address": ["1407 Madison Ave", "New York, NY 10029"]}, "phone": "+12124269545", "display_phone": "(212) 426-9545", "distance": 3505.247187071911}, {"id": "e03tT0hH6qU-_dR8pwFa0Q", "alias": "mr-wonton-sunnyside", "name": "Mr Wonton", "image_url": "https://s3-media2.fl.yelpcdn.com/bphoto/ApUN_SA0LL88HaRgyGtqUg/o.jpg", "is_closed": false, "url": "https://www.yelp.com/biz/mr-wonton-sunnyside?adjust_creative=9gNmiWYX8uTbFBeTTvJMdA&utm_campaign=yelp_api_v3&utm_medium=api_v3_business_search&utm_source=9gNmiWYX8uTbFBeTTvJMdA", "review_count": 59, "categories": [{"alias": "chinese", "title": "Chinese"}], "rating": 3.0, "coordinates": {"latitude": 40.743636, "longitude": -73.9202633}, "transactions": ["pickup", "delivery"], "price": "$", "location": {"address1": "4411 Queens Blvd", "address2": "", "address3": "", "city": "Sunnyside", "zip_code": "11104", "country": "US", "state": "NY", "display_address": ["4411 Queens Blvd", "Sunnyside, NY 11104"]}, "phone": "+17184332672", "display_phone": "(718) 433-2672", "distance": 4520.130858877427}, {"id": "XH2CNWlLU2HXROsT5NkCmA", "alias": "panda-express-new-york-19", "name": "Panda Express", "image_url": "https://s3-media4.fl.yelpcdn.com/bphoto/bvoXMrn9xX4axOj_V8EQgw/o.jpg", "is_closed": false, "url": "https://www.yelp.com/biz/panda-express-new-york-19?adjust_creative=9gNmiWYX8uTbFBeTTvJMdA&utm_campaign=yelp_api_v3&utm_medium=api_v3_business_search&utm_source=9gNmiWYX8uTbFBeTTvJMdA", "review_count": 134, "categories": [{"alias": "hotdogs", "title": "Fast Food"}, {"alias": "chinese", "title": "Chinese"}], "rating": 3.0, "coordinates": {"latitude": 40.75624, "longitude": -73.97012}, "transactions": ["pickup", "delivery"], "price": "$", "location": {"address1": "835 Third Ave", "address2": "", "address3": null, "city": "New York", "zip_code": "10022", "country": "US", "state": "NY", "display_address": ["835 Third Ave", "New York, NY 10022"]}, "phone": "+12123552821", "display_phone": "(212) 355-2821", "distance": 331.7809959285595}, {"id": "j61hBldPvd47MdLgeySlxQ", "alias": "chinah-brooklyn", "name": "Chinah", "image_url": "https://s3-media1.fl.yelpcdn.com/bphoto/MacBAcJ7W2Dkl9n3NHnOog/o.jpg", "is_closed": false, "url": "https://www.yelp.com/biz/chinah-brooklyn?adjust_creative=9gNmiWYX8uTbFBeTTvJMdA&utm_campaign=yelp_api_v3&utm_medium=api_v3_business_search&utm_source=9gNmiWYX8uTbFBeTTvJMdA", "review_count": 6, "categories": [{"alias": "chinese", "title": "Chinese"}], "rating": 4.5, "coordinates": {"latitude": 40.69359, "longitude": -73.9857}, "transactions": ["pickup", "delivery"], "location": {"address1": "2 Metrotech Ctr", "address2": null, "address3": "", "city": "Brooklyn", "zip_code": "11201", "country": "US", "state": "NY", "display_address": ["2 Metrotech Ctr", "Brooklyn, NY 11201"]}, "phone": "", "display_phone": "", "distance": 7439.018369956257}, {"id": "RLAs8M-IQfAgp551rkFNGg", "alias": "tasty-fusion-lyndhurst-2", "name": "Tasty Fusion", "image_url": "https://s3-media1.fl.yelpcdn.com/bphoto/UcYSOdEokiwFapwxw0UlzA/o.jpg", "is_closed": false, "url": "https://www.yelp.com/biz/tasty-fusion-lyndhurst-2?adjust_creative=9gNmiWYX8uTbFBeTTvJMdA&utm_campaign=yelp_api_v3&utm_medium=api_v3_business_search&utm_source=9gNmiWYX8uTbFBeTTvJMdA", "review_count": 137, "categories": [{"alias": "japanese", "title": "Japanese"}, {"alias": "chinese", "title": "Chinese"}, {"alias": "sushi", "title": "Sushi Bars"}], "rating": 4.0, "coordinates": {"latitude": 40.81505, "longitude": -74.11424}, "transactions": ["pickup", "delivery"], "price": "$$", "location": {"address1": "33 Ridge Rd", "address2": "", "address3": "", "city": "Lyndhurst", "zip_code": "07071", "country": "US", "state": "NJ", "display_address": ["33 Ridge Rd", "Lyndhurst, NJ 07071"]}, "phone": "+12019394567", "display_phone": "(201) 939-4567", "distance": 13675.894915902325}, {"id": "JvkUu0bpYEEPOvZWyBtTUw", "alias": "kpot-korean-bbq-and-hot-pot-englewood", "name": "KPOT Korean BBQ & Hot Pot", "image_url": "https://s3-media2.fl.yelpcdn.com/bphoto/Aens7Vgy5BBmTxymqU-KqQ/o.jpg", "is_closed": false, "url": "https://www.yelp.com/biz/kpot-korean-bbq-and-hot-pot-englewood?adjust_creative=9gNmiWYX8uTbFBeTTvJMdA&utm_campaign=yelp_api_v3&utm_medium=api_v3_business_search&utm_source=9gNmiWYX8uTbFBeTTvJMdA", "review_count": 104, "categories": [{"alias": "korean", "title": "Korean"}, {"alias": "bbq", "title": "Barbeque"}, {"alias": "hotpot", "title": "Hot Pot"}], "rating": 4.0, "coordinates": {"latitude": 40.8957, "longitude": -73.97458}, "transactions": [], "location": {"address1": "45 Nathaniel Pl", "address2": "", "address3": null, "city": "Englewood", "zip_code": "07631", "country": "US", "state": "NJ", "display_address": ["45 Nathaniel Pl", "Englewood, NJ 07631"]}, "phone": "+12015698888", "display_phone": "(201) 569-8888", "distance": 15197.041649286279}, {"id": "fa5a7jksUak7yleWLWMigg", "alias": "joe-s-steam-rice-roll-new-york-2", "name": "Joe\u2019s Steam Rice Roll", "image_url": "https://s3-media4.fl.yelpcdn.com/bphoto/0xIB2ddFGLF2KfAcD2YIeQ/o.jpg", "is_closed": false, "url": "https://www.yelp.com/biz/joe-s-steam-rice-roll-new-york-2?adjust_creative=9gNmiWYX8uTbFBeTTvJMdA&utm_campaign=yelp_api_v3&utm_medium=api_v3_business_search&utm_source=9gNmiWYX8uTbFBeTTvJMdA", "review_count": 466, "categories": [{"alias": "hkcafe", "title": "Hong Kong Style Cafe"}, {"alias": "cantonese", "title": "Cantonese"}, {"alias": "dimsum", "title": "Dim Sum"}], "rating": 4.0, "coordinates": {"latitude": 40.7190194496717, "longitude": -74.0008207038045}, "transactions": ["pickup", "delivery"], "price": "$", "location": {"address1": "261 Canal St", "address2": "", "address3": null, "city": "New York", "zip_code": "10013", "country": "US", "state": "NY", "display_address": ["261 Canal St", "New York, NY 10013"]}, "phone": "+17188780828", "display_phone": "(718) 878-0828", "distance": 5183.3535975549075}], "total": 3300, "region": {"center": {"longitude": -73.96957397460938, "latitude": 40.75917470627005}}}