{"businesses": [{"id": "fa5a7jksUak7yleWLWMigg", "alias": "joe-s-steam-rice-roll-new-york-2", "name": "Joe\u2019s Steam Rice Roll", "image_url": "https://s3-media4.fl.yelpcdn.com/bphoto/0xIB2ddFGLF2KfAcD2YIeQ/o.jpg", "is_closed": false, "url": "https://www.yelp.com/biz/joe-s-steam-rice-roll-new-york-2?adjust_creative=9gNmiWYX8uTbFBeTTvJMdA&utm_campaign=yelp_api_v3&utm_medium=api_v3_business_search&utm_source=9gNmiWYX8uTbFBeTTvJMdA", "review_count": 466, "categories": [{"alias": "hkcafe", "title": "Hong Kong Style Cafe"}, {"alias": "cantonese", "title": "Cantonese"}, {"alias": "dimsum", "title": "Dim Sum"}], "rating": 4.0, "coordinates": {"latitude": 40.7190194496717, "longitude": -74.0008207038045}, "transactions": ["pickup", "delivery"], "price": "$", "location": {"address1": "261 Canal St", "address2": "", "address3": null, "city": "New York", "zip_code": "10013", "country": "US", "state": "NY", "display_address": ["261 Canal St", "New York, NY 10013"]}, "phone": "+17188780828", "display_phone": "(718) 878-0828", "distance": 5183.3535975549075}, {"id": "AvTezlpt3GXTdSEnXbHP4w", "alias": "fatimas-halal-kitchen-jamaica-ny", "name": "Fatima's Halal Kitchen", "image_url": "https://s3-media4.fl.yelpcdn.com/bphoto/2JcaHmMgC5QpB1P98RAn-w/o.jpg", "is_closed": false, "url": "https://www.yelp.com/biz/fatimas-halal-kitchen-jamaica-ny?adjust_creative=9gNmiWYX8uTbFBeTTvJMdA&utm_campaign=yelp_api_v3&utm_medium=api_v3_business_search&utm_source=9gNmiWYX8uTbFBeTTvJMdA", "review_count": 421, "categories": [{"alias": "chinese", "title": "Chinese"}, {"alias": "halal", "title": "Halal"}], "rating": 4.0, "coordinates": {"latitude": 40.71496339999999, "longitude": -73.80743509999999}, "transactions": ["delivery"], "price": "$", "location": {"address1": "83-25 Parsons Blvd", "address2": "", "address3": "", "city": "Jamaica NY", "zip_code": "11432", "country": "US", "state": "NY", "display_address": ["83-25 Parsons Blvd", "Jamaica NY, NY 11432"]}, "phone": "+17182914999", "display_phone": "(718) 291-4999", "distance": 14518.435059650064}, {"id": "v2783z5F7lkcltVwxJeT6w", "alias": "cho-zen-new-york", "name": "Cho-Zen", "image_url": "https://s3-media4.fl.yelpcdn.com/bphoto/LgauSWMNSwiY44imk_iU2w/o.jpg", "is_closed": false, "url": "https://www.yelp.com/biz/cho-zen-new-york?adjust_creative=9gNmiWYX8uTbFBeTTvJMdA&utm_campaign=yelp_api_v3&utm_medium=api_v3_business_search&utm_source=9gNmiWYX8uTbFBeTTvJMdA", "review_count": 8, "categories": [{"alias": "chinese", "title": "Chinese"}], "rating": 3.0, "coordinates": {"latitude": 40.77449, "longitude": -73.95444}, "transactions": [], "location": {"address1": "1553 2nd Ave", "address2": "", "address3": null, "city": "New York", "zip_code": "10028", "country": "US", "state": "NY", "display_address": ["1553 2nd Ave", "New York, NY 10028"]}, "phone": "", "display_phone": "", "distance": 2126.8856323450145}, {"id": "Tjo8JXQzoBwvw_QYicejiw", "alias": "ding-food-market-harrison", "name": "Ding Food Market", "image_url": "https://s3-media2.fl.yelpcdn.com/bphoto/moMBT1XgbSExob7-1gtAiQ/o.jpg", "is_closed": false, "url": "https://www.yelp.com/biz/ding-food-market-harrison?adjust_creative=9gNmiWYX8uTbFBeTTvJMdA&utm_campaign=yelp_api_v3&utm_medium=api_v3_business_search&utm_source=9gNmiWYX8uTbFBeTTvJMdA", "review_count": 131, "categories": [{"alias": "japanese", "title": "Japanese"}, {"alias": "taiwanese", "title": "Taiwanese"}, {"alias": "asianfusion", "title": "Asian Fusion"}], "rating": 5.0, "coordinates": {"latitude": 40.7461823757412, "longitude": -74.1584174860186}, "transactions": ["pickup", "delivery"], "location": {"address1": "241 Harrison Ave", "address2": null, "address3": "", "city": "Harrison", "zip_code": "07029", "country": "US", "state": "NJ", "display_address": ["241 Harrison Ave", "Harrison, NJ 07029"]}, "phone": "+18627724234", "display_phone": "(862) 772-4234", "distance": 15970.280553689421}, {"id": "rPTX2J5KGDkN1QhPD-QOvg", "alias": "bites-of-xian-brooklyn", "name": "Bites of Xi'an", "image_url": "https://s3-media2.fl.yelpcdn.com/bphoto/SiWrJqq1wyIbUWFbhjgoXQ/o.jpg", "is_closed": false, "url": "https://www.yelp.com/biz/bites-of-xian-brooklyn?adjust_creative=9gNmiWYX8uTbFBeTTvJMdA&utm_campaign=yelp_api_v3&utm_medium=api_v3_business_search&utm_source=9gNmiWYX8uTbFBeTTvJMdA", "review_count": 199, "categories": [{"alias": "chinese", "title": "Chinese"}], "rating": 4.5, "coordinates": {"latitude": 40.68807, "longitude": -73.98199}, "transactions": ["delivery"], "price": "$", "location": {"address1": "318 Livingston St", "address2": "", "address3": null, "city": "Brooklyn", "zip_code": "11217", "country": "US", "state": "NY", "display_address": ["318 Livingston St", "Brooklyn, NY 11217"]}, "phone": "+13478896725", "display_phone": "(347) 889-6725", "distance": 7975.405099816292}, {"id": "MLeE8S5hy70A3CEqp2lD8w", "alias": "gorin-ramen-new-york-5", "name": "Gorin Ramen", "image_url": "https://s3-media4.fl.yelpcdn.com/bphoto/qJJHCucDeHdY134j8Wg6wQ/o.jpg", "is_closed": false, "url": "https://www.yelp.com/biz/gorin-ramen-new-york-5?adjust_creative=9gNmiWYX8uTbFBeTTvJMdA&utm_campaign=yelp_api_v3&utm_medium=api_v3_business_search&utm_source=9gNmiWYX8uTbFBeTTvJMdA", "review_count": 97, "categories": [{"alias": "ramen", "title": "Ramen"}, {"alias": "noodles", "title": "Noodles"}, {"alias": "izakaya", "title": "Izakaya"}], "rating": 4.0, "coordinates": {"latitude": 40.731646, "longitude": -73.98284}, "transactions": ["delivery", "pickup"], "price": "$$", "location": {"address1": "351 E 14th St", "address2": null, "address3": "", "city": "New York", "zip_code": "10003", "country": "US", "state": "NY", "display_address": ["351 E 14th St", "New York, NY 10003"]}, "phone": "+19176756369", "display_phone": "(917) 675-6369", "distance": 3255.6156358310245}, {"id": "T_72OxeFKvdzX-mKEztHdQ", "alias": "flame-bronx-2", "name": "Flame", "image_url": "https://s3-media2.fl.yelpcdn.com/bphoto/OAzc3FrYV0Vs0kKTjVLGdw/o.jpg", "is_closed": false, "url": "https://www.yelp.com/biz/flame-bronx-2?adjust_creative=9gNmiWYX8uTbFBeTTvJMdA&utm_campaign=yelp_api_v3&utm_medium=api_v3_business_search&utm_source=9gNmiWYX8uTbFBeTTvJMdA", "review_count": 168, "categories": [{"alias": "asianfusion", "title": "Asian Fusion"}, {"alias": "teppanyaki", "title": "Teppanyaki"}, {"alias": "sushi", "title": "Sushi Bars"}], "rating": 4.0, "coordinates": {"latitude": 40.882742, "longitude": -73.901366}, "transactions": ["restaurant_reservation", "pickup"], "price": "$$$", "location": {"address1": "5740 Broadway", "address2": "Unit 5", "address3": null, "city": "Bronx", "zip_code": "10463", "country": "US", "state": "NY", "display_address": ["5740 Broadway", "Unit 5", "Bronx, NY 10463"]}, "phone": "+17188842828", "display_phone": "(718) 884-2828", "distance": 14888.177614187316}, {"id": "QU_ljYO36XAj1Oen-iWRiA", "alias": "hua-cheng-restaurant-new-york", "name": "Hua Cheng Restaurant", "image_url": "https://s3-media3.fl.yelpcdn.com/bphoto/OZ0GJFoNqBu-8focisMn-w/o.jpg", "is_closed": false, "url": "https://www.yelp.com/biz/hua-cheng-restaurant-new-york?adjust_creative=9gNmiWYX8uTbFBeTTvJMdA&utm_campaign=yelp_api_v3&utm_medium=api_v3_business_search&utm_source=9gNmiWYX8uTbFBeTTvJMdA", "review_count": 4, "categories": [{"alias": "chinese", "title": "Chinese"}, {"alias": "seafood", "title": "Seafood"}, {"alias": "soup", "title": "Soup"}], "rating": 3.0, "coordinates": {"latitude": 40.75839368535044, "longitude": -73.99257338862277}, "transactions": ["pickup", "delivery"], "location": {"address1": "578 9th Ave", "address2": "", "address3": null, "city": "New York", "zip_code": "10036", "country": "US", "state": "NY", "display_address": ["578 9th Ave", "New York, NY 10036"]}, "phone": "+16468691888", "display_phone": "(646) 869-1888", "distance": 1939.0980589025762}, {"id": "ZBuUVSietNeZ0sCD7Z7Hdg", "alias": "crispy-bamboo-village-new-york", "name": "Crispy Bamboo Village", "image_url": "https://s3-media2.fl.yelpcdn.com/bphoto/KiZWcb7_GzEn5ojFSK0rOw/o.jpg", "is_closed": false, "url": "https://www.yelp.com/biz/crispy-bamboo-village-new-york?adjust_creative=9gNmiWYX8uTbFBeTTvJMdA&utm_campaign=yelp_api_v3&utm_medium=api_v3_business_search&utm_source=9gNmiWYX8uTbFBeTTvJMdA", "review_count": 24, "categories": [{"alias": "asianfusion", "title": "Asian Fusion"}], "rating": 4.5, "coordinates": {"latitude": 40.8160789713508, "longitude": -73.9466381763074}, "transactions": ["pickup"], "price": "$", "location": {"address1": "2526 Frederick Douglass B", "address2": "", "address3": "", "city": "New York", "zip_code": "10030", "country": "US", "state": "NY", "display_address": ["2526 Frederick Douglass B", "New York, NY 10030"]}, "phone": "+12126945391", "display_phone": "(212) 694-5391", "distance": 6615.536345959458}, {"id": "lKxmH-hQ6ezKbq4URKrd-Q", "alias": "may-wah-fast-food-new-york-3", "name": "May Wah Fast Food", "image_url": "https://s3-media1.fl.yelpcdn.com/bphoto/-yXFJdbLspki2pqG-eeKgA/o.jpg", "is_closed": false, "url": "https://www.yelp.com/biz/may-wah-fast-food-new-york-3?adjust_creative=9gNmiWYX8uTbFBeTTvJMdA&utm_campaign=yelp_api_v3&utm_medium=api_v3_business_search&utm_source=9gNmiWYX8uTbFBeTTvJMdA", "review_count": 413, "categories": [{"alias": "chinese", "title": "Chinese"}, {"alias": "taiwanese", "title": "Taiwanese"}], "rating": 4.0, "coordinates": {"latitude": 40.71825, "longitude": -73.99842}, "transactions": ["pickup", "delivery"], "price": "$", "location": {"address1": "190 Hester St", "address2": "", "address3": "", "city": "New York", "zip_code": "10013", "country": "US", "state": "NY", "display_address": ["190 Hester St", "New York, NY 10013"]}, "phone": "+12129256428", "display_phone": "(212) 925-6428", "distance": 5165.089630038785}, {"id": "nZnJ5bNiQn1r4LWgqDeW2Q", "alias": "old-shanghai-soup-dumpling-palisades-park-2", "name": "Old Shanghai Soup Dumpling", "image_url": "https://s3-media2.fl.yelpcdn.com/bphoto/kMPTXKQJZgL4s-abz1AZ6g/o.jpg", "is_closed": false, "url": "https://www.yelp.com/biz/old-shanghai-soup-dumpling-palisades-park-2?adjust_creative=9gNmiWYX8uTbFBeTTvJMdA&utm_campaign=yelp_api_v3&utm_medium=api_v3_business_search&utm_source=9gNmiWYX8uTbFBeTTvJMdA", "review_count": 227, "categories": [{"alias": "shanghainese", "title": "Shanghainese"}], "rating": 4.5, "coordinates": {"latitude": 40.84531808831437, "longitude": -73.99993036589412}, "transactions": ["pickup", "delivery"], "price": "$$", "location": {"address1": "133 Broad Ave", "address2": null, "address3": "", "city": "Palisades Park", "zip_code": "07650", "country": "US", "state": "NJ", "display_address": ["133 Broad Ave", "Palisades Park, NJ 07650"]}, "phone": "+12014828088", "display_phone": "(201) 482-8088", "distance": 9913.632520259182}, {"id": "cCHkQ5oISNafWnLoBpsagg", "alias": "yue-wong-restaurant-new-york", "name": "Yue Wong Restaurant", "image_url": "https://s3-media3.fl.yelpcdn.com/bphoto/BfNVpWMYneDKUFvV28u0YA/o.jpg", "is_closed": false, "url": "https://www.yelp.com/biz/yue-wong-restaurant-new-york?adjust_creative=9gNmiWYX8uTbFBeTTvJMdA&utm_campaign=yelp_api_v3&utm_medium=api_v3_business_search&utm_source=9gNmiWYX8uTbFBeTTvJMdA", "review_count": 38, "categories": [{"alias": "chinese", "title": "Chinese"}], "rating": 3.5, "coordinates": {"latitude": 40.71547, "longitude": -73.99779}, "transactions": ["delivery"], "location": {"address1": "60 Bayard St", "address2": "", "address3": null, "city": "New York", "zip_code": "10013", "country": "US", "state": "NY", "display_address": ["60 Bayard St", "New York, NY 10013"]}, "phone": "+16466092331", "display_phone": "(646) 609-2331", "distance": 5410.206700907709}, {"id": "rHA9M0XOJL6O11xaEiDurA", "alias": "new-kam-lai-new-york-3", "name": "New Kam Lai", "image_url": "https://s3-media1.fl.yelpcdn.com/bphoto/0w9wpuar1DCYqAZTG8UPkw/o.jpg", "is_closed": false, "url": "https://www.yelp.com/biz/new-kam-lai-new-york-3?adjust_creative=9gNmiWYX8uTbFBeTTvJMdA&utm_campaign=yelp_api_v3&utm_medium=api_v3_business_search&utm_source=9gNmiWYX8uTbFBeTTvJMdA", "review_count": 73, "categories": [{"alias": "chinese", "title": "Chinese"}], "rating": 3.0, "coordinates": {"latitude": 40.7988096, "longitude": -73.96714639885978}, "transactions": ["pickup", "delivery"], "price": "$", "location": {"address1": "708 Amsterdam Ave", "address2": "", "address3": "", "city": "New York", "zip_code": "10025", "country": "US", "state": "NY", "display_address": ["708 Amsterdam Ave", "New York, NY 10025"]}, "phone": "+12127498990", "display_phone": "(212) 749-8990", "distance": 4411.931719630882}, {"id": "ZRzSjuR2MA3-2Ay3VTzXXQ", "alias": "kitchen-paradise-new-york", "name": "Kitchen Paradise", "image_url": "https://s3-media2.fl.yelpcdn.com/bphoto/vTQmtNkFTyw7FY3xDTo_Gw/o.jpg", "is_closed": false, "url": "https://www.yelp.com/biz/kitchen-paradise-new-york?adjust_creative=9gNmiWYX8uTbFBeTTvJMdA&utm_campaign=yelp_api_v3&utm_medium=api_v3_business_search&utm_source=9gNmiWYX8uTbFBeTTvJMdA", "review_count": 11, "categories": [{"alias": "chinese", "title": "Chinese"}], "rating": 3.5, "coordinates": {"latitude": 40.75809, "longitude": -73.98026}, "transactions": ["pickup", "delivery"], "location": {"address1": "48 W 48th St", "address2": null, "address3": "", "city": "New York", "zip_code": "10036", "country": "US", "state": "NY", "display_address": ["48 W 48th St", "New York, NY 10036"]}, "phone": "+12127191788", "display_phone": "(212) 719-1788", "distance": 922.4354272645517}, {"id": "U2x299aFPwXRYXlMxyO4tw", "alias": "new-golden-dragon-restaurant-new-york", "name": "New Golden Dragon Restaurant", "image_url": "https://s3-media3.fl.yelpcdn.com/bphoto/fahrKno6hWIRA3MdJFDTig/o.jpg", "is_closed": false, "url": "https://www.yelp.com/biz/new-golden-dragon-restaurant-new-york?adjust_creative=9gNmiWYX8uTbFBeTTvJMdA&utm_campaign=yelp_api_v3&utm_medium=api_v3_business_search&utm_source=9gNmiWYX8uTbFBeTTvJMdA", "review_count": 38, "categories": [{"alias": "chinese", "title": "Chinese"}], "rating": 4.0, "coordinates": {"latitude": 40.8242006, "longitude": -73.9455163}, "transactions": [], "price": "$", "location": {"address1": "398 W 145th St", "address2": "", "address3": "", "city": "New York", "zip_code": "10031", "country": "US", "state": "NY", "display_address": ["398 W 145th St", "New York, NY 10031"]}, "phone": "+12122830200", "display_phone": "(212) 283-0200", "distance": 7504.4443820968745}, {"id": "3NHexRXpc3Asuo0elQcDSw", "alias": "double-happiness-palace-bayside", "name": "Double Happiness Palace", "image_url": "https://s3-media3.fl.yelpcdn.com/bphoto/l2gwGzmsKhg8yXExvNclaA/o.jpg", "is_closed": false, "url": "https://www.yelp.com/biz/double-happiness-palace-bayside?adjust_creative=9gNmiWYX8uTbFBeTTvJMdA&utm_campaign=yelp_api_v3&utm_medium=api_v3_business_search&utm_source=9gNmiWYX8uTbFBeTTvJMdA", "review_count": 92, "categories": [{"alias": "chinese", "title": "Chinese"}], "rating": 4.5, "coordinates": {"latitude": 40.7598509, "longitude": -73.7707248}, "transactions": [], "price": "$$", "location": {"address1": "212-12 Northern Blvd", "address2": "", "address3": null, "city": "Bayside", "zip_code": "11361", "country": "US", "state": "NY", "display_address": ["212-12 Northern Blvd", "Bayside, NY 11361"]}, "phone": "+17187722222", "display_phone": "(718) 772-2222", "distance": 16745.608488780195}, {"id": "V2P3CWfUW_olSywlOlHGjQ", "alias": "asian-fusion-north-bergen", "name": "Asian Fusion", "image_url": "https://s3-media1.fl.yelpcdn.com/bphoto/fBCEHMkJquis-p9g4hNLTA/o.jpg", "is_closed": false, "url": "https://www.yelp.com/biz/asian-fusion-north-bergen?adjust_creative=9gNmiWYX8uTbFBeTTvJMdA&utm_campaign=yelp_api_v3&utm_medium=api_v3_business_search&utm_source=9gNmiWYX8uTbFBeTTvJMdA", "review_count": 147, "categories": [{"alias": "asianfusion", "title": "Asian Fusion"}, {"alias": "sushi", "title": "Sushi Bars"}], "rating": 4.5, "coordinates": {"latitude": 40.80165, "longitude": -74.00705}, "transactions": ["pickup", "delivery"], "price": "$$", "location": {"address1": "7827 Bergenline Ave", "address2": "", "address3": null, "city": "North Bergen", "zip_code": "07047", "country": "US", "state": "NJ", "display_address": ["7827 Bergenline Ave", "North Bergen, NJ 07047"]}, "phone": "+12015909017", "display_phone": "(201) 590-9017", "distance": 5677.5358611222555}, {"id": "Wa_-nKA-IWYMN15YagHr9w", "alias": "kinsen-queens", "name": "Kin Sen", "image_url": "https://s3-media1.fl.yelpcdn.com/bphoto/GBXqpQl-sPkTFTs__nBkCg/o.jpg", "is_closed": false, "url": "https://www.yelp.com/biz/kinsen-queens?adjust_creative=9gNmiWYX8uTbFBeTTvJMdA&utm_campaign=yelp_api_v3&utm_medium=api_v3_business_search&utm_source=9gNmiWYX8uTbFBeTTvJMdA", "review_count": 8, "categories": [{"alias": "thai", "title": "Thai"}, {"alias": "noodles", "title": "Noodles"}], "rating": 4.5, "coordinates": {"latitude": 40.741724, "longitude": -73.878682}, "transactions": ["pickup", "delivery"], "location": {"address1": "86-08 Whitney Ave", "address2": "", "address3": null, "city": "Queens", "zip_code": "11373", "country": "US", "state": "NY", "display_address": ["86-08 Whitney Ave", "Queens, NY 11373"]}, "phone": "+17182055181", "display_phone": "(718) 205-5181", "distance": 7905.229164051189}, {"id": "iKW9zBGWfE9CM6MfK0UtjA", "alias": "fong-on-new-york", "name": "Fong On", "image_url": "https://s3-media1.fl.yelpcdn.com/bphoto/cSQgd2GVzqQUx4BpAN4DYg/o.jpg", "is_closed": false, "url": "https://www.yelp.com/biz/fong-on-new-york?adjust_creative=9gNmiWYX8uTbFBeTTvJMdA&utm_campaign=yelp_api_v3&utm_medium=api_v3_business_search&utm_source=9gNmiWYX8uTbFBeTTvJMdA", "review_count": 236, "categories": [{"alias": "chinese", "title": "Chinese"}, {"alias": "desserts", "title": "Desserts"}], "rating": 4.5, "coordinates": {"latitude": 40.7141678, "longitude": -73.99370557235935}, "transactions": ["delivery"], "price": "$", "location": {"address1": "81 Division St", "address2": "", "address3": "", "city": "New York", "zip_code": "10002", "country": "US", "state": "NY", "display_address": ["81 Division St", "New York, NY 10002"]}, "phone": "+19172617222", "display_phone": "(917) 261-7222", "distance": 5401.77872196259}, {"id": "xNLwx39xvgn95aTzGLpQBw", "alias": "ja-moy-kitchen-and-bar-new-york", "name": "Ja Moy kitchen & bar", "image_url": "https://s3-media3.fl.yelpcdn.com/bphoto/cHQRFxmrlLT8oquOKfdqUw/o.jpg", "is_closed": false, "url": "https://www.yelp.com/biz/ja-moy-kitchen-and-bar-new-york?adjust_creative=9gNmiWYX8uTbFBeTTvJMdA&utm_campaign=yelp_api_v3&utm_medium=api_v3_business_search&utm_source=9gNmiWYX8uTbFBeTTvJMdA", "review_count": 10, "categories": [{"alias": "asianfusion", "title": "Asian Fusion"}], "rating": 5.0, "coordinates": {"latitude": 40.72871, "longitude": -73.99932}, "transactions": [], "location": {"address1": "208 Thompson St", "address2": null, "address3": "", "city": "New York", "zip_code": "10012", "country": "US", "state": "NY", "display_address": ["208 Thompson St", "New York, NY 10012"]}, "phone": "+16465900122", "display_phone": "(646) 590-0122", "distance": 4211.648230601547}, {"id": "ikVDSp8YhAYuy0Lua1hpDA", "alias": "great-wall-new-york", "name": "Great Wall", "image_url": "https://s3-media2.fl.yelpcdn.com/bphoto/lbjHDj-AUm5Kjhw9BD7w0Q/o.jpg", "is_closed": false, "url": "https://www.yelp.com/biz/great-wall-new-york?adjust_creative=9gNmiWYX8uTbFBeTTvJMdA&utm_campaign=yelp_api_v3&utm_medium=api_v3_business_search&utm_source=9gNmiWYX8uTbFBeTTvJMdA", "review_count": 15, "categories": [{"alias": "chinese", "title": "Chinese"}], "rating": 4.0, "coordinates": {"latitude": 40.795074, "longitude": -73.935684}, "transactions": [], "price": "$", "location": {"address1": "2234 1st Ave", "address2": "", "address3": "", "city": "New York", "zip_code": "10029", "country": "US", "state": "NY", "display_address": ["2234 1st Ave", "New York, NY 10029"]}, "phone": "+12124264888", "display_phone": "(212) 426-4888", "distance": 4902.957660041877}, {"id": "JX5QkNfMd-jP-Nz5iQ_QeA", "alias": "thai-nara-halal-restaurant-woodside", "name": "Thai Nara Halal Restaurant", "image_url": "https://s3-media4.fl.yelpcdn.com/bphoto/OklqHpagk2KdMmSYFqj_Xg/o.jpg", "is_closed": false, "url": "https://www.yelp.com/biz/thai-nara-halal-restaurant-woodside?adjust_creative=9gNmiWYX8uTbFBeTTvJMdA&utm_campaign=yelp_api_v3&utm_medium=api_v3_business_search&utm_source=9gNmiWYX8uTbFBeTTvJMdA", "review_count": 74, "categories": [{"alias": "thai", "title": "Thai"}, {"alias": "halal", "title": "Halal"}, {"alias": "malaysian", "title": "Malaysian"}], "rating": 4.5, "coordinates": {"latitude": 40.75011, "longitude": -73.89848}, "transactions": ["pickup", "delivery"], "price": "$$", "location": {"address1": "64-02 35th Ave", "address2": null, "address3": "", "city": "Woodside", "zip_code": "11377", "country": "US", "state": "NY", "display_address": ["64-02 35th Ave", "Woodside, NY 11377"]}, "phone": "+17186068842", "display_phone": "(718) 606-8842", "distance": 6072.54403101505}, {"id": "Jr8S-deYDqbDoo-eJI7nyg", "alias": "empire-szechuan-garden-sunnyside", "name": "Empire Szechuan Garden", "image_url": "https://s3-media4.fl.yelpcdn.com/bphoto/0ekDTslkoOMhPHpF4JtjUw/o.jpg", "is_closed": false, "url": "https://www.yelp.com/biz/empire-szechuan-garden-sunnyside?adjust_creative=9gNmiWYX8uTbFBeTTvJMdA&utm_campaign=yelp_api_v3&utm_medium=api_v3_business_search&utm_source=9gNmiWYX8uTbFBeTTvJMdA", "review_count": 56, "categories": [{"alias": "chinese", "title": "Chinese"}], "rating": 3.5, "coordinates": {"latitude": 40.7442226, "longitude": -73.9186565}, "transactions": ["pickup", "delivery"], "price": "$", "location": {"address1": "4342 46th St", "address2": "", "address3": "", "city": "Sunnyside", "zip_code": "11104", "country": "US", "state": "NY", "display_address": ["4342 46th St", "Sunnyside, NY 11104"]}, "phone": "+17183619625", "display_phone": "(718) 361-9625", "distance": 4613.711963671876}, {"id": "dfm69NWJMqvLbQBKlaFd7w", "alias": "hung-chow-restaurant-new-york", "name": "Hung Chow Restaurant", "image_url": "https://s3-media2.fl.yelpcdn.com/bphoto/09GrSGyMftVfHG5w1H6vYQ/o.jpg", "is_closed": false, "url": "https://www.yelp.com/biz/hung-chow-restaurant-new-york?adjust_creative=9gNmiWYX8uTbFBeTTvJMdA&utm_campaign=yelp_api_v3&utm_medium=api_v3_business_search&utm_source=9gNmiWYX8uTbFBeTTvJMdA", "review_count": 4, "categories": [{"alias": "chinese", "title": "Chinese"}], "rating": 4.0, "coordinates": {"latitude": 40.8027, "longitude": -73.93688}, "transactions": ["delivery", "pickup"], "location": {"address1": "2266 3rd Ave", "address2": "", "address3": "", "city": "New York", "zip_code": "10035", "country": "US", "state": "NY", "display_address": ["2266 3rd Ave", "New York, NY 10035"]}, "phone": "+12125345266", "display_phone": "(212) 534-5266", "distance": 5569.036040850195}, {"id": "TbbpihlBxYidyE_O65Ajbw", "alias": "hay-hay-roasted-new-york", "name": "Hay Hay Roasted", "image_url": "https://s3-media4.fl.yelpcdn.com/bphoto/re9k33nxsklypYYAChdzew/o.jpg", "is_closed": false, "url": "https://www.yelp.com/biz/hay-hay-roasted-new-york?adjust_creative=9gNmiWYX8uTbFBeTTvJMdA&utm_campaign=yelp_api_v3&utm_medium=api_v3_business_search&utm_source=9gNmiWYX8uTbFBeTTvJMdA", "review_count": 137, "categories": [{"alias": "chinese", "title": "Chinese"}], "rating": 4.0, "coordinates": {"latitude": 40.71663080185816, "longitude": -73.9981349}, "transactions": ["pickup", "delivery"], "location": {"address1": "81 Mott St", "address2": "", "address3": null, "city": "New York", "zip_code": "10013", "country": "US", "state": "NY", "display_address": ["81 Mott St", "New York, NY 10013"]}, "phone": "+19176756651", "display_phone": "(917) 675-6651", "distance": 5307.503167739173}, {"id": "McU7XI3HoWFELTDaGc1SEw", "alias": "ginger-and-lemongrass-new-york-2", "name": "Ginger and Lemongrass", "image_url": "https://s3-media2.fl.yelpcdn.com/bphoto/5hhRpvAVpgvVt_DC7Ii_-Q/o.jpg", "is_closed": false, "url": "https://www.yelp.com/biz/ginger-and-lemongrass-new-york-2?adjust_creative=9gNmiWYX8uTbFBeTTvJMdA&utm_campaign=yelp_api_v3&utm_medium=api_v3_business_search&utm_source=9gNmiWYX8uTbFBeTTvJMdA", "review_count": 550, "categories": [{"alias": "vietnamese", "title": "Vietnamese"}, {"alias": "thai", "title": "Thai"}, {"alias": "asianfusion", "title": "Asian Fusion"}], "rating": 4.0, "coordinates": {"latitude": 40.71912, "longitude": -73.98567}, "transactions": ["pickup", "delivery"], "price": "$$", "location": {"address1": "153 Rivington St", "address2": null, "address3": "", "city": "New York", "zip_code": "10002", "country": "US", "state": "NY", "display_address": ["153 Rivington St", "New York, NY 10002"]}, "phone": "+16468761237", "display_phone": "(646) 876-1237", "distance": 4654.519222792705}, {"id": "_7jEITBmNIMD73_ni89MaQ", "alias": "kpot-korean-bbq-and-hot-pot-jersey-city-3", "name": "KPOT Korean BBQ & Hot Pot", "image_url": "https://s3-media2.fl.yelpcdn.com/bphoto/FmDt4B8FCRj9uzLHdbvbNA/o.jpg", "is_closed": false, "url": "https://www.yelp.com/biz/kpot-korean-bbq-and-hot-pot-jersey-city-3?adjust_creative=9gNmiWYX8uTbFBeTTvJMdA&utm_campaign=yelp_api_v3&utm_medium=api_v3_business_search&utm_source=9gNmiWYX8uTbFBeTTvJMdA", "review_count": 267, "categories": [{"alias": "korean", "title": "Korean"}, {"alias": "bbq", "title": "Barbeque"}, {"alias": "hotpot", "title": "Hot Pot"}], "rating": 4.0, "coordinates": {"latitude": 40.71834, "longitude": -74.0529}, "transactions": ["pickup", "delivery"], "price": "$$", "location": {"address1": "414 Grand St", "address2": null, "address3": "", "city": "Jersey City", "zip_code": "07302", "country": "US", "state": "NJ", "display_address": ["414 Grand St", "Jersey City, NJ 07302"]}, "phone": "+12013569528", "display_phone": "(201) 356-9528", "distance": 8374.527485512628}, {"id": "S7ivv5O0beH3U9cV3cRD_Q", "alias": "jujube-tree-astoria", "name": "Jujube Tree", "image_url": "https://s3-media4.fl.yelpcdn.com/bphoto/SlDciDQrgQ5kMtLJPk6cmA/o.jpg", "is_closed": false, "url": "https://www.yelp.com/biz/jujube-tree-astoria?adjust_creative=9gNmiWYX8uTbFBeTTvJMdA&utm_campaign=yelp_api_v3&utm_medium=api_v3_business_search&utm_source=9gNmiWYX8uTbFBeTTvJMdA", "review_count": 427, "categories": [{"alias": "vegan", "title": "Vegan"}, {"alias": "asianfusion", "title": "Asian Fusion"}], "rating": 4.5, "coordinates": {"latitude": 40.76512, "longitude": -73.91821}, "transactions": ["pickup", "delivery"], "price": "$$", "location": {"address1": "35-02 30th Ave", "address2": "", "address3": "", "city": "Astoria", "zip_code": "11103", "country": "US", "state": "NY", "display_address": ["35-02 30th Ave", "Astoria, NY 11103"]}, "phone": "+17185451888", "display_phone": "(718) 545-1888", "distance": 4376.905196863845}, {"id": "LpSjWO4ZU6rbxGUetRp1mA", "alias": "king-dumplings-new-york-2", "name": "King Dumplings", "image_url": "https://s3-media4.fl.yelpcdn.com/bphoto/7uG5hTJKhLMF3_ZfttbkCg/o.jpg", "is_closed": false, "url": "https://www.yelp.com/biz/king-dumplings-new-york-2?adjust_creative=9gNmiWYX8uTbFBeTTvJMdA&utm_campaign=yelp_api_v3&utm_medium=api_v3_business_search&utm_source=9gNmiWYX8uTbFBeTTvJMdA", "review_count": 242, "categories": [{"alias": "chinese", "title": "Chinese"}], "rating": 4.5, "coordinates": {"latitude": 40.71605, "longitude": -73.99169}, "transactions": ["delivery"], "price": "$", "location": {"address1": "74 Hester St", "address2": "", "address3": null, "city": "New York", "zip_code": "10002", "country": "US", "state": "NY", "display_address": ["74 Hester St", "New York, NY 10002"]}, "phone": "+19172511249", "display_phone": "(917) 251-1249", "distance": 5154.192479824585}, {"id": "fPW_GBZsnBNsIzK62sCHBg", "alias": "xian-famous-foods-new-york-30", "name": "Xi'an Famous Foods", "image_url": "https://s3-media3.fl.yelpcdn.com/bphoto/EyvxdM4WUbVDOWqG-5NQkQ/o.jpg", "is_closed": false, "url": "https://www.yelp.com/biz/xian-famous-foods-new-york-30?adjust_creative=9gNmiWYX8uTbFBeTTvJMdA&utm_campaign=yelp_api_v3&utm_medium=api_v3_business_search&utm_source=9gNmiWYX8uTbFBeTTvJMdA", "review_count": 1223, "categories": [{"alias": "chinese", "title": "Chinese"}, {"alias": "burgers", "title": "Burgers"}, {"alias": "noodles", "title": "Noodles"}], "rating": 4.0, "coordinates": {"latitude": 40.715082, "longitude": -73.997342}, "transactions": ["delivery"], "price": "$$", "location": {"address1": "45 Bayard St", "address2": "", "address3": "", "city": "New York", "zip_code": "10013", "country": "US", "state": "NY", "display_address": ["45 Bayard St", "New York, NY 10013"]}, "phone": "+12127862068", "display_phone": "(212) 786-2068", "distance": 5432.471935985741}, {"id": "7_Dwf153h3_waVtmfYd8QQ", "alias": "grand-sichuan-rego-park", "name": "Grand Sichuan", "image_url": "https://s3-media1.fl.yelpcdn.com/bphoto/Q8tBuDzUio9R6FuekCDntg/o.jpg", "is_closed": false, "url": "https://www.yelp.com/biz/grand-sichuan-rego-park?adjust_creative=9gNmiWYX8uTbFBeTTvJMdA&utm_campaign=yelp_api_v3&utm_medium=api_v3_business_search&utm_source=9gNmiWYX8uTbFBeTTvJMdA", "review_count": 264, "categories": [{"alias": "szechuan", "title": "Szechuan"}], "rating": 4.0, "coordinates": {"latitude": 40.72706139183789, "longitude": -73.854812}, "transactions": ["delivery"], "price": "$$", "location": {"address1": "98-108 Queens Blvd", "address2": "", "address3": "", "city": "Rego Park", "zip_code": "11374", "country": "US", "state": "NY", "display_address": ["98-108 Queens Blvd", "Rego Park, NY 11374"]}, "phone": "+17182688833", "display_phone": "(718) 268-8833", "distance": 10306.583348566091}, {"id": "za9mYaRVWkwKkQfjRgvU0g", "alias": "taiwan-bear-house-new-york", "name": "Taiwan Bear House", "image_url": "https://s3-media2.fl.yelpcdn.com/bphoto/-r2h7Kr9F8JTdDZb4xUqmA/o.jpg", "is_closed": false, "url": "https://www.yelp.com/biz/taiwan-bear-house-new-york?adjust_creative=9gNmiWYX8uTbFBeTTvJMdA&utm_campaign=yelp_api_v3&utm_medium=api_v3_business_search&utm_source=9gNmiWYX8uTbFBeTTvJMdA", "review_count": 350, "categories": [{"alias": "taiwanese", "title": "Taiwanese"}, {"alias": "bubbletea", "title": "Bubble Tea"}, {"alias": "chinese", "title": "Chinese"}], "rating": 4.0, "coordinates": {"latitude": 40.7147185237041, "longitude": -73.9977966218067}, "transactions": ["pickup", "delivery"], "price": "$$", "location": {"address1": "11 Pell St", "address2": null, "address3": "", "city": "New York", "zip_code": "10013", "country": "US", "state": "NY", "display_address": ["11 Pell St", "New York, NY 10013"]}, "phone": "+12123469050", "display_phone": "(212) 346-9050", "distance": 5485.474045900035}, {"id": "V-rY0hlPjAghV14jOlVUiQ", "alias": "nikko-new-york-2", "name": "Nikko", "image_url": "https://s3-media2.fl.yelpcdn.com/bphoto/EKHiRwA7xBPxZoSbMFD4CQ/o.jpg", "is_closed": false, "url": "https://www.yelp.com/biz/nikko-new-york-2?adjust_creative=9gNmiWYX8uTbFBeTTvJMdA&utm_campaign=yelp_api_v3&utm_medium=api_v3_business_search&utm_source=9gNmiWYX8uTbFBeTTvJMdA", "review_count": 408, "categories": [{"alias": "asianfusion", "title": "Asian Fusion"}, {"alias": "thai", "title": "Thai"}, {"alias": "sushi", "title": "Sushi Bars"}], "rating": 3.5, "coordinates": {"latitude": 40.81156, "longitude": -73.95781}, "transactions": ["pickup", "delivery"], "price": "$$", "location": {"address1": "1280 Amsterdam Ave", "address2": "", "address3": "", "city": "New York", "zip_code": "10027", "country": "US", "state": "NY", "display_address": ["1280 Amsterdam Ave", "New York, NY 10027"]}, "phone": "+12125311188", "display_phone": "(212) 531-1188", "distance": 5899.446169441757}, {"id": "i4cyV13lYIS4mcJKZW75cA", "alias": "food-sing-brooklyn", "name": "Food Sing", "image_url": "https://s3-media1.fl.yelpcdn.com/bphoto/dKJ6f65vbR_FyqczVaQCag/o.jpg", "is_closed": false, "url": "https://www.yelp.com/biz/food-sing-brooklyn?adjust_creative=9gNmiWYX8uTbFBeTTvJMdA&utm_campaign=yelp_api_v3&utm_medium=api_v3_business_search&utm_source=9gNmiWYX8uTbFBeTTvJMdA", "review_count": 68, "categories": [{"alias": "chinese", "title": "Chinese"}], "rating": 3.5, "coordinates": {"latitude": 40.714324, "longitude": -73.961257}, "transactions": ["delivery"], "price": "$", "location": {"address1": "172 Grand St", "address2": "", "address3": "", "city": "Brooklyn", "zip_code": "11211", "country": "US", "state": "NY", "display_address": ["172 Grand St", "Brooklyn, NY 11211"]}, "phone": "+17187827596", "display_phone": "(718) 782-7596", "distance": 5036.162030699805}, {"id": "Wezt_3dALzHmfXjHOPG4GQ", "alias": "empire-new-york-3", "name": "Empire", "image_url": "https://s3-media1.fl.yelpcdn.com/bphoto/p018BXAVbNrYSPtERt_NIg/o.jpg", "is_closed": false, "url": "https://www.yelp.com/biz/empire-new-york-3?adjust_creative=9gNmiWYX8uTbFBeTTvJMdA&utm_campaign=yelp_api_v3&utm_medium=api_v3_business_search&utm_source=9gNmiWYX8uTbFBeTTvJMdA", "review_count": 30, "categories": [{"alias": "chinese", "title": "Chinese"}, {"alias": "importedfood", "title": "Imported Food"}], "rating": 3.0, "coordinates": {"latitude": 40.8028688256819, "longitude": -73.9530954451981}, "transactions": ["pickup", "delivery"], "price": "$", "location": {"address1": "1902 Adam Clayton Powell Jr Blvd", "address2": "", "address3": "", "city": "New York", "zip_code": "10039", "country": "US", "state": "NY", "display_address": ["1902 Adam Clayton Powell Jr Blvd", "New York, NY 10039"]}, "phone": "+12122808880", "display_phone": "(212) 280-8880", "distance": 5052.785120071372}, {"id": "j9LAlbSiqGlvfAOt8LRRzQ", "alias": "new-kam-lai-new-york-2", "name": "New Kam Lai", "image_url": "https://s3-media1.fl.yelpcdn.com/bphoto/dNhQsGyh-GseQ1GDhZ-8_g/o.jpg", "is_closed": false, "url": "https://www.yelp.com/biz/new-kam-lai-new-york-2?adjust_creative=9gNmiWYX8uTbFBeTTvJMdA&utm_campaign=yelp_api_v3&utm_medium=api_v3_business_search&utm_source=9gNmiWYX8uTbFBeTTvJMdA", "review_count": 68, "categories": [{"alias": "chinese", "title": "Chinese"}], "rating": 2.5, "coordinates": {"latitude": 40.78701, "longitude": -73.975899}, "transactions": ["pickup", "delivery"], "price": "$", "location": {"address1": "514 Amsterdam Ave", "address2": "", "address3": "", "city": "New York", "zip_code": "10024", "country": "US", "state": "NY", "display_address": ["514 Amsterdam Ave", "New York, NY 10024"]}, "phone": "+12127698899", "display_phone": "(212) 769-8899", "distance": 3140.523079267745}, {"id": "O3yWGOlEtI-nILSQdzglcw", "alias": "emperor-seafood-restaurant-\u5e1d\u7687\u5fa1\u5bb4-flushing", "name": "Emperor Seafood Restaurant \u5e1d\u7687\u5fa1\u5bb4", "image_url": "https://s3-media3.fl.yelpcdn.com/bphoto/obM14dipVqdRIU4GoNcfAA/o.jpg", "is_closed": false, "url": "https://www.yelp.com/biz/emperor-seafood-restaurant-%E5%B8%9D%E7%9A%87%E5%BE%A1%E5%AE%B4-flushing?adjust_creative=9gNmiWYX8uTbFBeTTvJMdA&utm_campaign=yelp_api_v3&utm_medium=api_v3_business_search&utm_source=9gNmiWYX8uTbFBeTTvJMdA", "review_count": 61, "categories": [{"alias": "dimsum", "title": "Dim Sum"}, {"alias": "cantonese", "title": "Cantonese"}], "rating": 3.5, "coordinates": {"latitude": 40.76234355275425, "longitude": -73.8288636830734}, "transactions": [], "location": {"address1": "136-59 37th Ave 2/F", "address2": "", "address3": null, "city": "Flushing", "zip_code": "11354", "country": "US", "state": "NY", "display_address": ["136-59 37th Ave 2/F", "Flushing, NY 11354"]}, "phone": "+17187990311", "display_phone": "(718) 799-0311", "distance": 11856.371241526434}, {"id": "pUQQkYv4NkfRA_e2JRO27w", "alias": "kimbap-lab-new-york", "name": "Kimbap Lab", "image_url": "https://s3-media1.fl.yelpcdn.com/bphoto/Oxe5Rt2OKTNsyK8zxn3oNA/o.jpg", "is_closed": false, "url": "https://www.yelp.com/biz/kimbap-lab-new-york?adjust_creative=9gNmiWYX8uTbFBeTTvJMdA&utm_campaign=yelp_api_v3&utm_medium=api_v3_business_search&utm_source=9gNmiWYX8uTbFBeTTvJMdA", "review_count": 30, "categories": [{"alias": "comfortfood", "title": "Comfort Food"}, {"alias": "noodles", "title": "Noodles"}, {"alias": "korean", "title": "Korean"}], "rating": 4.5, "coordinates": {"latitude": 40.74254, "longitude": -74.006061}, "transactions": ["pickup", "delivery"], "location": {"address1": "75 9th Ave", "address2": "Fl 1", "address3": "Pearl River Mart", "city": "New York", "zip_code": "10011", "country": "US", "state": "NY", "display_address": ["75 9th Ave", "Fl 1", "Pearl River Mart", "New York, NY 10011"]}, "phone": "", "display_phone": "", "distance": 3584.898338009682}, {"id": "gABJfl51T0QXitBlXlVB4g", "alias": "china-king-new-york-4", "name": "China King", "image_url": "https://s3-media1.fl.yelpcdn.com/bphoto/AsMGjLcQKbMaUaQ4p-IMcg/o.jpg", "is_closed": false, "url": "https://www.yelp.com/biz/china-king-new-york-4?adjust_creative=9gNmiWYX8uTbFBeTTvJMdA&utm_campaign=yelp_api_v3&utm_medium=api_v3_business_search&utm_source=9gNmiWYX8uTbFBeTTvJMdA", "review_count": 11, "categories": [{"alias": "chinese", "title": "Chinese"}], "rating": 4.5, "coordinates": {"latitude": 40.80339, "longitude": -73.93832}, "transactions": ["pickup", "delivery"], "location": {"address1": "2026 Lexington Ave", "address2": "", "address3": "", "city": "New York", "zip_code": "10035", "country": "US", "state": "NY", "display_address": ["2026 Lexington Ave", "New York, NY 10035"]}, "phone": "+12128766688", "display_phone": "(212) 876-6688", "distance": 5560.4120737193225}, {"id": "33ry5dmopDOElU7zf1Sn2w", "alias": "lan-larb-chiang-mai-new-york-3", "name": "Lan Larb Chiang Mai", "image_url": "https://s3-media2.fl.yelpcdn.com/bphoto/5oayC0-xuJPyXGCCr7SPyA/o.jpg", "is_closed": false, "url": "https://www.yelp.com/biz/lan-larb-chiang-mai-new-york-3?adjust_creative=9gNmiWYX8uTbFBeTTvJMdA&utm_campaign=yelp_api_v3&utm_medium=api_v3_business_search&utm_source=9gNmiWYX8uTbFBeTTvJMdA", "review_count": 278, "categories": [{"alias": "thai", "title": "Thai"}, {"alias": "noodles", "title": "Noodles"}], "rating": 4.0, "coordinates": {"latitude": 40.7199936, "longitude": -73.9985428}, "transactions": ["pickup", "delivery"], "price": "$$", "location": {"address1": "227 Centre St", "address2": "", "address3": "", "city": "New York", "zip_code": "10013", "country": "US", "state": "NY", "display_address": ["227 Centre St", "New York, NY 10013"]}, "phone": "+16468959264", "display_phone": "(646) 895-9264", "distance": 4989.88481096964}, {"id": "doh4MaWFToZ7f4rbfc3Mxg", "alias": "pelham-palace-pelham", "name": "Pelham Palace", "image_url": "https://s3-media2.fl.yelpcdn.com/bphoto/REEcjyiFw8wdEYwgyu1p_Q/o.jpg", "is_closed": false, "url": "https://www.yelp.com/biz/pelham-palace-pelham?adjust_creative=9gNmiWYX8uTbFBeTTvJMdA&utm_campaign=yelp_api_v3&utm_medium=api_v3_business_search&utm_source=9gNmiWYX8uTbFBeTTvJMdA", "review_count": 52, "categories": [{"alias": "chinese", "title": "Chinese"}, {"alias": "japanese", "title": "Japanese"}], "rating": 3.5, "coordinates": {"latitude": 40.90634, "longitude": -73.81184}, "transactions": ["delivery"], "price": "$$", "location": {"address1": "221 Wolfs Ln", "address2": "", "address3": "", "city": "Pelham", "zip_code": "10803", "country": "US", "state": "NY", "display_address": ["221 Wolfs Ln", "Pelham, NY 10803"]}, "phone": "+19147380388", "display_phone": "(914) 738-0388", "distance": 21070.8316563999}, {"id": "gpt2U4ecZSCLmgVQPtkzbA", "alias": "cha-pas-noodles-and-grill-new-york", "name": "Cha Pa's Noodles And Grill", "image_url": "https://s3-media3.fl.yelpcdn.com/bphoto/zikkzJs_Css6wXcQnR6Kfw/o.jpg", "is_closed": false, "url": "https://www.yelp.com/biz/cha-pas-noodles-and-grill-new-york?adjust_creative=9gNmiWYX8uTbFBeTTvJMdA&utm_campaign=yelp_api_v3&utm_medium=api_v3_business_search&utm_source=9gNmiWYX8uTbFBeTTvJMdA", "review_count": 713, "categories": [{"alias": "vietnamese", "title": "Vietnamese"}, {"alias": "noodles", "title": "Noodles"}, {"alias": "sandwiches", "title": "Sandwiches"}], "rating": 3.5, "coordinates": {"latitude": 40.7637, "longitude": -73.98615}, "transactions": ["pickup", "delivery"], "price": "$$", "location": {"address1": "314 W 52nd St", "address2": "", "address3": "", "city": "New York", "zip_code": "10019", "country": "US", "state": "NY", "display_address": ["314 W 52nd St", "New York, NY 10019"]}, "phone": "+12129569300", "display_phone": "(212) 956-9300", "distance": 1485.3873715739317}, {"id": "O2jCWIOWb-IhyZGZLTNNoA", "alias": "peking-kitchen-ii-new-york", "name": "Peking Kitchen II", "image_url": "https://s3-media1.fl.yelpcdn.com/bphoto/Qiyp6ErKbiHv7NO9wm1FZQ/o.jpg", "is_closed": false, "url": "https://www.yelp.com/biz/peking-kitchen-ii-new-york?adjust_creative=9gNmiWYX8uTbFBeTTvJMdA&utm_campaign=yelp_api_v3&utm_medium=api_v3_business_search&utm_source=9gNmiWYX8uTbFBeTTvJMdA", "review_count": 20, "categories": [{"alias": "chinese", "title": "Chinese"}], "rating": 3.5, "coordinates": {"latitude": 40.80479, "longitude": -73.954735}, "transactions": ["pickup", "delivery"], "price": "$", "location": {"address1": "2162 8th Ave", "address2": "", "address3": "", "city": "New York", "zip_code": "10026", "country": "US", "state": "NY", "display_address": ["2162 8th Ave", "New York, NY 10026"]}, "phone": "+12122227888", "display_phone": "(212) 222-7888", "distance": 5223.726977468816}, {"id": "Nxxn3PfmNvEtKCn_OSwY8A", "alias": "king-szechuan-palace-jersey-city", "name": "King Szechuan Palace", "image_url": "https://s3-media2.fl.yelpcdn.com/bphoto/VDwOgdLyiPVck1eRALKSlQ/o.jpg", "is_closed": false, "url": "https://www.yelp.com/biz/king-szechuan-palace-jersey-city?adjust_creative=9gNmiWYX8uTbFBeTTvJMdA&utm_campaign=yelp_api_v3&utm_medium=api_v3_business_search&utm_source=9gNmiWYX8uTbFBeTTvJMdA", "review_count": 152, "categories": [{"alias": "szechuan", "title": "Szechuan"}], "rating": 3.5, "coordinates": {"latitude": 40.739697, "longitude": -74.051612}, "transactions": ["pickup", "delivery"], "price": "$$", "location": {"address1": "83 Reservoir Ave", "address2": "", "address3": "", "city": "Jersey City", "zip_code": "07307", "country": "US", "state": "NJ", "display_address": ["83 Reservoir Ave", "Jersey City, NJ 07307"]}, "phone": "+12012226888", "display_phone": "(201) 222-6888", "distance": 7242.155367827585}, {"id": "wdGMVLUzocmnl2tST0lheg", "alias": "yunshang-rice-noodle-house-new-york-5", "name": "YunShang Rice Noodle House", "image_url": "https://s3-media2.fl.yelpcdn.com/bphoto/R-AQFKvYkcYAD2XV6w9aUg/o.jpg", "is_closed": false, "url": "https://www.yelp.com/biz/yunshang-rice-noodle-house-new-york-5?adjust_creative=9gNmiWYX8uTbFBeTTvJMdA&utm_campaign=yelp_api_v3&utm_medium=api_v3_business_search&utm_source=9gNmiWYX8uTbFBeTTvJMdA", "review_count": 307, "categories": [{"alias": "chinese", "title": "Chinese"}, {"alias": "noodles", "title": "Noodles"}, {"alias": "asianfusion", "title": "Asian Fusion"}], "rating": 4.0, "coordinates": {"latitude": 40.71525, "longitude": -73.99765}, "transactions": ["delivery"], "price": "$$", "location": {"address1": "53 Bayard St", "address2": null, "address3": "", "city": "New York", "zip_code": "10013", "country": "US", "state": "NY", "display_address": ["53 Bayard St", "New York, NY 10013"]}, "phone": "+16469985223", "display_phone": "(646) 998-5223", "distance": 5434.609006035162}, {"id": "ieOIBz6Gfqmwm1B0wUzh9g", "alias": "mama-lee-bayside", "name": "Mama Lee", "image_url": "https://s3-media2.fl.yelpcdn.com/bphoto/nK3MlLQLmAQtvnU3m9Wtsg/o.jpg", "is_closed": false, "url": "https://www.yelp.com/biz/mama-lee-bayside?adjust_creative=9gNmiWYX8uTbFBeTTvJMdA&utm_campaign=yelp_api_v3&utm_medium=api_v3_business_search&utm_source=9gNmiWYX8uTbFBeTTvJMdA", "review_count": 550, "categories": [{"alias": "chinese", "title": "Chinese"}, {"alias": "taiwanese", "title": "Taiwanese"}], "rating": 4.5, "coordinates": {"latitude": 40.755368, "longitude": -73.767415}, "transactions": ["delivery"], "price": "$$", "location": {"address1": "213-12 48th Ave", "address2": "", "address3": "", "city": "Bayside", "zip_code": "11364", "country": "US", "state": "NY", "display_address": ["213-12 48th Ave", "Bayside, NY 11364"]}, "phone": "+17187678680", "display_phone": "(718) 767-8680", "distance": 17032.718382171373}, {"id": "AL2IGLkQ72b_ykGInqaJPg", "alias": "hunan-3-chinese-restaurant-astoria", "name": "Hunan 3 Chinese Restaurant", "image_url": "https://s3-media2.fl.yelpcdn.com/bphoto/j_ka81VXrOe752qbqVkbnw/o.jpg", "is_closed": false, "url": "https://www.yelp.com/biz/hunan-3-chinese-restaurant-astoria?adjust_creative=9gNmiWYX8uTbFBeTTvJMdA&utm_campaign=yelp_api_v3&utm_medium=api_v3_business_search&utm_source=9gNmiWYX8uTbFBeTTvJMdA", "review_count": 25, "categories": [{"alias": "chinese", "title": "Chinese"}], "rating": 3.5, "coordinates": {"latitude": 40.7613425374672, "longitude": -73.9314051011108}, "transactions": ["pickup", "delivery"], "price": "$", "location": {"address1": "2414 34th Ave", "address2": "", "address3": "", "city": "Astoria", "zip_code": "11106", "country": "US", "state": "NY", "display_address": ["2414 34th Ave", "Astoria, NY 11106"]}, "phone": "+17189374958", "display_phone": "(718) 937-4958", "distance": 3223.7710566914798}, {"id": "SMImQM_JfZkIZwflTgOAoQ", "alias": "yi-ji-shi-mo-noodle-corp-new-york-5", "name": "Yi Ji Shi Mo Noodle Corp", "image_url": "https://s3-media2.fl.yelpcdn.com/bphoto/ATChtBC_J_Ge0mhr0th4HA/o.jpg", "is_closed": false, "url": "https://www.yelp.com/biz/yi-ji-shi-mo-noodle-corp-new-york-5?adjust_creative=9gNmiWYX8uTbFBeTTvJMdA&utm_campaign=yelp_api_v3&utm_medium=api_v3_business_search&utm_source=9gNmiWYX8uTbFBeTTvJMdA", "review_count": 260, "categories": [{"alias": "chinese", "title": "Chinese"}], "rating": 4.5, "coordinates": {"latitude": 40.71824, "longitude": -73.99583}, "transactions": ["delivery"], "price": "$", "location": {"address1": "88 Elizabeth St", "address2": "", "address3": null, "city": "New York", "zip_code": "10013", "country": "US", "state": "NY", "display_address": ["88 Elizabeth St", "New York, NY 10013"]}, "phone": "+16462336311", "display_phone": "(646) 233-6311", "distance": 5062.663209571744}, {"id": "Vb9IMzmaO3oSYAE75B-pJw", "alias": "red-house-restaurant-new-york", "name": "Red House Restaurant", "image_url": "https://s3-media3.fl.yelpcdn.com/bphoto/XQK7vdYKjrgdEfm8EWpBWw/o.jpg", "is_closed": false, "url": "https://www.yelp.com/biz/red-house-restaurant-new-york?adjust_creative=9gNmiWYX8uTbFBeTTvJMdA&utm_campaign=yelp_api_v3&utm_medium=api_v3_business_search&utm_source=9gNmiWYX8uTbFBeTTvJMdA", "review_count": 20, "categories": [{"alias": "shanghainese", "title": "Shanghainese"}, {"alias": "noodles", "title": "Noodles"}], "rating": 4.0, "coordinates": {"latitude": 40.7612755, "longitude": -73.833035}, "transactions": ["pickup", "delivery"], "location": {"address1": "36-36 Prince St", "address2": "", "address3": "", "city": "New York", "zip_code": "11354", "country": "US", "state": "NY", "display_address": ["36-36 Prince St", "New York, NY 11354"]}, "phone": "+16468498888", "display_phone": "(646) 849-8888", "distance": 11493.651678957727}, {"id": "U9bU_xY11bu88lYZwnMVfQ", "alias": "broadway-china-station-astoria-59", "name": "Broadway China Station", "image_url": "https://s3-media2.fl.yelpcdn.com/bphoto/acwMZcIMb50l0pFq4IFmbQ/o.jpg", "is_closed": false, "url": "https://www.yelp.com/biz/broadway-china-station-astoria-59?adjust_creative=9gNmiWYX8uTbFBeTTvJMdA&utm_campaign=yelp_api_v3&utm_medium=api_v3_business_search&utm_source=9gNmiWYX8uTbFBeTTvJMdA", "review_count": 46, "categories": [{"alias": "chinese", "title": "Chinese"}], "rating": 3.5, "coordinates": {"latitude": 40.7616886, "longitude": -73.9258757}, "transactions": ["pickup", "delivery"], "price": "$", "location": {"address1": "3212 31st St", "address2": "", "address3": "", "city": "Astoria", "zip_code": "11106", "country": "US", "state": "NY", "display_address": ["3212 31st St", "Astoria, NY 11106"]}, "phone": "+17185458888", "display_phone": "(718) 545-8888", "distance": 3693.3868737103608}], "total": 3300, "region": {"center": {"longitude": -73.96957397460938, "latitude": 40.75917470627005}}}