{"businesses": [{"id": "KvZCCFD8RTyeNe7L4_mLog", "alias": "feng-shui-new-york-2", "name": "Feng Shui", "image_url": "https://s3-media1.fl.yelpcdn.com/bphoto/q4CmE_fE_gRiLq4JoxOUog/o.jpg", "is_closed": false, "url": "https://www.yelp.com/biz/feng-shui-new-york-2?adjust_creative=9gNmiWYX8uTbFBeTTvJMdA&utm_campaign=yelp_api_v3&utm_medium=api_v3_business_search&utm_source=9gNmiWYX8uTbFBeTTvJMdA", "review_count": 40, "categories": [{"alias": "chinese", "title": "Chinese"}], "rating": 1.5, "coordinates": {"latitude": 40.75204, "longitude": -73.97632}, "transactions": ["delivery"], "price": "$$", "location": {"address1": "109 E 42nd St", "address2": "", "address3": "", "city": "New York", "zip_code": "10017", "country": "US", "state": "NY", "display_address": ["109 E 42nd St", "New York, NY 10017"]}, "phone": "+12123386810", "display_phone": "(212) 338-6810", "distance": 972.8733600900742}, {"id": "sYK7jLKyfJJhf9fqC77hLA", "alias": "tian-fu-lou-new-york", "name": "Tian Fu Lou", "image_url": "https://s3-media1.fl.yelpcdn.com/bphoto/RT0BRjnhKi2ZJ7meZ5jh1A/o.jpg", "is_closed": false, "url": "https://www.yelp.com/biz/tian-fu-lou-new-york?adjust_creative=9gNmiWYX8uTbFBeTTvJMdA&utm_campaign=yelp_api_v3&utm_medium=api_v3_business_search&utm_source=9gNmiWYX8uTbFBeTTvJMdA", "review_count": 24, "categories": [{"alias": "shanghainese", "title": "Shanghainese"}], "rating": 2.0, "coordinates": {"latitude": 40.755909, "longitude": -73.980064}, "transactions": [], "price": "$$", "location": {"address1": "7 W 45th St", "address2": "", "address3": "", "city": "New York", "zip_code": "10036", "country": "US", "state": "NY", "display_address": ["7 W 45th St", "New York, NY 10036"]}, "phone": "+12127191788", "display_phone": "(212) 719-1788", "distance": 950.1050768658617}, {"id": "ovOupYdkZOWUeDMOdt--ng", "alias": "china-north-dumpling-\u5317\u65b9\u934b\u8cbc-new-york", "name": "China North Dumpling \u5317\u65b9\u934b\u8cbc", "image_url": "https://s3-media2.fl.yelpcdn.com/bphoto/tPswhN_Ve7owVdugINCO8g/o.jpg", "is_closed": false, "url": "https://www.yelp.com/biz/china-north-dumpling-%E5%8C%97%E6%96%B9%E9%8D%8B%E8%B2%BC-new-york?adjust_creative=9gNmiWYX8uTbFBeTTvJMdA&utm_campaign=yelp_api_v3&utm_medium=api_v3_business_search&utm_source=9gNmiWYX8uTbFBeTTvJMdA", "review_count": 362, "categories": [{"alias": "chinese", "title": "Chinese"}], "rating": 4.0, "coordinates": {"latitude": 40.7158, "longitude": -73.9898}, "transactions": ["delivery"], "price": "$", "location": {"address1": "27 Essex St", "address2": "Ste A", "address3": "", "city": "New York", "zip_code": "10002", "country": "US", "state": "NY", "display_address": ["27 Essex St", "Ste A", "New York, NY 10002"]}, "phone": "", "display_phone": "", "distance": 5114.005781282147}, {"id": "ATqzYWJLxhNlaXGjmHGNZQ", "alias": "new-szechuan-house-woodside", "name": "New Szechuan House", "image_url": "https://s3-media2.fl.yelpcdn.com/bphoto/eWeFkIBrj9Sx2jAGNQbB6w/o.jpg", "is_closed": false, "url": "https://www.yelp.com/biz/new-szechuan-house-woodside?adjust_creative=9gNmiWYX8uTbFBeTTvJMdA&utm_campaign=yelp_api_v3&utm_medium=api_v3_business_search&utm_source=9gNmiWYX8uTbFBeTTvJMdA", "review_count": 57, "categories": [{"alias": "chinese", "title": "Chinese"}], "rating": 2.5, "coordinates": {"latitude": 40.7459596, "longitude": -73.9140785}, "transactions": ["pickup", "delivery"], "price": "$", "location": {"address1": "5008 Skillman Ave", "address2": "", "address3": "", "city": "Woodside", "zip_code": "11377", "country": "US", "state": "NY", "display_address": ["5008 Skillman Ave", "Woodside, NY 11377"]}, "phone": "+17184466092", "display_phone": "(718) 446-6092", "distance": 4905.460603943794}, {"id": "GDqIF-JMOO-8EM3yKn25_w", "alias": "new-szes-garden-ridgewood", "name": "New Sze's Garden", "image_url": "https://s3-media1.fl.yelpcdn.com/bphoto/pl6ZqX2Uu0a-njU5_f1SJg/o.jpg", "is_closed": false, "url": "https://www.yelp.com/biz/new-szes-garden-ridgewood?adjust_creative=9gNmiWYX8uTbFBeTTvJMdA&utm_campaign=yelp_api_v3&utm_medium=api_v3_business_search&utm_source=9gNmiWYX8uTbFBeTTvJMdA", "review_count": 30, "categories": [{"alias": "chinese", "title": "Chinese"}], "rating": 4.0, "coordinates": {"latitude": 40.7082630466795, "longitude": -73.9197599887848}, "transactions": ["pickup", "delivery"], "price": "$", "location": {"address1": "201 Cypress Ave", "address2": "", "address3": "", "city": "Ridgewood", "zip_code": "11385", "country": "US", "state": "NY", "display_address": ["201 Cypress Ave", "Ridgewood, NY 11385"]}, "phone": "+17183869741", "display_phone": "(718) 386-9741", "distance": 7047.330022822884}, {"id": "_hIxEP_Wd13cjNJ1tcf6KQ", "alias": "peking-express-brooklyn", "name": "Peking Express", "image_url": "https://s3-media1.fl.yelpcdn.com/bphoto/9ScQFzG_ck-iFzBucprzVA/o.jpg", "is_closed": false, "url": "https://www.yelp.com/biz/peking-express-brooklyn?adjust_creative=9gNmiWYX8uTbFBeTTvJMdA&utm_campaign=yelp_api_v3&utm_medium=api_v3_business_search&utm_source=9gNmiWYX8uTbFBeTTvJMdA", "review_count": 44, "categories": [{"alias": "chinese", "title": "Chinese"}], "rating": 3.5, "coordinates": {"latitude": 40.725869, "longitude": -73.94279}, "transactions": [], "price": "$", "location": {"address1": "237 Nassau Ave", "address2": null, "address3": "", "city": "Brooklyn", "zip_code": "11222", "country": "US", "state": "NY", "display_address": ["237 Nassau Ave", "Brooklyn, NY 11222"]}, "phone": "+17183490968", "display_phone": "(718) 349-0968", "distance": 4336.698732238358}, {"id": "jO6NX93q_fYwYTHkqJ57Dg", "alias": "six-happiness-\u516d\u798f-new-york", "name": "Six Happiness \u516d\u798f", "image_url": "https://s3-media3.fl.yelpcdn.com/bphoto/yqL94rmbSsXEPXvesO3mhQ/o.jpg", "is_closed": false, "url": "https://www.yelp.com/biz/six-happiness-%E5%85%AD%E7%A6%8F-new-york?adjust_creative=9gNmiWYX8uTbFBeTTvJMdA&utm_campaign=yelp_api_v3&utm_medium=api_v3_business_search&utm_source=9gNmiWYX8uTbFBeTTvJMdA", "review_count": 133, "categories": [{"alias": "chinese", "title": "Chinese"}], "rating": 2.5, "coordinates": {"latitude": 40.74757315567081, "longitude": -73.97408861583824}, "transactions": ["pickup", "delivery"], "price": "$", "location": {"address1": "711 2nd Ave", "address2": "1 FL", "address3": "", "city": "New York", "zip_code": "10016", "country": "US", "state": "NY", "display_address": ["711 2nd Ave", "1 FL", "New York, NY 10016"]}, "phone": "+12129730887", "display_phone": "(212) 973-0887", "distance": 1344.9153107546708}, {"id": "4UaeyfC4XYi-Dibn053xzQ", "alias": "uncle-luoyang-new-york-6", "name": "Uncle Luoyang", "image_url": "https://s3-media1.fl.yelpcdn.com/bphoto/XEECaSqDhM0JFA6yN2p0fQ/o.jpg", "is_closed": false, "url": "https://www.yelp.com/biz/uncle-luoyang-new-york-6?adjust_creative=9gNmiWYX8uTbFBeTTvJMdA&utm_campaign=yelp_api_v3&utm_medium=api_v3_business_search&utm_source=9gNmiWYX8uTbFBeTTvJMdA", "review_count": 4, "categories": [{"alias": "chinese", "title": "Chinese"}, {"alias": "asianfusion", "title": "Asian Fusion"}], "rating": 3.5, "coordinates": {"latitude": 40.80019842750732, "longitude": -73.96613205041436}, "transactions": ["pickup", "delivery"], "location": {"address1": "610 Amsterdam Ave", "address2": null, "address3": "", "city": "New York", "zip_code": "10024", "country": "US", "state": "NY", "display_address": ["610 Amsterdam Ave", "New York, NY 10024"]}, "phone": "", "display_phone": "", "distance": 4570.821403160029}, {"id": "a52GUjv7jYD3Baa0Ltbytw", "alias": "golden-dragon-kitchen-brooklyn", "name": "Golden Dragon Kitchen", "image_url": "https://s3-media1.fl.yelpcdn.com/bphoto/fFxFqfynmaHmat-VQlESww/o.jpg", "is_closed": false, "url": "https://www.yelp.com/biz/golden-dragon-kitchen-brooklyn?adjust_creative=9gNmiWYX8uTbFBeTTvJMdA&utm_campaign=yelp_api_v3&utm_medium=api_v3_business_search&utm_source=9gNmiWYX8uTbFBeTTvJMdA", "review_count": 27, "categories": [{"alias": "chinese", "title": "Chinese"}], "rating": 4.0, "coordinates": {"latitude": 40.7139499, "longitude": -73.95519}, "transactions": ["delivery"], "price": "$", "location": {"address1": "394 Metropolitan Ave", "address2": "", "address3": "", "city": "Brooklyn", "zip_code": "11211", "country": "US", "state": "NY", "display_address": ["394 Metropolitan Ave", "Brooklyn, NY 11211"]}, "phone": "+17187828024", "display_phone": "(718) 782-8024", "distance": 5176.560692741498}, {"id": "OX2B4KARPKNTxC39wpcqDA", "alias": "a-and-c-kitchen-new-york-2", "name": "A & C Kitchen", "image_url": "https://s3-media1.fl.yelpcdn.com/bphoto/YfGTSrZTpWLBNFoXpBPmvg/o.jpg", "is_closed": false, "url": "https://www.yelp.com/biz/a-and-c-kitchen-new-york-2?adjust_creative=9gNmiWYX8uTbFBeTTvJMdA&utm_campaign=yelp_api_v3&utm_medium=api_v3_business_search&utm_source=9gNmiWYX8uTbFBeTTvJMdA", "review_count": 37, "categories": [{"alias": "chinese", "title": "Chinese"}, {"alias": "seafood", "title": "Seafood"}, {"alias": "chicken_wings", "title": "Chicken Wings"}], "rating": 3.5, "coordinates": {"latitude": 40.72501, "longitude": -73.978}, "transactions": ["pickup", "delivery"], "price": "$", "location": {"address1": "136 Avenue C", "address2": "Ste A", "address3": "", "city": "New York", "zip_code": "10009", "country": "US", "state": "NY", "display_address": ["136 Avenue C", "Ste A", "New York, NY 10009"]}, "phone": "+12126778112", "display_phone": "(212) 677-8112", "distance": 3878.88678728204}, {"id": "ZYWwYSXWyDlVYIjPgXmIQA", "alias": "east-garden-astoria-2", "name": "East Garden", "image_url": "https://s3-media3.fl.yelpcdn.com/bphoto/hPZYeG7XRyyf8tLjG2WoaQ/o.jpg", "is_closed": false, "url": "https://www.yelp.com/biz/east-garden-astoria-2?adjust_creative=9gNmiWYX8uTbFBeTTvJMdA&utm_campaign=yelp_api_v3&utm_medium=api_v3_business_search&utm_source=9gNmiWYX8uTbFBeTTvJMdA", "review_count": 57, "categories": [{"alias": "chinese", "title": "Chinese"}], "rating": 3.5, "coordinates": {"latitude": 40.7560263, "longitude": -73.9285962}, "transactions": ["pickup", "delivery"], "price": "$", "location": {"address1": "32-10 36th Ave", "address2": "", "address3": "", "city": "Astoria", "zip_code": "11106", "country": "US", "state": "NY", "display_address": ["32-10 36th Ave", "Astoria, NY 11106"]}, "phone": "+17187291188", "display_phone": "(718) 729-1188", "distance": 3469.1714771217294}, {"id": "U7N6Jd8Qe7rbYB87pwuAoA", "alias": "new-man-hing-nutley", "name": "New Man Hing", "image_url": "https://s3-media1.fl.yelpcdn.com/bphoto/VXIzQrIMInh1GM92J07noA/o.jpg", "is_closed": false, "url": "https://www.yelp.com/biz/new-man-hing-nutley?adjust_creative=9gNmiWYX8uTbFBeTTvJMdA&utm_campaign=yelp_api_v3&utm_medium=api_v3_business_search&utm_source=9gNmiWYX8uTbFBeTTvJMdA", "review_count": 121, "categories": [{"alias": "chinese", "title": "Chinese"}], "rating": 4.0, "coordinates": {"latitude": 40.8272424917208, "longitude": -74.1460819104507}, "transactions": ["delivery"], "price": "$", "location": {"address1": "658 Passaic Ave", "address2": "", "address3": "", "city": "Nutley", "zip_code": "07110", "country": "US", "state": "NJ", "display_address": ["658 Passaic Ave", "Nutley, NJ 07110"]}, "phone": "+19732841533", "display_phone": "(973) 284-1533", "distance": 16675.514199017183}, {"id": "dBpttLTwkOT3HtFZ-u9vgQ", "alias": "panda-garden-restaurant-woodside", "name": "Panda Garden Restaurant", "image_url": "https://s3-media4.fl.yelpcdn.com/bphoto/vZHjS_8SSpuE_IneoRkJUQ/o.jpg", "is_closed": false, "url": "https://www.yelp.com/biz/panda-garden-restaurant-woodside?adjust_creative=9gNmiWYX8uTbFBeTTvJMdA&utm_campaign=yelp_api_v3&utm_medium=api_v3_business_search&utm_source=9gNmiWYX8uTbFBeTTvJMdA", "review_count": 33, "categories": [{"alias": "chinese", "title": "Chinese"}], "rating": 3.0, "coordinates": {"latitude": 40.7455887091084, "longitude": -73.9046854516638}, "transactions": [], "price": "$", "location": {"address1": "5917 Roosevelt Ave", "address2": "", "address3": "", "city": "Woodside", "zip_code": "11377", "country": "US", "state": "NY", "display_address": ["5917 Roosevelt Ave", "Woodside, NY 11377"]}, "phone": "+17185058888", "display_phone": "(718) 505-8888", "distance": 5670.764407254782}, {"id": "OppTOs3uBwOG29yF45lb8A", "alias": "mister-french-new-york", "name": "Mister French", "image_url": "https://s3-media2.fl.yelpcdn.com/bphoto/sWFFXQc9H1wGWU1gt_RciA/o.jpg", "is_closed": false, "url": "https://www.yelp.com/biz/mister-french-new-york?adjust_creative=9gNmiWYX8uTbFBeTTvJMdA&utm_campaign=yelp_api_v3&utm_medium=api_v3_business_search&utm_source=9gNmiWYX8uTbFBeTTvJMdA", "review_count": 99, "categories": [{"alias": "french", "title": "French"}, {"alias": "newamerican", "title": "American (New)"}, {"alias": "asianfusion", "title": "Asian Fusion"}], "rating": 4.0, "coordinates": {"latitude": 40.7393774, "longitude": -73.9889987}, "transactions": ["delivery"], "location": {"address1": "24 E 21st St", "address2": "", "address3": null, "city": "New York", "zip_code": "10010", "country": "US", "state": "NY", "display_address": ["24 E 21st St", "New York, NY 10010"]}, "phone": "+16466494805", "display_phone": "(646) 649-4805", "distance": 2742.8937204336457}, {"id": "8ZF3-QQ5ea8zQTeyZ2pIuQ", "alias": "four-four-south-village-new-york", "name": "Four Four South Village", "image_url": "https://s3-media4.fl.yelpcdn.com/bphoto/HQd3sgzKxYviQ3iQtO9qdA/o.jpg", "is_closed": false, "url": "https://www.yelp.com/biz/four-four-south-village-new-york?adjust_creative=9gNmiWYX8uTbFBeTTvJMdA&utm_campaign=yelp_api_v3&utm_medium=api_v3_business_search&utm_source=9gNmiWYX8uTbFBeTTvJMdA", "review_count": 83, "categories": [{"alias": "taiwanese", "title": "Taiwanese"}], "rating": 4.0, "coordinates": {"latitude": 40.728920411124825, "longitude": -73.9898209}, "transactions": ["pickup", "delivery"], "price": "$$", "location": {"address1": "11 E 7th St", "address2": null, "address3": "", "city": "New York", "zip_code": "10003", "country": "US", "state": "NY", "display_address": ["11 E 7th St", "New York, NY 10003"]}, "phone": "+19176757999", "display_phone": "(917) 675-7999", "distance": 3771.8316708376033}, {"id": "kYJbGSjyXocbRrgMV-zExg", "alias": "six-happiness-new-york-3", "name": "Six Happiness", "image_url": "https://s3-media4.fl.yelpcdn.com/bphoto/z95NEAzp55DJDJcDgxjuBw/o.jpg", "is_closed": false, "url": "https://www.yelp.com/biz/six-happiness-new-york-3?adjust_creative=9gNmiWYX8uTbFBeTTvJMdA&utm_campaign=yelp_api_v3&utm_medium=api_v3_business_search&utm_source=9gNmiWYX8uTbFBeTTvJMdA", "review_count": 141, "categories": [{"alias": "chinese", "title": "Chinese"}], "rating": 3.0, "coordinates": {"latitude": 40.77001, "longitude": -73.95782}, "transactions": ["pickup", "delivery"], "price": "$", "location": {"address1": "1413 2nd Ave", "address2": null, "address3": "", "city": "New York", "zip_code": "10021", "country": "US", "state": "NY", "display_address": ["1413 2nd Ave", "New York, NY 10021"]}, "phone": "+12129888002", "display_phone": "(212) 988-8002", "distance": 1559.3346476150834}, {"id": "ye-TSU-mu1Gd5TAJOpI5Mg", "alias": "lichee-nut-brooklyn-2", "name": "Lichee Nut", "image_url": "https://s3-media2.fl.yelpcdn.com/bphoto/R33u2NYpc0XnasDjrleEZw/o.jpg", "is_closed": false, "url": "https://www.yelp.com/biz/lichee-nut-brooklyn-2?adjust_creative=9gNmiWYX8uTbFBeTTvJMdA&utm_campaign=yelp_api_v3&utm_medium=api_v3_business_search&utm_source=9gNmiWYX8uTbFBeTTvJMdA", "review_count": 300, "categories": [{"alias": "chinese", "title": "Chinese"}], "rating": 3.0, "coordinates": {"latitude": 40.694149, "longitude": -73.9928131}, "transactions": ["pickup", "delivery"], "price": "$$", "location": {"address1": "162 Montague St", "address2": "", "address3": "", "city": "Brooklyn", "zip_code": "11201", "country": "US", "state": "NY", "display_address": ["162 Montague St", "Brooklyn, NY 11201"]}, "phone": "+17185225565", "display_phone": "(718) 522-5565", "distance": 7486.310726135705}, {"id": "gvAzBcK3YZf6UQqOerqF2w", "alias": "new-dragon-house-chinese-restaurant-new-york", "name": "New Dragon House Chinese Restaurant", "image_url": "https://s3-media3.fl.yelpcdn.com/bphoto/I7jBZmQNUhA8SYb52hINyQ/o.jpg", "is_closed": false, "url": "https://www.yelp.com/biz/new-dragon-house-chinese-restaurant-new-york?adjust_creative=9gNmiWYX8uTbFBeTTvJMdA&utm_campaign=yelp_api_v3&utm_medium=api_v3_business_search&utm_source=9gNmiWYX8uTbFBeTTvJMdA", "review_count": 8, "categories": [{"alias": "chinese", "title": "Chinese"}], "rating": 3.0, "coordinates": {"latitude": 40.7918190298439, "longitude": -73.9720649229145}, "transactions": ["pickup", "delivery"], "location": {"address1": "666 Amsterdam Ave", "address2": "", "address3": null, "city": "New York", "zip_code": "10025", "country": "US", "state": "NY", "display_address": ["666 Amsterdam Ave", "New York, NY 10025"]}, "phone": "+13472491224", "display_phone": "(347) 249-1224", "distance": 3635.93423086881}, {"id": "4--r7DCu5l9UEIjs4OwKSQ", "alias": "gem-bing-shop-new-york-3", "name": "Gem Bing Shop", "image_url": "https://s3-media3.fl.yelpcdn.com/bphoto/AxlBWjReWzVOyF0bewokgw/o.jpg", "is_closed": false, "url": "https://www.yelp.com/biz/gem-bing-shop-new-york-3?adjust_creative=9gNmiWYX8uTbFBeTTvJMdA&utm_campaign=yelp_api_v3&utm_medium=api_v3_business_search&utm_source=9gNmiWYX8uTbFBeTTvJMdA", "review_count": 87, "categories": [{"alias": "chinese", "title": "Chinese"}], "rating": 4.0, "coordinates": {"latitude": 40.729444, "longitude": -73.989067}, "transactions": ["pickup", "delivery"], "price": "$", "location": {"address1": "9 St Marks Pl", "address2": null, "address3": "", "city": "New York", "zip_code": "10003", "country": "US", "state": "NY", "display_address": ["9 St Marks Pl", "New York, NY 10003"]}, "phone": "+16467915200", "display_phone": "(646) 791-5200", "distance": 3695.314202867604}, {"id": "0WDHtP31HeVY0LP8INiFzQ", "alias": "rice-noodle-cart-new-york", "name": "Rice Noodle Cart", "image_url": "https://s3-media2.fl.yelpcdn.com/bphoto/kQP5JVdVxoVYZx9faEggqA/o.jpg", "is_closed": false, "url": "https://www.yelp.com/biz/rice-noodle-cart-new-york?adjust_creative=9gNmiWYX8uTbFBeTTvJMdA&utm_campaign=yelp_api_v3&utm_medium=api_v3_business_search&utm_source=9gNmiWYX8uTbFBeTTvJMdA", "review_count": 163, "categories": [{"alias": "cantonese", "title": "Cantonese"}, {"alias": "streetvendors", "title": "Street Vendors"}], "rating": 4.5, "coordinates": {"latitude": 40.717931, "longitude": -74.000283}, "transactions": ["delivery"], "price": "$", "location": {"address1": "153 Centre St", "address2": null, "address3": "", "city": "New York", "zip_code": "10013", "country": "US", "state": "NY", "display_address": ["153 Centre St", "New York, NY 10013"]}, "phone": "", "display_phone": "", "distance": 5265.572457465457}, {"id": "nXh79laNQ7leN92F5Ore-Q", "alias": "forever-taste-new-york", "name": "Forever Taste", "image_url": "https://s3-media2.fl.yelpcdn.com/bphoto/ovt1wc0fuMFoMuv2KlA6Dg/o.jpg", "is_closed": false, "url": "https://www.yelp.com/biz/forever-taste-new-york?adjust_creative=9gNmiWYX8uTbFBeTTvJMdA&utm_campaign=yelp_api_v3&utm_medium=api_v3_business_search&utm_source=9gNmiWYX8uTbFBeTTvJMdA", "review_count": 52, "categories": [{"alias": "chinese", "title": "Chinese"}], "rating": 4.0, "coordinates": {"latitude": 40.71293, "longitude": -73.98994}, "transactions": ["delivery"], "price": "$", "location": {"address1": "27 Rutgers St", "address2": "", "address3": "", "city": "New York", "zip_code": "10002", "country": "US", "state": "NY", "display_address": ["27 Rutgers St", "New York, NY 10002"]}, "phone": "+16462888434", "display_phone": "(646) 288-8434", "distance": 5405.471512269864}, {"id": "_kD3Gy4shZT_RGwkARiffQ", "alias": "shanghai-you-garden-bayside", "name": "Shanghai You Garden", "image_url": "https://s3-media2.fl.yelpcdn.com/bphoto/oThszitWT90u97KCbfWf1g/o.jpg", "is_closed": false, "url": "https://www.yelp.com/biz/shanghai-you-garden-bayside?adjust_creative=9gNmiWYX8uTbFBeTTvJMdA&utm_campaign=yelp_api_v3&utm_medium=api_v3_business_search&utm_source=9gNmiWYX8uTbFBeTTvJMdA", "review_count": 593, "categories": [{"alias": "shanghainese", "title": "Shanghainese"}, {"alias": "dimsum", "title": "Dim Sum"}, {"alias": "noodles", "title": "Noodles"}], "rating": 4.0, "coordinates": {"latitude": 40.76346, "longitude": -73.770611}, "transactions": ["pickup", "delivery"], "price": "$$", "location": {"address1": "4107 Bell Blvd", "address2": "", "address3": null, "city": "Bayside", "zip_code": "11361", "country": "US", "state": "NY", "display_address": ["4107 Bell Blvd", "Bayside, NY 11361"]}, "phone": "+17182293388", "display_phone": "(718) 229-3388", "distance": 16764.018654887215}, {"id": "aPThNhqjq5rfN9c8ykcarA", "alias": "mian-kitchen-new-york-2", "name": "Mian Kitchen", "image_url": "https://s3-media2.fl.yelpcdn.com/bphoto/4MgWcD3LqlgdxDSSKRIDMg/o.jpg", "is_closed": false, "url": "https://www.yelp.com/biz/mian-kitchen-new-york-2?adjust_creative=9gNmiWYX8uTbFBeTTvJMdA&utm_campaign=yelp_api_v3&utm_medium=api_v3_business_search&utm_source=9gNmiWYX8uTbFBeTTvJMdA", "review_count": 19, "categories": [{"alias": "noodles", "title": "Noodles"}, {"alias": "chinese", "title": "Chinese"}], "rating": 3.5, "coordinates": {"latitude": 40.7533652220521, "longitude": -73.9840016206238}, "transactions": [], "location": {"address1": "1065 Ave Of The Americas", "address2": "Ste 2400", "address3": null, "city": "New York", "zip_code": "10018", "country": "US", "state": "NY", "display_address": ["1065 Ave Of The Americas", "Ste 2400", "New York, NY 10018"]}, "phone": "+12127684242", "display_phone": "(212) 768-4242", "distance": 1376.2567891623187}, {"id": "w0KRT7v9_hsVkcRVMsD2Jg", "alias": "fu-wing-chinese-restaurant-new-york", "name": "Fu Wing Chinese Restaurant", "image_url": "https://s3-media4.fl.yelpcdn.com/bphoto/Bf3AcvN9g5i7_E79TQGclQ/o.jpg", "is_closed": false, "url": "https://www.yelp.com/biz/fu-wing-chinese-restaurant-new-york?adjust_creative=9gNmiWYX8uTbFBeTTvJMdA&utm_campaign=yelp_api_v3&utm_medium=api_v3_business_search&utm_source=9gNmiWYX8uTbFBeTTvJMdA", "review_count": 16, "categories": [{"alias": "chinese", "title": "Chinese"}], "rating": 3.0, "coordinates": {"latitude": 40.792308, "longitude": -73.945686}, "transactions": ["delivery"], "price": "$", "location": {"address1": "153 E 106th St", "address2": "", "address3": "", "city": "New York", "zip_code": "10029", "country": "US", "state": "NY", "display_address": ["153 E 106th St", "New York, NY 10029"]}, "phone": "+12129875329", "display_phone": "(212) 987-5329", "distance": 4195.3553262649075}, {"id": "gGF5MvJ1i4D5Uj7aJgY9jw", "alias": "vanessas-dumpling-house-long-island-city", "name": "Vanessa's Dumpling House", "image_url": "https://s3-media2.fl.yelpcdn.com/bphoto/Gvgk7zyQB3XELmx4Ic8ZhQ/o.jpg", "is_closed": false, "url": "https://www.yelp.com/biz/vanessas-dumpling-house-long-island-city?adjust_creative=9gNmiWYX8uTbFBeTTvJMdA&utm_campaign=yelp_api_v3&utm_medium=api_v3_business_search&utm_source=9gNmiWYX8uTbFBeTTvJMdA", "review_count": 31, "categories": [{"alias": "chinese", "title": "Chinese"}], "rating": 2.0, "coordinates": {"latitude": 40.742804, "longitude": -73.9363744}, "transactions": ["pickup", "delivery"], "location": {"address1": "30-30 47th Ave", "address2": "Ste 135", "address3": null, "city": "Long Island City", "zip_code": "11101", "country": "US", "state": "NY", "display_address": ["30-30 47th Ave", "Ste 135", "Long Island City, NY 11101"]}, "phone": "+17182984388", "display_phone": "(718) 298-4388", "distance": 3336.855246795277}, {"id": "9JIV8fh01kURbaw2pB1rdA", "alias": "peking-house-fresh-meadows-2", "name": "Peking House", "image_url": "https://s3-media3.fl.yelpcdn.com/bphoto/5os-zhP54P3BPbYjWF2rtA/o.jpg", "is_closed": false, "url": "https://www.yelp.com/biz/peking-house-fresh-meadows-2?adjust_creative=9gNmiWYX8uTbFBeTTvJMdA&utm_campaign=yelp_api_v3&utm_medium=api_v3_business_search&utm_source=9gNmiWYX8uTbFBeTTvJMdA", "review_count": 169, "categories": [{"alias": "chinese", "title": "Chinese"}, {"alias": "seafood", "title": "Seafood"}], "rating": 3.5, "coordinates": {"latitude": 40.7288811906764, "longitude": -73.7830810218111}, "transactions": ["pickup"], "price": "$$", "location": {"address1": "18523 Union Tpke", "address2": "", "address3": "", "city": "Fresh Meadows", "zip_code": "11366", "country": "US", "state": "NY", "display_address": ["18523 Union Tpke", "Fresh Meadows, NY 11366"]}, "phone": "+17184549230", "display_phone": "(718) 454-9230", "distance": 16068.115304271047}, {"id": "bKXnm2k44mSdU0fP69lY-g", "alias": "szechuan-mountain-house-flushing", "name": "Szechuan Mountain House", "image_url": "https://s3-media2.fl.yelpcdn.com/bphoto/NJ2mXpG9SGPw7WB3BZkznQ/o.jpg", "is_closed": false, "url": "https://www.yelp.com/biz/szechuan-mountain-house-flushing?adjust_creative=9gNmiWYX8uTbFBeTTvJMdA&utm_campaign=yelp_api_v3&utm_medium=api_v3_business_search&utm_source=9gNmiWYX8uTbFBeTTvJMdA", "review_count": 459, "categories": [{"alias": "szechuan", "title": "Szechuan"}, {"alias": "seafood", "title": "Seafood"}], "rating": 4.0, "coordinates": {"latitude": 40.7593930266428, "longitude": -73.8326038269836}, "transactions": ["pickup", "delivery"], "price": "$$", "location": {"address1": "39-16 Prince St", "address2": "Ste G03", "address3": "", "city": "Flushing", "zip_code": "11354", "country": "US", "state": "NY", "display_address": ["39-16 Prince St", "Ste G03", "Flushing, NY 11354"]}, "phone": "+17188887893", "display_phone": "(718) 888-7893", "distance": 11536.407284433251}, {"id": "JRmQRFEEnSUdAcesHun9AQ", "alias": "ichiran-brooklyn-brooklyn", "name": "ICHIRAN - Brooklyn", "image_url": "https://s3-media1.fl.yelpcdn.com/bphoto/0HmLqEtqnKIu1hVsj09FKQ/o.jpg", "is_closed": false, "url": "https://www.yelp.com/biz/ichiran-brooklyn-brooklyn?adjust_creative=9gNmiWYX8uTbFBeTTvJMdA&utm_campaign=yelp_api_v3&utm_medium=api_v3_business_search&utm_source=9gNmiWYX8uTbFBeTTvJMdA", "review_count": 1323, "categories": [{"alias": "ramen", "title": "Ramen"}, {"alias": "noodles", "title": "Noodles"}, {"alias": "soup", "title": "Soup"}], "rating": 4.0, "coordinates": {"latitude": 40.707587, "longitude": -73.933271}, "transactions": ["pickup", "delivery"], "price": "$$", "location": {"address1": "374 Johnson Ave", "address2": "", "address3": "", "city": "Brooklyn", "zip_code": "11206", "country": "US", "state": "NY", "display_address": ["374 Johnson Ave", "Brooklyn, NY 11206"]}, "phone": "+17183810491", "display_phone": "(718) 381-0491", "distance": 6500.876297962464}, {"id": "5Iri-tiW20KKM3iCwD_xCA", "alias": "dimsum28-new-york", "name": "DimSum28", "image_url": "", "is_closed": false, "url": "https://www.yelp.com/biz/dimsum28-new-york?adjust_creative=9gNmiWYX8uTbFBeTTvJMdA&utm_campaign=yelp_api_v3&utm_medium=api_v3_business_search&utm_source=9gNmiWYX8uTbFBeTTvJMdA", "review_count": 2, "categories": [{"alias": "dimsum", "title": "Dim Sum"}], "rating": 3.0, "coordinates": {"latitude": 40.74383, "longitude": -73.98501}, "transactions": ["delivery"], "location": {"address1": "29 E 28th St", "address2": "", "address3": null, "city": "New York", "zip_code": "10016", "country": "US", "state": "NY", "display_address": ["29 E 28th St", "New York, NY 10016"]}, "phone": "", "display_phone": "", "distance": 2136.9051613205756}, {"id": "GrxbGiLMkl1jd665k1lbIQ", "alias": "lulu-chinese-ozone-park", "name": "LULU Chinese", "image_url": "https://s3-media1.fl.yelpcdn.com/bphoto/ae9PYnkLL-IWybaBQ7DRdA/o.jpg", "is_closed": false, "url": "https://www.yelp.com/biz/lulu-chinese-ozone-park?adjust_creative=9gNmiWYX8uTbFBeTTvJMdA&utm_campaign=yelp_api_v3&utm_medium=api_v3_business_search&utm_source=9gNmiWYX8uTbFBeTTvJMdA", "review_count": 113, "categories": [{"alias": "chinese", "title": "Chinese"}, {"alias": "panasian", "title": "Pan Asian"}], "rating": 3.5, "coordinates": {"latitude": 40.6802989, "longitude": -73.8594402}, "transactions": ["pickup"], "price": "$$", "location": {"address1": "78-06 101st Ave", "address2": null, "address3": "", "city": "Ozone Park", "zip_code": "11416", "country": "US", "state": "NY", "display_address": ["78-06 101st Ave", "Ozone Park, NY 11416"]}, "phone": "+19293885858", "display_phone": "(929) 388-5858", "distance": 12769.9239693515}, {"id": "51DwJDP5TOlsCQYc0GQdVQ", "alias": "west-place-new-york", "name": "West Place", "image_url": "https://s3-media2.fl.yelpcdn.com/bphoto/r1wjxtbTPp5xY1q0QlskTw/o.jpg", "is_closed": false, "url": "https://www.yelp.com/biz/west-place-new-york?adjust_creative=9gNmiWYX8uTbFBeTTvJMdA&utm_campaign=yelp_api_v3&utm_medium=api_v3_business_search&utm_source=9gNmiWYX8uTbFBeTTvJMdA", "review_count": 60, "categories": [{"alias": "chinese", "title": "Chinese"}], "rating": 3.0, "coordinates": {"latitude": 40.8116735, "longitude": -73.957693}, "transactions": ["pickup", "delivery"], "price": "$", "location": {"address1": "1288 Amsterdam Ave", "address2": "", "address3": "", "city": "New York", "zip_code": "10027", "country": "US", "state": "NY", "display_address": ["1288 Amsterdam Ave", "New York, NY 10027"]}, "phone": "+12129329390", "display_phone": "(212) 932-9390", "distance": 5909.252797962644}, {"id": "Yrsdl3AaTwMXHZnv4eKQBQ", "alias": "central-wok-chinese-restaurant-jersey-city", "name": "Central Wok Chinese Restaurant", "image_url": "https://s3-media3.fl.yelpcdn.com/bphoto/U8hdqNTNFhyDcjMvYzBaRw/o.jpg", "is_closed": false, "url": "https://www.yelp.com/biz/central-wok-chinese-restaurant-jersey-city?adjust_creative=9gNmiWYX8uTbFBeTTvJMdA&utm_campaign=yelp_api_v3&utm_medium=api_v3_business_search&utm_source=9gNmiWYX8uTbFBeTTvJMdA", "review_count": 18, "categories": [{"alias": "chinese", "title": "Chinese"}], "rating": 3.0, "coordinates": {"latitude": 40.75171, "longitude": -74.04572}, "transactions": [], "price": "$", "location": {"address1": "499 Central Ave", "address2": "", "address3": "", "city": "Jersey City", "zip_code": "07307", "country": "US", "state": "NJ", "display_address": ["499 Central Ave", "Jersey City, NJ 07307"]}, "phone": "+12017923989", "display_phone": "(201) 792-3989", "distance": 6465.715954528657}, {"id": "e-6UcplEErq2Hj14-eiM6Q", "alias": "china-king-new-york", "name": "China King", "image_url": "https://s3-media4.fl.yelpcdn.com/bphoto/9rgxLPvrI9cpGihei1ucaA/o.jpg", "is_closed": false, "url": "https://www.yelp.com/biz/china-king-new-york?adjust_creative=9gNmiWYX8uTbFBeTTvJMdA&utm_campaign=yelp_api_v3&utm_medium=api_v3_business_search&utm_source=9gNmiWYX8uTbFBeTTvJMdA", "review_count": 41, "categories": [{"alias": "chinese", "title": "Chinese"}, {"alias": "seafood", "title": "Seafood"}, {"alias": "chickenshop", "title": "Chicken Shop"}], "rating": 3.5, "coordinates": {"latitude": 40.794303, "longitude": -73.944572}, "transactions": ["pickup", "delivery"], "price": "$", "location": {"address1": "1759 Lexington Ave", "address2": "", "address3": "", "city": "New York", "zip_code": "10029", "country": "US", "state": "NY", "display_address": ["1759 Lexington Ave", "New York, NY 10029"]}, "phone": "+12124102838", "display_phone": "(212) 410-2838", "distance": 4434.877855041895}, {"id": "Jn_p5WaprUY3Ql_539gsWw", "alias": "m-and-j-asian-cuisine-new-york", "name": "M&J Asian Cuisine", "image_url": "https://s3-media2.fl.yelpcdn.com/bphoto/C-y8rlSEA0PqKs0ITKZrkA/o.jpg", "is_closed": false, "url": "https://www.yelp.com/biz/m-and-j-asian-cuisine-new-york?adjust_creative=9gNmiWYX8uTbFBeTTvJMdA&utm_campaign=yelp_api_v3&utm_medium=api_v3_business_search&utm_source=9gNmiWYX8uTbFBeTTvJMdA", "review_count": 54, "categories": [{"alias": "asianfusion", "title": "Asian Fusion"}, {"alias": "sushi", "title": "Sushi Bars"}], "rating": 4.0, "coordinates": {"latitude": 40.7292851717997, "longitude": -73.9780369922164}, "transactions": ["pickup", "delivery"], "price": "$", "location": {"address1": "600 E 14th St", "address2": "", "address3": "", "city": "New York", "zip_code": "10009", "country": "US", "state": "NY", "display_address": ["600 E 14th St", "New York, NY 10009"]}, "phone": "+12125336888", "display_phone": "(212) 533-6888", "distance": 3399.1725531620514}, {"id": "EVQQ1Fs1YNlKd4HuxmzlJQ", "alias": "88-chinese-restaurant-new-york", "name": "88 Chinese Restaurant", "image_url": "https://s3-media4.fl.yelpcdn.com/bphoto/XQikvxAL2SfAoqkmnnmD_g/o.jpg", "is_closed": false, "url": "https://www.yelp.com/biz/88-chinese-restaurant-new-york?adjust_creative=9gNmiWYX8uTbFBeTTvJMdA&utm_campaign=yelp_api_v3&utm_medium=api_v3_business_search&utm_source=9gNmiWYX8uTbFBeTTvJMdA", "review_count": 22, "categories": [{"alias": "chinese", "title": "Chinese"}], "rating": 3.0, "coordinates": {"latitude": 40.8133599154897, "longitude": -73.9418023908753}, "transactions": [], "price": "$", "location": {"address1": "473 Malcolm X Blvd", "address2": "", "address3": "", "city": "New York", "zip_code": "10037", "country": "US", "state": "NY", "display_address": ["473 Malcolm X Blvd", "New York, NY 10037"]}, "phone": "+12122811288", "display_phone": "(212) 281-1288", "distance": 6462.880872156161}, {"id": "lBFq-P2OGDZy2aPEKgUMfg", "alias": "empire-garden-new-york", "name": "Empire Garden", "image_url": "https://s3-media3.fl.yelpcdn.com/bphoto/7Syno45YSOCeOXBNHOuH-Q/o.jpg", "is_closed": false, "url": "https://www.yelp.com/biz/empire-garden-new-york?adjust_creative=9gNmiWYX8uTbFBeTTvJMdA&utm_campaign=yelp_api_v3&utm_medium=api_v3_business_search&utm_source=9gNmiWYX8uTbFBeTTvJMdA", "review_count": 44, "categories": [{"alias": "chinese", "title": "Chinese"}], "rating": 2.0, "coordinates": {"latitude": 40.7985736262374, "longitude": -73.9621864229434}, "transactions": ["pickup", "delivery"], "price": "$", "location": {"address1": "911 Columbus Ave", "address2": null, "address3": null, "city": "New York", "zip_code": "10025", "country": "US", "state": "NY", "display_address": ["911 Columbus Ave", "New York, NY 10025"]}, "phone": "+12122227788", "display_phone": "(212) 222-7788", "distance": 4424.895263738744}, {"id": "XkL6fOBtaIqVCMXVCY9row", "alias": "h-k-wonton-garden-new-york", "name": "H K Wonton Garden", "image_url": "https://s3-media4.fl.yelpcdn.com/bphoto/BTzUqICIGkiOTcyG9gXKiA/o.jpg", "is_closed": false, "url": "https://www.yelp.com/biz/h-k-wonton-garden-new-york?adjust_creative=9gNmiWYX8uTbFBeTTvJMdA&utm_campaign=yelp_api_v3&utm_medium=api_v3_business_search&utm_source=9gNmiWYX8uTbFBeTTvJMdA", "review_count": 791, "categories": [{"alias": "cantonese", "title": "Cantonese"}, {"alias": "noodles", "title": "Noodles"}], "rating": 3.5, "coordinates": {"latitude": 40.71642137299297, "longitude": -73.99916149907413}, "transactions": ["pickup", "delivery"], "price": "$", "location": {"address1": "79 Mulberry St", "address2": "", "address3": "", "city": "New York", "zip_code": "10013", "country": "US", "state": "NY", "display_address": ["79 Mulberry St", "New York, NY 10013"]}, "phone": "+12123491495", "display_phone": "(212) 349-1495", "distance": 5367.888543786529}, {"id": "_Acmtq5Nnv4Xmqmz914CUg", "alias": "new-happy-joy-restaurant-new-york", "name": "New Happy Joy Restaurant", "image_url": "https://s3-media3.fl.yelpcdn.com/bphoto/5t4a8Q2-e2C8Sodhv-nDdA/o.jpg", "is_closed": false, "url": "https://www.yelp.com/biz/new-happy-joy-restaurant-new-york?adjust_creative=9gNmiWYX8uTbFBeTTvJMdA&utm_campaign=yelp_api_v3&utm_medium=api_v3_business_search&utm_source=9gNmiWYX8uTbFBeTTvJMdA", "review_count": 18, "categories": [{"alias": "chinese", "title": "Chinese"}], "rating": 2.5, "coordinates": {"latitude": 40.765602, "longitude": -73.990768}, "transactions": ["pickup", "delivery"], "price": "$", "location": {"address1": "760 10th Ave", "address2": "", "address3": "", "city": "New York", "zip_code": "10019", "country": "US", "state": "NY", "display_address": ["760 10th Ave", "New York, NY 10019"]}, "phone": "+12123075215", "display_phone": "(212) 307-5215", "distance": 1920.0916749414757}, {"id": "TAm8Eauo0NQNHpjOAWXo2A", "alias": "teng-dragon-new-york", "name": "Teng Dragon", "image_url": "https://s3-media2.fl.yelpcdn.com/bphoto/DsxpyM6g9kxLJjMUyHeOJA/o.jpg", "is_closed": false, "url": "https://www.yelp.com/biz/teng-dragon-new-york?adjust_creative=9gNmiWYX8uTbFBeTTvJMdA&utm_campaign=yelp_api_v3&utm_medium=api_v3_business_search&utm_source=9gNmiWYX8uTbFBeTTvJMdA", "review_count": 27, "categories": [{"alias": "chinese", "title": "Chinese"}], "rating": 3.0, "coordinates": {"latitude": 40.7961006164551, "longitude": -73.9349899291992}, "transactions": ["pickup", "delivery"], "price": "$", "location": {"address1": "2260 1st Ave", "address2": "", "address3": "", "city": "New York", "zip_code": "10035", "country": "US", "state": "NY", "display_address": ["2260 1st Ave", "New York, NY 10035"]}, "phone": "+12124263906", "display_phone": "(212) 426-3906", "distance": 5034.520537977114}, {"id": "eX0Crp7qCYk0wRTTuMdFJg", "alias": "happy-garden-bayside-restaurant-bayside", "name": "Happy Garden Bayside Restaurant", "image_url": "https://s3-media4.fl.yelpcdn.com/bphoto/ngUalYCcenJeB9ArFezJpw/o.jpg", "is_closed": false, "url": "https://www.yelp.com/biz/happy-garden-bayside-restaurant-bayside?adjust_creative=9gNmiWYX8uTbFBeTTvJMdA&utm_campaign=yelp_api_v3&utm_medium=api_v3_business_search&utm_source=9gNmiWYX8uTbFBeTTvJMdA", "review_count": 72, "categories": [{"alias": "chinese", "title": "Chinese"}, {"alias": "asianfusion", "title": "Asian Fusion"}], "rating": 2.5, "coordinates": {"latitude": 40.75860445681486, "longitude": -73.76824058657179}, "transactions": ["pickup", "delivery"], "price": "$$", "location": {"address1": "45-63 Bell Blvd", "address2": "", "address3": null, "city": "Bayside", "zip_code": "11361", "country": "US", "state": "NY", "display_address": ["45-63 Bell Blvd", "Bayside, NY 11361"]}, "phone": "+19293811700", "display_phone": "(929) 381-1700", "distance": 16957.626192256357}, {"id": "bfg1MmcnH6DO1dgF_tLxkA", "alias": "yeung-ii-sushi-asian-cuisine-hoboken-61", "name": "Yeung II Sushi Asian Cuisine", "image_url": "https://s3-media3.fl.yelpcdn.com/bphoto/wYn_jpUkFaFA4lZgI7IscA/o.jpg", "is_closed": false, "url": "https://www.yelp.com/biz/yeung-ii-sushi-asian-cuisine-hoboken-61?adjust_creative=9gNmiWYX8uTbFBeTTvJMdA&utm_campaign=yelp_api_v3&utm_medium=api_v3_business_search&utm_source=9gNmiWYX8uTbFBeTTvJMdA", "review_count": 210, "categories": [{"alias": "japanese", "title": "Japanese"}, {"alias": "sushi", "title": "Sushi Bars"}, {"alias": "panasian", "title": "Pan Asian"}], "rating": 3.5, "coordinates": {"latitude": 40.75079, "longitude": -74.02716}, "transactions": ["pickup", "delivery"], "price": "$$", "location": {"address1": "1120 Washington St", "address2": "", "address3": "", "city": "Hoboken", "zip_code": "07030", "country": "US", "state": "NJ", "display_address": ["1120 Washington St", "Hoboken, NJ 07030"]}, "phone": "+12014207197", "display_phone": "(201) 420-7197", "distance": 4933.752139107545}, {"id": "dSZH0XgoZ-AT0qezA9Xx-g", "alias": "kings-wok-woodside", "name": "King's Wok", "image_url": "https://s3-media4.fl.yelpcdn.com/bphoto/bPoSj1Yct9_sEciho-wPJA/o.jpg", "is_closed": false, "url": "https://www.yelp.com/biz/kings-wok-woodside?adjust_creative=9gNmiWYX8uTbFBeTTvJMdA&utm_campaign=yelp_api_v3&utm_medium=api_v3_business_search&utm_source=9gNmiWYX8uTbFBeTTvJMdA", "review_count": 30, "categories": [{"alias": "chinese", "title": "Chinese"}], "rating": 4.0, "coordinates": {"latitude": 40.76005, "longitude": -73.90741}, "transactions": ["pickup", "delivery"], "price": "$", "location": {"address1": "4912 30th Ave", "address2": "", "address3": "", "city": "Woodside", "zip_code": "11377", "country": "US", "state": "NY", "display_address": ["4912 30th Ave", "Woodside, NY 11377"]}, "phone": "+17187265213", "display_phone": "(718) 726-5213", "distance": 5226.488864550641}, {"id": "rk8V5c1Wr5gVLKOaY0g4VQ", "alias": "farmers-restaurant-brooklyn", "name": "Farmers Restaurant", "image_url": "https://s3-media3.fl.yelpcdn.com/bphoto/TRJyqT4rMAtojcPgaL5JUg/o.jpg", "is_closed": false, "url": "https://www.yelp.com/biz/farmers-restaurant-brooklyn?adjust_creative=9gNmiWYX8uTbFBeTTvJMdA&utm_campaign=yelp_api_v3&utm_medium=api_v3_business_search&utm_source=9gNmiWYX8uTbFBeTTvJMdA", "review_count": 105, "categories": [{"alias": "chinese", "title": "Chinese"}], "rating": 3.0, "coordinates": {"latitude": 40.6085510253906, "longitude": -74.0053024291992}, "transactions": ["delivery"], "price": "$$", "location": {"address1": "1692 86th St", "address2": "", "address3": "", "city": "Brooklyn", "zip_code": "11214", "country": "US", "state": "NY", "display_address": ["1692 86th St", "Brooklyn, NY 11214"]}, "phone": "+17182368883", "display_phone": "(718) 236-8883", "distance": 17011.7311714248}, {"id": "_O3q6PSXNoPapUar-RVXPw", "alias": "grace-chinese-food-ii-brooklyn", "name": "Grace Chinese Food II", "image_url": "https://s3-media2.fl.yelpcdn.com/bphoto/EfDdtXsCiHXOUGLZc8oWCw/o.jpg", "is_closed": false, "url": "https://www.yelp.com/biz/grace-chinese-food-ii-brooklyn?adjust_creative=9gNmiWYX8uTbFBeTTvJMdA&utm_campaign=yelp_api_v3&utm_medium=api_v3_business_search&utm_source=9gNmiWYX8uTbFBeTTvJMdA", "review_count": 23, "categories": [{"alias": "chinese", "title": "Chinese"}], "rating": 3.5, "coordinates": {"latitude": 40.70615, "longitude": -73.94286}, "transactions": ["pickup", "delivery"], "price": "$", "location": {"address1": "136 Graham Ave", "address2": "", "address3": "", "city": "Brooklyn", "zip_code": "11206", "country": "US", "state": "NY", "display_address": ["136 Graham Ave", "Brooklyn, NY 11206"]}, "phone": "+17183878898", "display_phone": "(718) 387-8898", "distance": 6311.518448967379}, {"id": "x_t-FtDa5HVgc-wecp0HBg", "alias": "supreme-restaurant-new-york-2", "name": "Supreme Restaurant", "image_url": "https://s3-media3.fl.yelpcdn.com/bphoto/sjwxH5txHxM5wDUMvGls7g/o.jpg", "is_closed": false, "url": "https://www.yelp.com/biz/supreme-restaurant-new-york-2?adjust_creative=9gNmiWYX8uTbFBeTTvJMdA&utm_campaign=yelp_api_v3&utm_medium=api_v3_business_search&utm_source=9gNmiWYX8uTbFBeTTvJMdA", "review_count": 2238, "categories": [{"alias": "shanghainese", "title": "Shanghainese"}, {"alias": "dimsum", "title": "Dim Sum"}], "rating": 3.5, "coordinates": {"latitude": 40.71726, "longitude": -73.99721}, "transactions": ["pickup", "delivery"], "price": "$$", "location": {"address1": "100 Mott St", "address2": "", "address3": "", "city": "New York", "zip_code": "10013", "country": "US", "state": "NY", "display_address": ["100 Mott St", "New York, NY 10013"]}, "phone": "+12129663988", "display_phone": "(212) 966-3988", "distance": 5210.835277662891}, {"id": "_CcEaSKTpzZIczrRzCRAPQ", "alias": "hong-kong-taste-elmhurst", "name": "Hong Kong Taste", "image_url": "https://s3-media2.fl.yelpcdn.com/bphoto/j_xNDD1PGJ9QEw-g4XTIJg/o.jpg", "is_closed": false, "url": "https://www.yelp.com/biz/hong-kong-taste-elmhurst?adjust_creative=9gNmiWYX8uTbFBeTTvJMdA&utm_campaign=yelp_api_v3&utm_medium=api_v3_business_search&utm_source=9gNmiWYX8uTbFBeTTvJMdA", "review_count": 100, "categories": [{"alias": "hkcafe", "title": "Hong Kong Style Cafe"}, {"alias": "cafes", "title": "Cafes"}, {"alias": "chinese", "title": "Chinese"}], "rating": 4.0, "coordinates": {"latitude": 40.74168853368132, "longitude": -73.87502080586329}, "transactions": ["pickup", "delivery"], "price": "$", "location": {"address1": "4721 90th St", "address2": "", "address3": null, "city": "Elmhurst", "zip_code": "11373", "country": "US", "state": "NY", "display_address": ["4721 90th St", "Elmhurst, NY 11373"]}, "phone": "+17186060001", "display_phone": "(718) 606-0001", "distance": 8198.745234988057}, {"id": "Rp-kcJD6Dwaq0c4Kuj6aiw", "alias": "good-tasty-too-chinese-restaurant-newark", "name": "Good Tasty Too Chinese Restaurant", "image_url": "https://s3-media2.fl.yelpcdn.com/bphoto/pqLUS1BnRvj9jXiM5AJBIg/o.jpg", "is_closed": false, "url": "https://www.yelp.com/biz/good-tasty-too-chinese-restaurant-newark?adjust_creative=9gNmiWYX8uTbFBeTTvJMdA&utm_campaign=yelp_api_v3&utm_medium=api_v3_business_search&utm_source=9gNmiWYX8uTbFBeTTvJMdA", "review_count": 76, "categories": [{"alias": "chinese", "title": "Chinese"}], "rating": 4.0, "coordinates": {"latitude": 40.7323639, "longitude": -74.173104}, "transactions": ["delivery"], "price": "$", "location": {"address1": "14 Green St", "address2": "", "address3": "", "city": "Newark", "zip_code": "07102", "country": "US", "state": "NJ", "display_address": ["14 Green St", "Newark, NJ 07102"]}, "phone": "+19732422020", "display_phone": "(973) 242-2020", "distance": 17403.1524080656}, {"id": "Qsc2DrX3IR-uGfwnUlOzcA", "alias": "lotus-express-new-york", "name": "Lotus Express", "image_url": "https://s3-media3.fl.yelpcdn.com/bphoto/g4pV2MZbLr9Hc1driwbafA/o.jpg", "is_closed": false, "url": "https://www.yelp.com/biz/lotus-express-new-york?adjust_creative=9gNmiWYX8uTbFBeTTvJMdA&utm_campaign=yelp_api_v3&utm_medium=api_v3_business_search&utm_source=9gNmiWYX8uTbFBeTTvJMdA", "review_count": 83, "categories": [{"alias": "chinese", "title": "Chinese"}], "rating": 4.0, "coordinates": {"latitude": 40.86626, "longitude": -73.92474}, "transactions": ["pickup", "delivery"], "price": "$", "location": {"address1": "4840 Broadway", "address2": "", "address3": "", "city": "New York", "zip_code": "10034", "country": "US", "state": "NY", "display_address": ["4840 Broadway", "New York, NY 10034"]}, "phone": "+12125698899", "display_phone": "(212) 569-8899", "distance": 12490.105517307898}, {"id": "Z8dzjqeRl8Q9tU1uytXDwA", "alias": "wah-yoan-union-city", "name": "Wah Yoan", "image_url": "https://s3-media2.fl.yelpcdn.com/bphoto/9Kh4LK7UIuRq_KalsYcqWw/o.jpg", "is_closed": false, "url": "https://www.yelp.com/biz/wah-yoan-union-city?adjust_creative=9gNmiWYX8uTbFBeTTvJMdA&utm_campaign=yelp_api_v3&utm_medium=api_v3_business_search&utm_source=9gNmiWYX8uTbFBeTTvJMdA", "review_count": 5, "categories": [{"alias": "chinese", "title": "Chinese"}], "rating": 3.5, "coordinates": {"latitude": 40.7568343808699, "longitude": -74.0378557804285}, "transactions": ["pickup", "delivery"], "location": {"address1": "804 New York Ave", "address2": "", "address3": "", "city": "Union City", "zip_code": "07087", "country": "US", "state": "NJ", "display_address": ["804 New York Ave", "Union City, NJ 07087"]}, "phone": "+12013191122", "display_phone": "(201) 319-1122", "distance": 5757.066174769509}, {"id": "nrsWSUJdNtOhV2UzPi-oOQ", "alias": "la-preciosa-china-restaurant-new-york", "name": "La Preciosa China Restaurant", "image_url": "https://s3-media2.fl.yelpcdn.com/bphoto/s2LfuPb7khXOsTWkeYwXxQ/o.jpg", "is_closed": false, "url": "https://www.yelp.com/biz/la-preciosa-china-restaurant-new-york?adjust_creative=9gNmiWYX8uTbFBeTTvJMdA&utm_campaign=yelp_api_v3&utm_medium=api_v3_business_search&utm_source=9gNmiWYX8uTbFBeTTvJMdA", "review_count": 32, "categories": [{"alias": "chinese", "title": "Chinese"}], "rating": 3.0, "coordinates": {"latitude": 40.7985954284668, "longitude": -73.940803527832}, "transactions": ["delivery"], "price": "$$", "location": {"address1": "163 E 116th St", "address2": "", "address3": "", "city": "New York", "zip_code": "10029", "country": "US", "state": "NY", "display_address": ["163 E 116th St", "New York, NY 10029"]}, "phone": "+12123693921", "display_phone": "(212) 369-3921", "distance": 5008.466947082794}], "total": 3300, "region": {"center": {"longitude": -73.96957397460938, "latitude": 40.75917470627005}}}