{"businesses": [{"id": "anayUOcPkiAvijszwOf_Rw", "alias": "spring-cafe-new-york", "name": "Spring Cafe", "image_url": "https://s3-media1.fl.yelpcdn.com/bphoto/ZiFSZ-sHdKlEVcOGbkaogw/o.jpg", "is_closed": false, "url": "https://www.yelp.com/biz/spring-cafe-new-york?adjust_creative=9gNmiWYX8uTbFBeTTvJMdA&utm_campaign=yelp_api_v3&utm_medium=api_v3_business_search&utm_source=9gNmiWYX8uTbFBeTTvJMdA", "review_count": 185, "categories": [{"alias": "vegan", "title": "Vegan"}, {"alias": "asianfusion", "title": "Asian Fusion"}, {"alias": "chinese", "title": "Chinese"}], "rating": 4.5, "coordinates": {"latitude": 40.71792, "longitude": -74.00021}, "transactions": ["delivery", "pickup"], "price": "$$", "location": {"address1": "153D Centre St", "address2": "", "address3": null, "city": "New York", "zip_code": "10013", "country": "US", "state": "NY", "display_address": ["153D Centre St", "New York, NY 10013"]}, "phone": "+12122269669", "display_phone": "(212) 226-9669", "distance": 5270.98159574963}, {"id": "kwGaeWUVC_MIxMFw0sM-Ww", "alias": "hong-kong-express-ridgewood", "name": "Hong Kong Express", "image_url": "https://s3-media2.fl.yelpcdn.com/bphoto/oxtJdrvDiUV5byq15DdBUQ/o.jpg", "is_closed": false, "url": "https://www.yelp.com/biz/hong-kong-express-ridgewood?adjust_creative=9gNmiWYX8uTbFBeTTvJMdA&utm_campaign=yelp_api_v3&utm_medium=api_v3_business_search&utm_source=9gNmiWYX8uTbFBeTTvJMdA", "review_count": 49, "categories": [{"alias": "chinese", "title": "Chinese"}], "rating": 3.5, "coordinates": {"latitude": 40.6961416, "longitude": -73.9047676}, "transactions": [], "price": "$", "location": {"address1": "989 Wyckoff Ave", "address2": null, "address3": null, "city": "Ridgewood", "zip_code": "11385", "country": "US", "state": "NY", "display_address": ["989 Wyckoff Ave", "Ridgewood, NY 11385"]}, "phone": "+17184561858", "display_phone": "(718) 456-1858", "distance": 8885.19824021958}, {"id": "GD-tsn8khDevVa7-KQK3ZQ", "alias": "3-times-brooklyn-3", "name": "3 Times", "image_url": "https://s3-media2.fl.yelpcdn.com/bphoto/LYN0FaNYGE6YfFiYMMdM8A/o.jpg", "is_closed": false, "url": "https://www.yelp.com/biz/3-times-brooklyn-3?adjust_creative=9gNmiWYX8uTbFBeTTvJMdA&utm_campaign=yelp_api_v3&utm_medium=api_v3_business_search&utm_source=9gNmiWYX8uTbFBeTTvJMdA", "review_count": 17, "categories": [{"alias": "dimsum", "title": "Dim Sum"}, {"alias": "shanghainese", "title": "Shanghainese"}, {"alias": "noodles", "title": "Noodles"}], "rating": 4.0, "coordinates": {"latitude": 40.71106, "longitude": -73.95179}, "transactions": ["delivery", "pickup"], "location": {"address1": "483 Grand St", "address2": "", "address3": null, "city": "Brooklyn", "zip_code": "11211", "country": "US", "state": "NY", "display_address": ["483 Grand St", "Brooklyn, NY 11211"]}, "phone": "", "display_phone": "", "distance": 5548.354660770819}, {"id": "dtk1Cstz5MHr-B1AOM_nXA", "alias": "gyu-kaku-japanese-bbq-new-york-2", "name": "Gyu-Kaku Japanese BBQ", "image_url": "https://s3-media1.fl.yelpcdn.com/bphoto/mILeooG8uifa1UF1c5bWZA/o.jpg", "is_closed": false, "url": "https://www.yelp.com/biz/gyu-kaku-japanese-bbq-new-york-2?adjust_creative=9gNmiWYX8uTbFBeTTvJMdA&utm_campaign=yelp_api_v3&utm_medium=api_v3_business_search&utm_source=9gNmiWYX8uTbFBeTTvJMdA", "review_count": 1285, "categories": [{"alias": "japanese", "title": "Japanese"}, {"alias": "bbq", "title": "Barbeque"}, {"alias": "asianfusion", "title": "Asian Fusion"}], "rating": 4.0, "coordinates": {"latitude": 40.75537, "longitude": -73.97054}, "transactions": ["delivery", "pickup"], "price": "$$$", "location": {"address1": "805 3rd Ave", "address2": "2nd Flr", "address3": "", "city": "New York", "zip_code": "10022", "country": "US", "state": "NY", "display_address": ["805 3rd Ave", "2nd Flr", "New York, NY 10022"]}, "phone": "+12127028816", "display_phone": "(212) 702-8816", "distance": 425.20937341245764}, {"id": "9K8VhYvIA26AFMQY8S1soQ", "alias": "m-noodle-shop-brooklyn", "name": "M Noodle Shop", "image_url": "https://s3-media1.fl.yelpcdn.com/bphoto/XHh-boDRPqAZduwv0YPhQA/o.jpg", "is_closed": false, "url": "https://www.yelp.com/biz/m-noodle-shop-brooklyn?adjust_creative=9gNmiWYX8uTbFBeTTvJMdA&utm_campaign=yelp_api_v3&utm_medium=api_v3_business_search&utm_source=9gNmiWYX8uTbFBeTTvJMdA", "review_count": 378, "categories": [{"alias": "chinese", "title": "Chinese"}, {"alias": "noodles", "title": "Noodles"}, {"alias": "soup", "title": "Soup"}], "rating": 3.0, "coordinates": {"latitude": 40.714257, "longitude": -73.950646}, "transactions": ["delivery", "pickup"], "price": "$$", "location": {"address1": "549 Metropolitan Ave", "address2": "", "address3": "", "city": "Brooklyn", "zip_code": "11211", "country": "US", "state": "NY", "display_address": ["549 Metropolitan Ave", "Brooklyn, NY 11211"]}, "phone": "+17183848008", "display_phone": "(718) 384-8008", "distance": 5241.434571692738}, {"id": "qusZ-K5tzM1EyOa1IEWCHA", "alias": "nourish-brooklyn-4", "name": "Nourish", "image_url": "https://s3-media3.fl.yelpcdn.com/bphoto/Muq80S8STBQgpM6ZV3jUGg/o.jpg", "is_closed": false, "url": "https://www.yelp.com/biz/nourish-brooklyn-4?adjust_creative=9gNmiWYX8uTbFBeTTvJMdA&utm_campaign=yelp_api_v3&utm_medium=api_v3_business_search&utm_source=9gNmiWYX8uTbFBeTTvJMdA", "review_count": 355, "categories": [{"alias": "thai", "title": "Thai"}, {"alias": "asianfusion", "title": "Asian Fusion"}, {"alias": "soup", "title": "Soup"}], "rating": 4.0, "coordinates": {"latitude": 40.677941, "longitude": -73.968455}, "transactions": ["delivery", "pickup"], "price": "$$", "location": {"address1": "637A Vanderbilt Ave", "address2": null, "address3": "", "city": "Brooklyn", "zip_code": "11238", "country": "US", "state": "NY", "display_address": ["637A Vanderbilt Ave", "Brooklyn, NY 11238"]}, "phone": "+17187893981", "display_phone": "(718) 789-3981", "distance": 9031.978091820927}, {"id": "ySLc7OqAMtPseGww5rWprQ", "alias": "local-roots-nyc-midtown-new-york", "name": "Local Roots NYC Midtown", "image_url": "https://s3-media2.fl.yelpcdn.com/bphoto/Jotom6nPUsHhXkEs5DVaVQ/o.jpg", "is_closed": false, "url": "https://www.yelp.com/biz/local-roots-nyc-midtown-new-york?adjust_creative=9gNmiWYX8uTbFBeTTvJMdA&utm_campaign=yelp_api_v3&utm_medium=api_v3_business_search&utm_source=9gNmiWYX8uTbFBeTTvJMdA", "review_count": 2, "categories": [{"alias": "bubbletea", "title": "Bubble Tea"}, {"alias": "chinese", "title": "Chinese"}, {"alias": "vegetarian", "title": "Vegetarian"}], "rating": 1.0, "coordinates": {"latitude": 40.76153011360908, "longitude": -73.97359726108634}, "transactions": ["delivery", "pickup"], "location": {"address1": "550 Madison Ave", "address2": "", "address3": null, "city": "New York", "zip_code": "10022", "country": "US", "state": "NY", "display_address": ["550 Madison Ave", "New York, NY 10022"]}, "phone": "", "display_phone": "", "distance": 428.2768761513496}, {"id": "xTNRPg456MAC6Zja0bve9Q", "alias": "mr-chang-halal-chinese-queens", "name": "Mr Chang Halal Chinese", "image_url": "https://s3-media4.fl.yelpcdn.com/bphoto/IBmHcxFK2JPe8WDEUyyfvQ/o.jpg", "is_closed": false, "url": "https://www.yelp.com/biz/mr-chang-halal-chinese-queens?adjust_creative=9gNmiWYX8uTbFBeTTvJMdA&utm_campaign=yelp_api_v3&utm_medium=api_v3_business_search&utm_source=9gNmiWYX8uTbFBeTTvJMdA", "review_count": 6, "categories": [{"alias": "chinese", "title": "Chinese"}, {"alias": "halal", "title": "Halal"}], "rating": 4.5, "coordinates": {"latitude": 40.7667426, "longitude": -73.9123844}, "transactions": ["delivery", "pickup"], "location": {"address1": "2545 Steinway St", "address2": "", "address3": null, "city": "Queens", "zip_code": "11103", "country": "US", "state": "NY", "display_address": ["2545 Steinway St", "Queens, NY 11103"]}, "phone": "+17188878625", "display_phone": "(718) 887-8625", "distance": 4889.514142338436}, {"id": "_MdNLeBAcwv5Nb2yArZFvg", "alias": "happy-garden-astoria-4", "name": "Happy Garden", "image_url": "https://s3-media3.fl.yelpcdn.com/bphoto/c7RxOnxE1yvikqcLNQyvXQ/o.jpg", "is_closed": false, "url": "https://www.yelp.com/biz/happy-garden-astoria-4?adjust_creative=9gNmiWYX8uTbFBeTTvJMdA&utm_campaign=yelp_api_v3&utm_medium=api_v3_business_search&utm_source=9gNmiWYX8uTbFBeTTvJMdA", "review_count": 77, "categories": [{"alias": "chinese", "title": "Chinese"}], "rating": 3.5, "coordinates": {"latitude": 40.76728, "longitude": -73.922814}, "transactions": ["delivery", "pickup"], "price": "$", "location": {"address1": "2926 30th Ave", "address2": "", "address3": "", "city": "Astoria", "zip_code": "11102", "country": "US", "state": "NY", "display_address": ["2926 30th Ave", "Astoria, NY 11102"]}, "phone": "+17182741195", "display_phone": "(718) 274-1195", "distance": 4029.2631988670605}, {"id": "g7LLglNkZODPM6VyIqiEAQ", "alias": "chick-it-out-new-york-3", "name": "Chick It Out", "image_url": "https://s3-media1.fl.yelpcdn.com/bphoto/4cr1kqqrIqgGyDsyI14jig/o.jpg", "is_closed": false, "url": "https://www.yelp.com/biz/chick-it-out-new-york-3?adjust_creative=9gNmiWYX8uTbFBeTTvJMdA&utm_campaign=yelp_api_v3&utm_medium=api_v3_business_search&utm_source=9gNmiWYX8uTbFBeTTvJMdA", "review_count": 36, "categories": [{"alias": "thai", "title": "Thai"}, {"alias": "hainan", "title": "Hainan"}, {"alias": "hotdogs", "title": "Fast Food"}], "rating": 4.5, "coordinates": {"latitude": 40.758389, "longitude": -73.9240812}, "transactions": ["delivery", "pickup"], "location": {"address1": "32-06 35th St", "address2": null, "address3": "", "city": "New York", "zip_code": "11106", "country": "US", "state": "NY", "display_address": ["32-06 35th St", "New York, NY 11106"]}, "phone": "+19178326013", "display_phone": "(917) 832-6013", "distance": 3965.500685596062}, {"id": "OBiBi8nimTl9GF64sPQfuQ", "alias": "mother-duck-new-york-2", "name": "Mother Duck", "image_url": "https://s3-media1.fl.yelpcdn.com/bphoto/6ItTncxeuIUTTsk3VxEv-A/o.jpg", "is_closed": false, "url": "https://www.yelp.com/biz/mother-duck-new-york-2?adjust_creative=9gNmiWYX8uTbFBeTTvJMdA&utm_campaign=yelp_api_v3&utm_medium=api_v3_business_search&utm_source=9gNmiWYX8uTbFBeTTvJMdA", "review_count": 53, "categories": [{"alias": "cocktailbars", "title": "Cocktail Bars"}, {"alias": "panasian", "title": "Pan Asian"}], "rating": 4.0, "coordinates": {"latitude": 40.72139, "longitude": -73.98867}, "transactions": ["delivery", "pickup"], "location": {"address1": "167 Orchard St", "address2": null, "address3": "", "city": "New York", "zip_code": "10002", "country": "US", "state": "NY", "display_address": ["167 Orchard St", "New York, NY 10002"]}, "phone": "+16467191700", "display_phone": "(646) 719-1700", "distance": 4505.835704170721}, {"id": "RdGWCbcxA79G1ZMPVL3SGQ", "alias": "nora-thai-brooklyn-4", "name": "Nora Thai", "image_url": "https://s3-media3.fl.yelpcdn.com/bphoto/QhmAmW3OUVX8FxXMEb__dA/o.jpg", "is_closed": false, "url": "https://www.yelp.com/biz/nora-thai-brooklyn-4?adjust_creative=9gNmiWYX8uTbFBeTTvJMdA&utm_campaign=yelp_api_v3&utm_medium=api_v3_business_search&utm_source=9gNmiWYX8uTbFBeTTvJMdA", "review_count": 131, "categories": [{"alias": "thai", "title": "Thai"}, {"alias": "lounges", "title": "Lounges"}, {"alias": "noodles", "title": "Noodles"}], "rating": 3.5, "coordinates": {"latitude": 40.71864, "longitude": -73.95625}, "transactions": ["delivery", "pickup"], "price": "$$", "location": {"address1": "176 N 9th St", "address2": null, "address3": "", "city": "Brooklyn", "zip_code": "11211", "country": "US", "state": "NY", "display_address": ["176 N 9th St", "Brooklyn, NY 11211"]}, "phone": "+17183021499", "display_phone": "(718) 302-1499", "distance": 4650.455217322642}, {"id": "31yEM_YcyAqG6an7attTlg", "alias": "empire-express-long-island-city", "name": "Empire Express", "image_url": "https://s3-media4.fl.yelpcdn.com/bphoto/zCA2QGihlsPtX2MYKaNdcw/o.jpg", "is_closed": false, "url": "https://www.yelp.com/biz/empire-express-long-island-city?adjust_creative=9gNmiWYX8uTbFBeTTvJMdA&utm_campaign=yelp_api_v3&utm_medium=api_v3_business_search&utm_source=9gNmiWYX8uTbFBeTTvJMdA", "review_count": 19, "categories": [{"alias": "chinese", "title": "Chinese"}], "rating": 2.5, "coordinates": {"latitude": 40.7443362968621, "longitude": -73.9313001176036}, "transactions": ["delivery", "pickup"], "price": "$", "location": {"address1": "3308 Queens Blvd", "address2": "", "address3": "", "city": "Long Island City", "zip_code": "11101", "country": "US", "state": "NY", "display_address": ["3308 Queens Blvd", "Long Island City, NY 11101"]}, "phone": "+17183910588", "display_phone": "(718) 391-0588", "distance": 3621.6749429784077}, {"id": "3uXPkkEZbUrbk3e04aBZmQ", "alias": "east-ocean-palace-forest-hills-2", "name": "East Ocean Palace", "image_url": "https://s3-media2.fl.yelpcdn.com/bphoto/N0MpweHE9zbcGyOhv0qVsg/o.jpg", "is_closed": false, "url": "https://www.yelp.com/biz/east-ocean-palace-forest-hills-2?adjust_creative=9gNmiWYX8uTbFBeTTvJMdA&utm_campaign=yelp_api_v3&utm_medium=api_v3_business_search&utm_source=9gNmiWYX8uTbFBeTTvJMdA", "review_count": 367, "categories": [{"alias": "dimsum", "title": "Dim Sum"}, {"alias": "cantonese", "title": "Cantonese"}], "rating": 3.5, "coordinates": {"latitude": 40.7177701592445, "longitude": -73.8353998214006}, "transactions": ["delivery", "pickup"], "price": "$$", "location": {"address1": "113-09 Queens Blvd", "address2": "", "address3": "", "city": "Forest Hills", "zip_code": "11375", "country": "US", "state": "NY", "display_address": ["113-09 Queens Blvd", "Forest Hills, NY 11375"]}, "phone": "+17182681668", "display_phone": "(718) 268-1668", "distance": 12216.800400690292}, {"id": "AyL0Q6_hFD04GLxwRxOFrA", "alias": "pecking-house-brooklyn-2", "name": "Pecking House", "image_url": "https://s3-media3.fl.yelpcdn.com/bphoto/OsRMXiZYpe2vgR1yE_8orQ/o.jpg", "is_closed": false, "url": "https://www.yelp.com/biz/pecking-house-brooklyn-2?adjust_creative=9gNmiWYX8uTbFBeTTvJMdA&utm_campaign=yelp_api_v3&utm_medium=api_v3_business_search&utm_source=9gNmiWYX8uTbFBeTTvJMdA", "review_count": 60, "categories": [{"alias": "chickenshop", "title": "Chicken Shop"}, {"alias": "newamerican", "title": "American (New)"}, {"alias": "taiwanese", "title": "Taiwanese"}], "rating": 4.0, "coordinates": {"latitude": 40.6796443, "longitude": -73.97457729999999}, "transactions": [], "location": {"address1": "244 Flatbush Ave", "address2": "", "address3": null, "city": "Brooklyn", "zip_code": "11217", "country": "US", "state": "NY", "display_address": ["244 Flatbush Ave", "Brooklyn, NY 11217"]}, "phone": "+17184549230", "display_phone": "(718) 454-9230", "distance": 8853.414760212174}, {"id": "U2aUFZARLeSMf4RQIxjuTw", "alias": "lucky-house-kitchen-brooklyn", "name": "Lucky House Kitchen", "image_url": "https://s3-media1.fl.yelpcdn.com/bphoto/ls5IAqyt_XsPXkWx6aVn6w/o.jpg", "is_closed": false, "url": "https://www.yelp.com/biz/lucky-house-kitchen-brooklyn?adjust_creative=9gNmiWYX8uTbFBeTTvJMdA&utm_campaign=yelp_api_v3&utm_medium=api_v3_business_search&utm_source=9gNmiWYX8uTbFBeTTvJMdA", "review_count": 125, "categories": [{"alias": "chinese", "title": "Chinese"}], "rating": 4.5, "coordinates": {"latitude": 40.6838402152061, "longitude": -73.9351565390825}, "transactions": [], "price": "$", "location": {"address1": "343 Lewis Ave", "address2": "", "address3": "", "city": "Brooklyn", "zip_code": "11233", "country": "US", "state": "NY", "display_address": ["343 Lewis Ave", "Brooklyn, NY 11233"]}, "phone": "+17184432298", "display_phone": "(718) 443-2298", "distance": 8870.995670118524}, {"id": "R8V6kbUtyfPAwNNu46vMvg", "alias": "tonii-s-fresh-rice-noodle-new-york", "name": "Tonii\u2019s Fresh Rice Noodle", "image_url": "https://s3-media2.fl.yelpcdn.com/bphoto/tJ_lF7OogY4CRVWBInz6vA/o.jpg", "is_closed": false, "url": "https://www.yelp.com/biz/tonii-s-fresh-rice-noodle-new-york?adjust_creative=9gNmiWYX8uTbFBeTTvJMdA&utm_campaign=yelp_api_v3&utm_medium=api_v3_business_search&utm_source=9gNmiWYX8uTbFBeTTvJMdA", "review_count": 285, "categories": [{"alias": "chinese", "title": "Chinese"}, {"alias": "noodles", "title": "Noodles"}], "rating": 4.5, "coordinates": {"latitude": 40.715608, "longitude": -73.998949}, "transactions": ["delivery", "pickup"], "price": "$", "location": {"address1": "83 Bayard St", "address2": "", "address3": null, "city": "New York", "zip_code": "10013", "country": "US", "state": "NY", "display_address": ["83 Bayard St", "New York, NY 10013"]}, "phone": "+16462500696", "display_phone": "(646) 250-0696", "distance": 5439.861950622221}, {"id": "yUVcpgecpq1qncpa1x34Hg", "alias": "golden-city-seafood-restaurant-brooklyn", "name": "Golden City Seafood Restaurant", "image_url": "https://s3-media3.fl.yelpcdn.com/bphoto/2VswaJzvXNhA8O9x1Fdocg/o.jpg", "is_closed": false, "url": "https://www.yelp.com/biz/golden-city-seafood-restaurant-brooklyn?adjust_creative=9gNmiWYX8uTbFBeTTvJMdA&utm_campaign=yelp_api_v3&utm_medium=api_v3_business_search&utm_source=9gNmiWYX8uTbFBeTTvJMdA", "review_count": 85, "categories": [{"alias": "chinese", "title": "Chinese"}], "rating": 3.5, "coordinates": {"latitude": 40.61683, "longitude": -73.98575}, "transactions": ["delivery"], "price": "$$", "location": {"address1": "6418 20th Ave", "address2": "", "address3": null, "city": "Brooklyn", "zip_code": "11204", "country": "US", "state": "NY", "display_address": ["6418 20th Ave", "Brooklyn, NY 11204"]}, "phone": "", "display_phone": "", "distance": 15879.453563543982}, {"id": "QQfwlKFD6X8-ZXf7gfQZqg", "alias": "hardee-new-york-4", "name": "Hardee", "image_url": "https://s3-media1.fl.yelpcdn.com/bphoto/w2rSwrMnLYsmVnlRcrZvrA/o.jpg", "is_closed": false, "url": "https://www.yelp.com/biz/hardee-new-york-4?adjust_creative=9gNmiWYX8uTbFBeTTvJMdA&utm_campaign=yelp_api_v3&utm_medium=api_v3_business_search&utm_source=9gNmiWYX8uTbFBeTTvJMdA", "review_count": 31, "categories": [{"alias": "chinese", "title": "Chinese"}], "rating": 4.5, "coordinates": {"latitude": 40.6933441162109, "longitude": -73.9722290039062}, "transactions": [], "price": "$", "location": {"address1": "351 Myrtle Ave", "address2": "", "address3": "", "city": "New York", "zip_code": "11205", "country": "US", "state": "NY", "display_address": ["351 Myrtle Ave", "New York, NY 11205"]}, "phone": "+13478897210", "display_phone": "(347) 889-7210", "distance": 7323.43784093004}, {"id": "5AD9nY8UrYlCVMb3Y6KeWg", "alias": "bonchon-new-york-17", "name": "Bonchon", "image_url": "https://s3-media2.fl.yelpcdn.com/bphoto/floO-t61es28R-O78pj17w/o.jpg", "is_closed": false, "url": "https://www.yelp.com/biz/bonchon-new-york-17?adjust_creative=9gNmiWYX8uTbFBeTTvJMdA&utm_campaign=yelp_api_v3&utm_medium=api_v3_business_search&utm_source=9gNmiWYX8uTbFBeTTvJMdA", "review_count": 1090, "categories": [{"alias": "korean", "title": "Korean"}, {"alias": "chicken_wings", "title": "Chicken Wings"}, {"alias": "asianfusion", "title": "Asian Fusion"}], "rating": 3.5, "coordinates": {"latitude": 40.75383867, "longitude": -73.98911659}, "transactions": ["delivery", "pickup"], "price": "$$", "location": {"address1": "207 W 38th St", "address2": "", "address3": "", "city": "New York", "zip_code": "10018", "country": "US", "state": "NY", "display_address": ["207 W 38th St", "New York, NY 10018"]}, "phone": "+12122213339", "display_phone": "(212) 221-3339", "distance": 1749.7290127891529}, {"id": "VwRf5JAGAMJIfAfvp0zTNg", "alias": "hing-lung-kitchen-north-bergen", "name": "Hing Lung Kitchen", "image_url": "https://s3-media4.fl.yelpcdn.com/bphoto/7rEuibUyU4SEhWpPCtfauw/o.jpg", "is_closed": false, "url": "https://www.yelp.com/biz/hing-lung-kitchen-north-bergen?adjust_creative=9gNmiWYX8uTbFBeTTvJMdA&utm_campaign=yelp_api_v3&utm_medium=api_v3_business_search&utm_source=9gNmiWYX8uTbFBeTTvJMdA", "review_count": 4, "categories": [{"alias": "chinese", "title": "Chinese"}], "rating": 4.5, "coordinates": {"latitude": 40.8045, "longitude": -74.0183}, "transactions": ["delivery"], "price": "$", "location": {"address1": "7600 Tonnelle Ave", "address2": "", "address3": "", "city": "North Bergen", "zip_code": "07047", "country": "US", "state": "NJ", "display_address": ["7600 Tonnelle Ave", "North Bergen, NJ 07047"]}, "phone": "+12018542235", "display_phone": "(201) 854-2235", "distance": 6498.9913968514065}, {"id": "hgCYM-CETMxmNCerr2LrEQ", "alias": "china-wok-new-york-5", "name": "China Wok", "image_url": "https://s3-media4.fl.yelpcdn.com/bphoto/Mi_B74xa5Z49sEg5NdE0aw/o.jpg", "is_closed": false, "url": "https://www.yelp.com/biz/china-wok-new-york-5?adjust_creative=9gNmiWYX8uTbFBeTTvJMdA&utm_campaign=yelp_api_v3&utm_medium=api_v3_business_search&utm_source=9gNmiWYX8uTbFBeTTvJMdA", "review_count": 14, "categories": [{"alias": "chinese", "title": "Chinese"}, {"alias": "hotdogs", "title": "Fast Food"}], "rating": 2.0, "coordinates": {"latitude": 40.72216, "longitude": -73.97747}, "transactions": ["delivery"], "location": {"address1": "63 Ave D", "address2": "", "address3": "", "city": "New York", "zip_code": "10009", "country": "US", "state": "NY", "display_address": ["63 Ave D", "New York, NY 10009"]}, "phone": "+12129799896", "display_phone": "(212) 979-9896", "distance": 4166.734305453658}, {"id": "oh6u1GJ3jFJqQDX1oxIJAg", "alias": "new-spicy-village-new-york", "name": "New Spicy Village", "image_url": "https://s3-media4.fl.yelpcdn.com/bphoto/MrK8WeYkxW8fdo9LqopbFg/o.jpg", "is_closed": false, "url": "https://www.yelp.com/biz/new-spicy-village-new-york?adjust_creative=9gNmiWYX8uTbFBeTTvJMdA&utm_campaign=yelp_api_v3&utm_medium=api_v3_business_search&utm_source=9gNmiWYX8uTbFBeTTvJMdA", "review_count": 19, "categories": [{"alias": "noodles", "title": "Noodles"}, {"alias": "chinese", "title": "Chinese"}], "rating": 4.0, "coordinates": {"latitude": 40.71850410903944, "longitude": -73.99170488119125}, "transactions": [], "location": {"address1": "118 Eldridge St", "address2": "", "address3": null, "city": "New York", "zip_code": "10002", "country": "US", "state": "NY", "display_address": ["118 Eldridge St", "New York, NY 10002"]}, "phone": "+16466093048", "display_phone": "(646) 609-3048", "distance": 4891.657861179264}, {"id": "x_FHPGBxMVrar9lcO7DUrQ", "alias": "golden-dragon-restaurant-bronx", "name": "Golden Dragon Restaurant", "image_url": "https://s3-media2.fl.yelpcdn.com/bphoto/8Yt_aFtsw__bp8yMntbSaA/o.jpg", "is_closed": false, "url": "https://www.yelp.com/biz/golden-dragon-restaurant-bronx?adjust_creative=9gNmiWYX8uTbFBeTTvJMdA&utm_campaign=yelp_api_v3&utm_medium=api_v3_business_search&utm_source=9gNmiWYX8uTbFBeTTvJMdA", "review_count": 4, "categories": [{"alias": "chinese", "title": "Chinese"}], "rating": 3.5, "coordinates": {"latitude": 40.85061, "longitude": -73.90693}, "transactions": ["delivery", "pickup"], "price": "$$", "location": {"address1": "123 E Tremont Ave", "address2": "", "address3": "", "city": "Bronx", "zip_code": "10453", "country": "US", "state": "NY", "display_address": ["123 E Tremont Ave", "Bronx, NY 10453"]}, "phone": "+17187166800", "display_phone": "(718) 716-6800", "distance": 11459.204939603085}, {"id": "3OT1deSiIYhrcXWJ1sD3wA", "alias": "shui-mei-cafe-new-york", "name": "Shui Mei Cafe", "image_url": "https://s3-media3.fl.yelpcdn.com/bphoto/1rcZ227Iy7kdCYmxrpFz0Q/o.jpg", "is_closed": false, "url": "https://www.yelp.com/biz/shui-mei-cafe-new-york?adjust_creative=9gNmiWYX8uTbFBeTTvJMdA&utm_campaign=yelp_api_v3&utm_medium=api_v3_business_search&utm_source=9gNmiWYX8uTbFBeTTvJMdA", "review_count": 47, "categories": [{"alias": "cafes", "title": "Cafes"}, {"alias": "chinese", "title": "Chinese"}], "rating": 4.5, "coordinates": {"latitude": 40.7135318, "longitude": -73.9948386}, "transactions": ["delivery"], "price": "$", "location": {"address1": "67 E Broadway", "address2": "", "address3": "", "city": "New York", "zip_code": "10002", "country": "US", "state": "NY", "display_address": ["67 E Broadway", "New York, NY 10002"]}, "phone": "+12127912819", "display_phone": "(212) 791-2819", "distance": 5503.58036038625}, {"id": "wQxJkDpO3kOSBRSsRi3CaA", "alias": "jade-eatery-and-lounge-forest-hills", "name": "Jade Eatery And Lounge", "image_url": "https://s3-media2.fl.yelpcdn.com/bphoto/SieOHRaEqxv-uSDaXpfawA/o.jpg", "is_closed": false, "url": "https://www.yelp.com/biz/jade-eatery-and-lounge-forest-hills?adjust_creative=9gNmiWYX8uTbFBeTTvJMdA&utm_campaign=yelp_api_v3&utm_medium=api_v3_business_search&utm_source=9gNmiWYX8uTbFBeTTvJMdA", "review_count": 783, "categories": [{"alias": "asianfusion", "title": "Asian Fusion"}, {"alias": "sushi", "title": "Sushi Bars"}, {"alias": "japanese", "title": "Japanese"}], "rating": 3.5, "coordinates": {"latitude": 40.718933, "longitude": -73.845291}, "transactions": ["delivery", "pickup"], "price": "$$", "location": {"address1": "1 Station Sq", "address2": "Ste 2", "address3": "", "city": "Forest Hills", "zip_code": "11375", "country": "US", "state": "NY", "display_address": ["1 Station Sq", "Ste 2", "Forest Hills, NY 11375"]}, "phone": "+17187932203", "display_phone": "(718) 793-2203", "distance": 11387.016063526255}, {"id": "Neiw4AB_s7BpLSxyUrSXBQ", "alias": "sushi-and-noodles-brooklyn-13", "name": "Sushi & Noodles", "image_url": "https://s3-media4.fl.yelpcdn.com/bphoto/xndSRoSOyaxbiLGE1UOtRw/o.jpg", "is_closed": false, "url": "https://www.yelp.com/biz/sushi-and-noodles-brooklyn-13?adjust_creative=9gNmiWYX8uTbFBeTTvJMdA&utm_campaign=yelp_api_v3&utm_medium=api_v3_business_search&utm_source=9gNmiWYX8uTbFBeTTvJMdA", "review_count": 174, "categories": [{"alias": "noodles", "title": "Noodles"}, {"alias": "sushi", "title": "Sushi Bars"}, {"alias": "desserts", "title": "Desserts"}], "rating": 4.0, "coordinates": {"latitude": 40.70347, "longitude": -73.92577}, "transactions": ["delivery", "pickup"], "price": "$$", "location": {"address1": "274 Troutman St", "address2": null, "address3": null, "city": "Brooklyn", "zip_code": "11237", "country": "US", "state": "NY", "display_address": ["274 Troutman St", "Brooklyn, NY 11237"]}, "phone": "+17183662825", "display_phone": "(718) 366-2825", "distance": 7214.921598970241}, {"id": "pfzQGY4bgpxBWR26a6rzxQ", "alias": "china-taste-north-bergen", "name": "China Taste", "image_url": "https://s3-media2.fl.yelpcdn.com/bphoto/r1MNb_FrUNZRB6XUQO3bTw/o.jpg", "is_closed": false, "url": "https://www.yelp.com/biz/china-taste-north-bergen?adjust_creative=9gNmiWYX8uTbFBeTTvJMdA&utm_campaign=yelp_api_v3&utm_medium=api_v3_business_search&utm_source=9gNmiWYX8uTbFBeTTvJMdA", "review_count": 23, "categories": [{"alias": "chinese", "title": "Chinese"}], "rating": 3.0, "coordinates": {"latitude": 40.80103, "longitude": -74.00686}, "transactions": ["delivery", "pickup"], "price": "$", "location": {"address1": "7808 Bergenline Ave", "address2": "", "address3": "", "city": "North Bergen", "zip_code": "07047", "country": "US", "state": "NJ", "display_address": ["7808 Bergenline Ave", "North Bergen, NJ 07047"]}, "phone": "+12018697924", "display_phone": "(201) 869-7924", "distance": 5621.182463518153}, {"id": "l1JP5MiQja95rF99qeJ1zw", "alias": "golden-wok-new-york-2", "name": "Golden Wok", "image_url": "https://s3-media2.fl.yelpcdn.com/bphoto/qv-9pO3U_o1Ev3g89GtDhg/o.jpg", "is_closed": false, "url": "https://www.yelp.com/biz/golden-wok-new-york-2?adjust_creative=9gNmiWYX8uTbFBeTTvJMdA&utm_campaign=yelp_api_v3&utm_medium=api_v3_business_search&utm_source=9gNmiWYX8uTbFBeTTvJMdA", "review_count": 60, "categories": [{"alias": "chinese", "title": "Chinese"}], "rating": 3.5, "coordinates": {"latitude": 40.827003, "longitude": -73.946723}, "transactions": ["delivery", "pickup"], "price": "$", "location": {"address1": "1770 Amsterdam Ave", "address2": "", "address3": "", "city": "New York", "zip_code": "10031", "country": "US", "state": "NY", "display_address": ["1770 Amsterdam Ave", "New York, NY 10031"]}, "phone": "+12122810808", "display_phone": "(212) 281-0808", "distance": 7785.205528116149}, {"id": "s_N9uqqUqjgL7O-bHKZ80w", "alias": "china-express-guttenberg", "name": "China Express", "image_url": "https://s3-media2.fl.yelpcdn.com/bphoto/5SxErYMYGnpCTwisH_bYAQ/o.jpg", "is_closed": false, "url": "https://www.yelp.com/biz/china-express-guttenberg?adjust_creative=9gNmiWYX8uTbFBeTTvJMdA&utm_campaign=yelp_api_v3&utm_medium=api_v3_business_search&utm_source=9gNmiWYX8uTbFBeTTvJMdA", "review_count": 25, "categories": [{"alias": "chinese", "title": "Chinese"}], "rating": 4.0, "coordinates": {"latitude": 40.79311, "longitude": -74.00313}, "transactions": ["delivery", "pickup"], "price": "$", "location": {"address1": "7013 Park Ave", "address2": "", "address3": "", "city": "Guttenberg", "zip_code": "07093", "country": "US", "state": "NJ", "display_address": ["7013 Park Ave", "Guttenberg, NJ 07093"]}, "phone": "+12018693122", "display_phone": "(201) 869-3122", "distance": 4706.110705232047}, {"id": "I3_4xi2YNywn8-SKefQDjg", "alias": "yangs-chinese-food-new-york", "name": "Yang's Chinese Food", "image_url": "", "is_closed": false, "url": "https://www.yelp.com/biz/yangs-chinese-food-new-york?adjust_creative=9gNmiWYX8uTbFBeTTvJMdA&utm_campaign=yelp_api_v3&utm_medium=api_v3_business_search&utm_source=9gNmiWYX8uTbFBeTTvJMdA", "review_count": 3, "categories": [{"alias": "chinese", "title": "Chinese"}], "rating": 3.5, "coordinates": {"latitude": 40.73994, "longitude": -74.00334}, "transactions": [], "location": {"address1": "304 W 14th St", "address2": "", "address3": "", "city": "New York", "zip_code": "10014", "country": "US", "state": "NY", "display_address": ["304 W 14th St", "New York, NY 10014"]}, "phone": "+12123664525", "display_phone": "(212) 366-4525", "distance": 3557.728749064104}, {"id": "inA7o0esW4cBTdR6wZ-I9A", "alias": "young-and-rich-flushing-4", "name": "Young And Rich", "image_url": "https://s3-media4.fl.yelpcdn.com/bphoto/V75sXNMcjer1kh_Nt5FLcg/o.jpg", "is_closed": false, "url": "https://www.yelp.com/biz/young-and-rich-flushing-4?adjust_creative=9gNmiWYX8uTbFBeTTvJMdA&utm_campaign=yelp_api_v3&utm_medium=api_v3_business_search&utm_source=9gNmiWYX8uTbFBeTTvJMdA", "review_count": 38, "categories": [{"alias": "chinese", "title": "Chinese"}, {"alias": "seafood", "title": "Seafood"}], "rating": 4.0, "coordinates": {"latitude": 40.761858, "longitude": -73.832687}, "transactions": [], "price": "$$", "location": {"address1": "36-19 Prince St", "address2": "", "address3": null, "city": "Flushing", "zip_code": "11354", "country": "US", "state": "NY", "display_address": ["36-19 Prince St", "Flushing, NY 11354"]}, "phone": "+16678668686", "display_phone": "(667) 866-8686", "distance": 11528.150590153802}, {"id": "BEuZGvNlbM4tXq7YICyM6w", "alias": "luannes-wild-ginger-all-asian-vegan-new-york", "name": "LuAnne's Wild Ginger All-Asian Vegan", "image_url": "https://s3-media4.fl.yelpcdn.com/bphoto/e0Kg1tJ_2DzAIbMooVQxxw/o.jpg", "is_closed": false, "url": "https://www.yelp.com/biz/luannes-wild-ginger-all-asian-vegan-new-york?adjust_creative=9gNmiWYX8uTbFBeTTvJMdA&utm_campaign=yelp_api_v3&utm_medium=api_v3_business_search&utm_source=9gNmiWYX8uTbFBeTTvJMdA", "review_count": 684, "categories": [{"alias": "vegan", "title": "Vegan"}, {"alias": "panasian", "title": "Pan Asian"}, {"alias": "kosher", "title": "Kosher"}], "rating": 4.0, "coordinates": {"latitude": 40.7204631, "longitude": -73.9964956}, "transactions": ["delivery", "pickup"], "price": "$$", "location": {"address1": "380 Broome St", "address2": null, "address3": "", "city": "New York", "zip_code": "10013", "country": "US", "state": "NY", "display_address": ["380 Broome St", "New York, NY 10013"]}, "phone": "+12129661883", "display_phone": "(212) 966-1883", "distance": 4865.540699105092}, {"id": "MxdsqhU-Qq34WAl5qL4wsQ", "alias": "dd-soup-dumpling-new-york-3", "name": "DD Soup Dumpling", "image_url": "https://s3-media1.fl.yelpcdn.com/bphoto/CtlX-u0J6zmGYEp9lO4rrA/o.jpg", "is_closed": false, "url": "https://www.yelp.com/biz/dd-soup-dumpling-new-york-3?adjust_creative=9gNmiWYX8uTbFBeTTvJMdA&utm_campaign=yelp_api_v3&utm_medium=api_v3_business_search&utm_source=9gNmiWYX8uTbFBeTTvJMdA", "review_count": 11, "categories": [{"alias": "chinese", "title": "Chinese"}], "rating": 4.5, "coordinates": {"latitude": 40.761772, "longitude": -73.989812}, "transactions": [], "location": {"address1": "690 9th Ave", "address2": "", "address3": null, "city": "New York", "zip_code": "10036", "country": "US", "state": "NY", "display_address": ["690 9th Ave", "New York, NY 10036"]}, "phone": "+16464788661", "display_phone": "(646) 478-8661", "distance": 1729.841510608871}, {"id": "jXL7zCeuhZnQVei5rfq7qw", "alias": "the-braised-shop-new-york", "name": "The Braised Shop", "image_url": "https://s3-media2.fl.yelpcdn.com/bphoto/RzBMa6fPhG37-uvfKlUToQ/o.jpg", "is_closed": false, "url": "https://www.yelp.com/biz/the-braised-shop-new-york?adjust_creative=9gNmiWYX8uTbFBeTTvJMdA&utm_campaign=yelp_api_v3&utm_medium=api_v3_business_search&utm_source=9gNmiWYX8uTbFBeTTvJMdA", "review_count": 106, "categories": [{"alias": "taiwanese", "title": "Taiwanese"}], "rating": 4.0, "coordinates": {"latitude": 40.7289533, "longitude": -73.9845}, "transactions": ["delivery", "pickup"], "price": "$$", "location": {"address1": "241 E 10th St", "address2": null, "address3": "", "city": "New York", "zip_code": "10003", "country": "US", "state": "NY", "display_address": ["241 E 10th St", "New York, NY 10003"]}, "phone": "+16468633200", "display_phone": "(646) 863-3200", "distance": 3588.444028509956}, {"id": "BG0F1eTMikmXnL2C03Oq3A", "alias": "foo-hing-chinese-kitchen-bronx", "name": "Foo-Hing Chinese Kitchen", "image_url": "https://s3-media3.fl.yelpcdn.com/bphoto/egcQCf8mKCon7h_tvQj8TQ/o.jpg", "is_closed": false, "url": "https://www.yelp.com/biz/foo-hing-chinese-kitchen-bronx?adjust_creative=9gNmiWYX8uTbFBeTTvJMdA&utm_campaign=yelp_api_v3&utm_medium=api_v3_business_search&utm_source=9gNmiWYX8uTbFBeTTvJMdA", "review_count": 7, "categories": [{"alias": "chinese", "title": "Chinese"}], "rating": 4.5, "coordinates": {"latitude": 40.8135242, "longitude": -73.9222125}, "transactions": [], "price": "$", "location": {"address1": "2706 3rd Ave", "address2": "", "address3": "", "city": "Bronx", "zip_code": "10454", "country": "US", "state": "NY", "display_address": ["2706 3rd Ave", "Bronx, NY 10454"]}, "phone": "+17186657593", "display_phone": "(718) 665-7593", "distance": 7255.875359632401}, {"id": "78T09sip-rf1Lgqu-psg2w", "alias": "loong-s-dumpling-brooklyn-5", "name": "Loong\u2019s Dumpling", "image_url": "https://s3-media4.fl.yelpcdn.com/bphoto/FpmOspFsHEEZd1tPit9MRQ/o.jpg", "is_closed": false, "url": "https://www.yelp.com/biz/loong-s-dumpling-brooklyn-5?adjust_creative=9gNmiWYX8uTbFBeTTvJMdA&utm_campaign=yelp_api_v3&utm_medium=api_v3_business_search&utm_source=9gNmiWYX8uTbFBeTTvJMdA", "review_count": 9, "categories": [{"alias": "streetvendors", "title": "Street Vendors"}, {"alias": "chinese", "title": "Chinese"}, {"alias": "noodles", "title": "Noodles"}], "rating": 4.5, "coordinates": {"latitude": 40.6938678, "longitude": -73.9924355}, "transactions": ["delivery", "pickup"], "location": {"address1": "73 Clinton St", "address2": null, "address3": "", "city": "Brooklyn", "zip_code": "11201", "country": "US", "state": "NY", "display_address": ["73 Clinton St", "Brooklyn, NY 11201"]}, "phone": "+19298236555", "display_phone": "(929) 823-6555", "distance": 7504.906682413765}, {"id": "GfLL6-n6UNZ07SEHfjeIgA", "alias": "mee-sum-cafe-new-york", "name": "Mee Sum Cafe", "image_url": "https://s3-media3.fl.yelpcdn.com/bphoto/anjevZ_Qke1ny_i-T743Bg/o.jpg", "is_closed": false, "url": "https://www.yelp.com/biz/mee-sum-cafe-new-york?adjust_creative=9gNmiWYX8uTbFBeTTvJMdA&utm_campaign=yelp_api_v3&utm_medium=api_v3_business_search&utm_source=9gNmiWYX8uTbFBeTTvJMdA", "review_count": 59, "categories": [{"alias": "dimsum", "title": "Dim Sum"}, {"alias": "cafes", "title": "Cafes"}], "rating": 4.0, "coordinates": {"latitude": 40.715045, "longitude": -73.998291}, "transactions": [], "price": "$", "location": {"address1": "26 Pell St", "address2": "", "address3": "", "city": "New York", "zip_code": "10013", "country": "US", "state": "NY", "display_address": ["26 Pell St", "New York, NY 10013"]}, "phone": "+12123495260", "display_phone": "(212) 349-5260", "distance": 5471.346281036572}, {"id": "G4K-mNlM0oLKo8N--Ne2AA", "alias": "sampan-chinese-restaurant-astoria", "name": "Sampan Chinese Restaurant", "image_url": "https://s3-media4.fl.yelpcdn.com/bphoto/czgU_B3-uHt69bEU4IjQQA/o.jpg", "is_closed": false, "url": "https://www.yelp.com/biz/sampan-chinese-restaurant-astoria?adjust_creative=9gNmiWYX8uTbFBeTTvJMdA&utm_campaign=yelp_api_v3&utm_medium=api_v3_business_search&utm_source=9gNmiWYX8uTbFBeTTvJMdA", "review_count": 82, "categories": [{"alias": "chinese", "title": "Chinese"}], "rating": 3.0, "coordinates": {"latitude": 40.7644, "longitude": -73.9148699}, "transactions": ["delivery", "pickup"], "price": "$", "location": {"address1": "28-48 Steinway St", "address2": "", "address3": "", "city": "Astoria", "zip_code": "11103", "country": "US", "state": "NY", "display_address": ["28-48 Steinway St", "Astoria, NY 11103"]}, "phone": "+17182781931", "display_phone": "(718) 278-1931", "distance": 4646.922933194658}, {"id": "Yj3pRPnIG05AjRfGP0Afjg", "alias": "mei-chung-mei-restaurant-bronx", "name": "Mei Chung Mei Restaurant", "image_url": "https://s3-media3.fl.yelpcdn.com/bphoto/HcrAZy4SXMEk1IABNKLzKw/o.jpg", "is_closed": false, "url": "https://www.yelp.com/biz/mei-chung-mei-restaurant-bronx?adjust_creative=9gNmiWYX8uTbFBeTTvJMdA&utm_campaign=yelp_api_v3&utm_medium=api_v3_business_search&utm_source=9gNmiWYX8uTbFBeTTvJMdA", "review_count": 26, "categories": [{"alias": "chinese", "title": "Chinese"}], "rating": 4.0, "coordinates": {"latitude": 40.8784523010254, "longitude": -73.902961730957}, "transactions": ["pickup"], "price": "$$", "location": {"address1": "157 W 231st St", "address2": "", "address3": "", "city": "Bronx", "zip_code": "10463", "country": "US", "state": "NY", "display_address": ["157 W 231st St", "Bronx, NY 10463"]}, "phone": "+17185496719", "display_phone": "(718) 549-6719", "distance": 14397.798667217081}, {"id": "1THlGdn06KHrP5meWQ_1zg", "alias": "new-arping-restaurant-new-york", "name": "New Arping Restaurant", "image_url": "https://s3-media1.fl.yelpcdn.com/bphoto/Ou9dMknmOWRJadNXHFZaHg/o.jpg", "is_closed": false, "url": "https://www.yelp.com/biz/new-arping-restaurant-new-york?adjust_creative=9gNmiWYX8uTbFBeTTvJMdA&utm_campaign=yelp_api_v3&utm_medium=api_v3_business_search&utm_source=9gNmiWYX8uTbFBeTTvJMdA", "review_count": 11, "categories": [{"alias": "chinese", "title": "Chinese"}], "rating": 4.5, "coordinates": {"latitude": 40.7140064799458, "longitude": -73.9957533427827}, "transactions": ["delivery"], "location": {"address1": "45 Division St", "address2": "", "address3": null, "city": "New York", "zip_code": "10002", "country": "US", "state": "NY", "display_address": ["45 Division St", "New York, NY 10002"]}, "phone": "+12129666688", "display_phone": "(212) 966-6688", "distance": 5485.475501752441}, {"id": "5W89QQZqPJazBS80anuu3Q", "alias": "wah-yoan-restaurant-west-new-york", "name": "Wah Yoan Restaurant", "image_url": "https://s3-media1.fl.yelpcdn.com/bphoto/VAX5ohi0jroPqwtj99EOVQ/o.jpg", "is_closed": false, "url": "https://www.yelp.com/biz/wah-yoan-restaurant-west-new-york?adjust_creative=9gNmiWYX8uTbFBeTTvJMdA&utm_campaign=yelp_api_v3&utm_medium=api_v3_business_search&utm_source=9gNmiWYX8uTbFBeTTvJMdA", "review_count": 22, "categories": [{"alias": "chinese", "title": "Chinese"}], "rating": 3.5, "coordinates": {"latitude": 40.782309671353566, "longitude": -74.0121529339152}, "transactions": ["delivery", "pickup"], "price": "$", "location": {"address1": "5406 Park Ave", "address2": null, "address3": null, "city": "West New York", "zip_code": "07093", "country": "US", "state": "NJ", "display_address": ["5406 Park Ave", "West New York, NJ 07093"]}, "phone": "+12013258888", "display_phone": "(201) 325-8888", "distance": 4412.974369238509}, {"id": "QlVBFWxQ-HY-O2AmqHiJxA", "alias": "new-china-restaurant-bronx-2", "name": "New China Restaurant", "image_url": "https://s3-media3.fl.yelpcdn.com/bphoto/2BG_q4FfxPvQnrCRdrKBkg/o.jpg", "is_closed": false, "url": "https://www.yelp.com/biz/new-china-restaurant-bronx-2?adjust_creative=9gNmiWYX8uTbFBeTTvJMdA&utm_campaign=yelp_api_v3&utm_medium=api_v3_business_search&utm_source=9gNmiWYX8uTbFBeTTvJMdA", "review_count": 11, "categories": [{"alias": "chinese", "title": "Chinese"}], "rating": 3.0, "coordinates": {"latitude": 40.8199502681327, "longitude": -73.9133950213959}, "transactions": ["delivery", "pickup"], "price": "$", "location": {"address1": "3035 3rd Ave", "address2": "", "address3": "", "city": "Bronx", "zip_code": "10455", "country": "US", "state": "NY", "display_address": ["3035 3rd Ave", "Bronx, NY 10455"]}, "phone": "+17182922493", "display_phone": "(718) 292-2493", "distance": 8248.52534946042}, {"id": "aLLW3s2Ea0dmUsmg_a8Csg", "alias": "empire-wok-new-rochelle", "name": "Empire Wok", "image_url": "https://s3-media3.fl.yelpcdn.com/bphoto/u5UB_Dnp7pIsreMQzZBilQ/o.jpg", "is_closed": false, "url": "https://www.yelp.com/biz/empire-wok-new-rochelle?adjust_creative=9gNmiWYX8uTbFBeTTvJMdA&utm_campaign=yelp_api_v3&utm_medium=api_v3_business_search&utm_source=9gNmiWYX8uTbFBeTTvJMdA", "review_count": 18, "categories": [{"alias": "chinese", "title": "Chinese"}], "rating": 4.0, "coordinates": {"latitude": 40.9051115, "longitude": -73.7746723}, "transactions": ["delivery"], "price": "$", "location": {"address1": "123 Pelham Rd", "address2": "", "address3": "", "city": "New Rochelle", "zip_code": "10805", "country": "US", "state": "NY", "display_address": ["123 Pelham Rd", "New Rochelle, NY 10805"]}, "phone": "+19146325688", "display_phone": "(914) 632-5688", "distance": 23090.032975016242}, {"id": "zhkyBId_RIPyiOFE2R1PRg", "alias": "nobi-sushi-new-york", "name": "Nobi Sushi", "image_url": "https://s3-media1.fl.yelpcdn.com/bphoto/I4eKMtRDJfI4rZo1AA2smg/o.jpg", "is_closed": false, "url": "https://www.yelp.com/biz/nobi-sushi-new-york?adjust_creative=9gNmiWYX8uTbFBeTTvJMdA&utm_campaign=yelp_api_v3&utm_medium=api_v3_business_search&utm_source=9gNmiWYX8uTbFBeTTvJMdA", "review_count": 229, "categories": [{"alias": "sushi", "title": "Sushi Bars"}, {"alias": "japanese", "title": "Japanese"}, {"alias": "asianfusion", "title": "Asian Fusion"}], "rating": 3.5, "coordinates": {"latitude": 40.74332, "longitude": -73.97965}, "transactions": ["delivery", "pickup"], "price": "$$", "location": {"address1": "437 3rd Ave", "address2": "", "address3": "", "city": "New York", "zip_code": "10016", "country": "US", "state": "NY", "display_address": ["437 3rd Ave", "New York, NY 10016"]}, "phone": "+12124818338", "display_phone": "(212) 481-8338", "distance": 1956.2244151429609}, {"id": "7uAxbCgcY33A0NeUb2frlQ", "alias": "vybes-109-new-york", "name": "Vybes 109", "image_url": "https://s3-media3.fl.yelpcdn.com/bphoto/r6qc_3nGe6jQ6tF_KkkTMQ/o.jpg", "is_closed": false, "url": "https://www.yelp.com/biz/vybes-109-new-york?adjust_creative=9gNmiWYX8uTbFBeTTvJMdA&utm_campaign=yelp_api_v3&utm_medium=api_v3_business_search&utm_source=9gNmiWYX8uTbFBeTTvJMdA", "review_count": 15, "categories": [{"alias": "dimsum", "title": "Dim Sum"}, {"alias": "jazzandblues", "title": "Jazz & Blues"}], "rating": 4.5, "coordinates": {"latitude": 40.71755, "longitude": -73.99859}, "transactions": ["delivery", "pickup"], "location": {"address1": "109 Mulberry St", "address2": "", "address3": null, "city": "New York", "zip_code": "10013", "country": "US", "state": "NY", "display_address": ["109 Mulberry St", "New York, NY 10013"]}, "phone": "+19176450211", "display_phone": "(917) 645-0211", "distance": 5234.260367173122}, {"id": "azHDhKQ4ta-RBzBD_yHKww", "alias": "dim-sum-alley-new-york", "name": "Dim Sum Alley", "image_url": "", "is_closed": false, "url": "https://www.yelp.com/biz/dim-sum-alley-new-york?adjust_creative=9gNmiWYX8uTbFBeTTvJMdA&utm_campaign=yelp_api_v3&utm_medium=api_v3_business_search&utm_source=9gNmiWYX8uTbFBeTTvJMdA", "review_count": 1, "categories": [{"alias": "dimsum", "title": "Dim Sum"}, {"alias": "fooddeliveryservices", "title": "Food Delivery Services"}], "rating": 4.0, "coordinates": {"latitude": 40.80004, "longitude": -73.96578}, "transactions": ["delivery"], "location": {"address1": "929 Amsterdam Ave", "address2": "", "address3": null, "city": "New York", "zip_code": "10025", "country": "US", "state": "NY", "display_address": ["929 Amsterdam Ave", "New York, NY 10025"]}, "phone": "+15513023343", "display_phone": "(551) 302-3343", "distance": 4558.348154432101}, {"id": "ENfB82aVceC3VcTfq54rxQ", "alias": "lees-chinese-restaurant-jersey-city", "name": "Lee's Chinese Restaurant", "image_url": "https://s3-media4.fl.yelpcdn.com/bphoto/BOv5H-cjyin125wCybC40w/o.jpg", "is_closed": false, "url": "https://www.yelp.com/biz/lees-chinese-restaurant-jersey-city?adjust_creative=9gNmiWYX8uTbFBeTTvJMdA&utm_campaign=yelp_api_v3&utm_medium=api_v3_business_search&utm_source=9gNmiWYX8uTbFBeTTvJMdA", "review_count": 23, "categories": [{"alias": "chinese", "title": "Chinese"}], "rating": 3.5, "coordinates": {"latitude": 40.7543291, "longitude": -74.0468573}, "transactions": ["delivery"], "price": "$", "location": {"address1": "1151 Summit Ave", "address2": "", "address3": "", "city": "Jersey City", "zip_code": "07307", "country": "US", "state": "NJ", "display_address": ["1151 Summit Ave", "Jersey City, NJ 07307"]}, "phone": "+12012171557", "display_phone": "(201) 217-1557", "distance": 6536.807452111496}, {"id": "c6A3P3Az_Ft2NT2ReqqxDw", "alias": "kpot-korean-bbq-and-hot-pot-staten-island", "name": "KPOT Korean BBQ & Hot Pot", "image_url": "https://s3-media4.fl.yelpcdn.com/bphoto/ml2RqgeZlpuk0w0wABDe5A/o.jpg", "is_closed": false, "url": "https://www.yelp.com/biz/kpot-korean-bbq-and-hot-pot-staten-island?adjust_creative=9gNmiWYX8uTbFBeTTvJMdA&utm_campaign=yelp_api_v3&utm_medium=api_v3_business_search&utm_source=9gNmiWYX8uTbFBeTTvJMdA", "review_count": 59, "categories": [{"alias": "hotpot", "title": "Hot Pot"}, {"alias": "korean", "title": "Korean"}, {"alias": "bbq", "title": "Barbeque"}], "rating": 4.5, "coordinates": {"latitude": 40.6248, "longitude": -74.14673}, "transactions": [], "location": {"address1": "1756 Forest Ave", "address2": null, "address3": "", "city": "Staten Island", "zip_code": "10314", "country": "US", "state": "NY", "display_address": ["1756 Forest Ave", "Staten Island, NY 10314"]}, "phone": "+19178300159", "display_phone": "(917) 830-0159", "distance": 21174.176926021577}, {"id": "j6nn4UtRCYbaeQ267dTCug", "alias": "kim-tong-new-york", "name": "Kim Tong", "image_url": "https://s3-media4.fl.yelpcdn.com/bphoto/DufR3r-teUM7UE_-_W86Fg/o.jpg", "is_closed": false, "url": "https://www.yelp.com/biz/kim-tong-new-york?adjust_creative=9gNmiWYX8uTbFBeTTvJMdA&utm_campaign=yelp_api_v3&utm_medium=api_v3_business_search&utm_source=9gNmiWYX8uTbFBeTTvJMdA", "review_count": 29, "categories": [{"alias": "chinese", "title": "Chinese"}, {"alias": "seafood", "title": "Seafood"}, {"alias": "noodles", "title": "Noodles"}], "rating": 2.5, "coordinates": {"latitude": 40.82557, "longitude": -73.94777}, "transactions": ["delivery", "pickup"], "price": "$", "location": {"address1": "1722 Amsterdam Ave", "address2": "", "address3": "", "city": "New York", "zip_code": "10031", "country": "US", "state": "NY", "display_address": ["1722 Amsterdam Ave", "New York, NY 10031"]}, "phone": "+12124910825", "display_phone": "(212) 491-0825", "distance": 7609.542161570829}], "total": 3300, "region": {"center": {"longitude": -73.96957397460938, "latitude": 40.75917470627005}}}