{"businesses": [{"id": "tq5Cqcwpf9AKqX2CCEvtSg", "alias": "panda-kitchen-brooklyn", "name": "Panda Kitchen", "image_url": "https://s3-media1.fl.yelpcdn.com/bphoto/zepUL_FE09O9Cjyx-DhGoA/o.jpg", "is_closed": false, "url": "https://www.yelp.com/biz/panda-kitchen-brooklyn?adjust_creative=9gNmiWYX8uTbFBeTTvJMdA&utm_campaign=yelp_api_v3&utm_medium=api_v3_business_search&utm_source=9gNmiWYX8uTbFBeTTvJMdA", "review_count": 14, "categories": [{"alias": "chinese", "title": "Chinese"}], "rating": 3.0, "coordinates": {"latitude": 40.6551068, "longitude": -73.887741}, "transactions": ["delivery", "pickup"], "price": "$", "location": {"address1": "943 Pennsylvania Ave", "address2": "", "address3": "", "city": "Brooklyn", "zip_code": "11207", "country": "US", "state": "NY", "display_address": ["943 Pennsylvania Ave", "Brooklyn, NY 11207"]}, "phone": "+17186491480", "display_phone": "(718) 649-1480", "distance": 13469.361077695396}, {"id": "naXE13hiCj-7LMMgcueLMg", "alias": "wah-lung-kitchen-astoria", "name": "Wah Lung Kitchen", "image_url": "https://s3-media4.fl.yelpcdn.com/bphoto/SBRQzEg5aL5i2pfqMcRRtw/o.jpg", "is_closed": false, "url": "https://www.yelp.com/biz/wah-lung-kitchen-astoria?adjust_creative=9gNmiWYX8uTbFBeTTvJMdA&utm_campaign=yelp_api_v3&utm_medium=api_v3_business_search&utm_source=9gNmiWYX8uTbFBeTTvJMdA", "review_count": 16, "categories": [{"alias": "chinese", "title": "Chinese"}], "rating": 3.5, "coordinates": {"latitude": 40.78214, "longitude": -73.914151}, "transactions": ["delivery", "pickup"], "price": "$", "location": {"address1": "2111 21st Ave", "address2": "", "address3": "", "city": "Astoria", "zip_code": "11105", "country": "US", "state": "NY", "display_address": ["2111 21st Ave", "Astoria, NY 11105"]}, "phone": "+17182780390", "display_phone": "(718) 278-0390", "distance": 5320.152300880915}, {"id": "e6ejRujpo-LIgiBRF2z8ww", "alias": "china-wok-north-bergen", "name": "China Wok", "image_url": "https://s3-media3.fl.yelpcdn.com/bphoto/NRsaFegUHQSsCvbL4TtY2w/o.jpg", "is_closed": false, "url": "https://www.yelp.com/biz/china-wok-north-bergen?adjust_creative=9gNmiWYX8uTbFBeTTvJMdA&utm_campaign=yelp_api_v3&utm_medium=api_v3_business_search&utm_source=9gNmiWYX8uTbFBeTTvJMdA", "review_count": 4, "categories": [{"alias": "chinese", "title": "Chinese"}], "rating": 3.0, "coordinates": {"latitude": 40.79633, "longitude": -74.0103199}, "transactions": ["delivery"], "location": {"address1": "7012 Bergenline Ave", "address2": "", "address3": "", "city": "North Bergen", "zip_code": "07047", "country": "US", "state": "NJ", "display_address": ["7012 Bergenline Ave", "North Bergen, NJ 07047"]}, "phone": "+12018690164", "display_phone": "(201) 869-0164", "distance": 5378.7082426355355}, {"id": "PpRcR8PPK3bdLCzAevOosw", "alias": "honshu-jersey-city-4", "name": "Honshu", "image_url": "https://s3-media4.fl.yelpcdn.com/bphoto/clc6ffdfSuDckMUZSKQ3hA/o.jpg", "is_closed": false, "url": "https://www.yelp.com/biz/honshu-jersey-city-4?adjust_creative=9gNmiWYX8uTbFBeTTvJMdA&utm_campaign=yelp_api_v3&utm_medium=api_v3_business_search&utm_source=9gNmiWYX8uTbFBeTTvJMdA", "review_count": 416, "categories": [{"alias": "sushi", "title": "Sushi Bars"}, {"alias": "asianfusion", "title": "Asian Fusion"}, {"alias": "japanese", "title": "Japanese"}], "rating": 4.0, "coordinates": {"latitude": 40.7157115638256, "longitude": -74.0359251201153}, "transactions": ["delivery", "pickup"], "price": "$$", "location": {"address1": "95 Greene St", "address2": "", "address3": "", "city": "Jersey City", "zip_code": "07302", "country": "US", "state": "NJ", "display_address": ["95 Greene St", "Jersey City, NJ 07302"]}, "phone": "+12013242788", "display_phone": "(201) 324-2788", "distance": 7411.6370920321415}, {"id": "ipv4lBvbfVzCnSahqrJckQ", "alias": "little-pepper-college-point", "name": "Little Pepper", "image_url": "https://s3-media3.fl.yelpcdn.com/bphoto/Q0g4-Pj8jwNBXar3bYQHTQ/o.jpg", "is_closed": false, "url": "https://www.yelp.com/biz/little-pepper-college-point?adjust_creative=9gNmiWYX8uTbFBeTTvJMdA&utm_campaign=yelp_api_v3&utm_medium=api_v3_business_search&utm_source=9gNmiWYX8uTbFBeTTvJMdA", "review_count": 344, "categories": [{"alias": "szechuan", "title": "Szechuan"}], "rating": 4.0, "coordinates": {"latitude": 40.78245, "longitude": -73.84618}, "transactions": ["delivery", "pickup"], "price": "$$", "location": {"address1": "18-24 College Point Blvd", "address2": "", "address3": "", "city": "College Point", "zip_code": "11356", "country": "US", "state": "NY", "display_address": ["18-24 College Point Blvd", "College Point, NY 11356"]}, "phone": "+17189397788", "display_phone": "(718) 939-7788", "distance": 10717.967333570192}, {"id": "dxHn9Zk17fiY-9CvydZdgg", "alias": "south-street-fish-and-ramen-co-hoboken-2", "name": "South Street Fish & Ramen Co", "image_url": "https://s3-media3.fl.yelpcdn.com/bphoto/kIPh9Cfs-yZg_5ho2fC68A/o.jpg", "is_closed": false, "url": "https://www.yelp.com/biz/south-street-fish-and-ramen-co-hoboken-2?adjust_creative=9gNmiWYX8uTbFBeTTvJMdA&utm_campaign=yelp_api_v3&utm_medium=api_v3_business_search&utm_source=9gNmiWYX8uTbFBeTTvJMdA", "review_count": 194, "categories": [{"alias": "poke", "title": "Poke"}, {"alias": "asianfusion", "title": "Asian Fusion"}, {"alias": "ramen", "title": "Ramen"}], "rating": 4.0, "coordinates": {"latitude": 40.73679371028305, "longitude": -74.02942455275665}, "transactions": ["delivery", "pickup"], "price": "$$", "location": {"address1": "36 Newark St", "address2": "", "address3": null, "city": "Hoboken", "zip_code": "07030", "country": "US", "state": "NJ", "display_address": ["36 Newark St", "Hoboken, NJ 07030"]}, "phone": "+12016839878", "display_phone": "(201) 683-9878", "distance": 5622.5581030100375}, {"id": "CR8n66nIAaQJRESGn0kCeg", "alias": "sky-rainbow-north-bergen", "name": "Sky Rainbow", "image_url": "https://s3-media3.fl.yelpcdn.com/bphoto/0AFyvJgQp83Px0oZgyl3Jw/o.jpg", "is_closed": false, "url": "https://www.yelp.com/biz/sky-rainbow-north-bergen?adjust_creative=9gNmiWYX8uTbFBeTTvJMdA&utm_campaign=yelp_api_v3&utm_medium=api_v3_business_search&utm_source=9gNmiWYX8uTbFBeTTvJMdA", "review_count": 2, "categories": [{"alias": "chinese", "title": "Chinese"}], "rating": 3.0, "coordinates": {"latitude": 40.79629, "longitude": -74.00351}, "transactions": ["delivery", "pickup"], "location": {"address1": "7411 Broadway", "address2": null, "address3": "", "city": "North Bergen", "zip_code": "07047", "country": "US", "state": "NJ", "display_address": ["7411 Broadway", "North Bergen, NJ 07047"]}, "phone": "+12018683388", "display_phone": "(201) 868-3388", "distance": 5024.495846449327}, {"id": "YCBjn0t4bMaQb8Bk7l37ng", "alias": "gan-asia-new-york", "name": "Gan Asia", "image_url": "https://s3-media1.fl.yelpcdn.com/bphoto/cvNymAuaQJq8Bk111MPkwA/o.jpg", "is_closed": false, "url": "https://www.yelp.com/biz/gan-asia-new-york?adjust_creative=9gNmiWYX8uTbFBeTTvJMdA&utm_campaign=yelp_api_v3&utm_medium=api_v3_business_search&utm_source=9gNmiWYX8uTbFBeTTvJMdA", "review_count": 49, "categories": [{"alias": "chinese", "title": "Chinese"}, {"alias": "kosher", "title": "Kosher"}, {"alias": "thai", "title": "Thai"}], "rating": 2.5, "coordinates": {"latitude": 40.7923393, "longitude": -73.971405}, "transactions": ["delivery", "pickup"], "price": "$$", "location": {"address1": "691 Amsterdam Ave", "address2": "", "address3": "", "city": "New York", "zip_code": "10025", "country": "US", "state": "NY", "display_address": ["691 Amsterdam Ave", "New York, NY 10025"]}, "phone": "+12122803800", "display_phone": "(212) 280-3800", "distance": 3697.2437092196506}, {"id": "GqSpM6WLGa-lFNku-wYGuA", "alias": "tipsy-shanghai-new-york-new-york", "name": "Tipsy Shanghai- New York", "image_url": "https://s3-media1.fl.yelpcdn.com/bphoto/zRL3IILU3iNVcce7MKearg/o.jpg", "is_closed": false, "url": "https://www.yelp.com/biz/tipsy-shanghai-new-york-new-york?adjust_creative=9gNmiWYX8uTbFBeTTvJMdA&utm_campaign=yelp_api_v3&utm_medium=api_v3_business_search&utm_source=9gNmiWYX8uTbFBeTTvJMdA", "review_count": 1, "categories": [{"alias": "shanghainese", "title": "Shanghainese"}, {"alias": "desserts", "title": "Desserts"}, {"alias": "noodles", "title": "Noodles"}], "rating": 4.0, "coordinates": {"latitude": 40.716183, "longitude": -73.997953}, "transactions": [], "location": {"address1": "68 Mott St", "address2": "", "address3": null, "city": "New York", "zip_code": "10013", "country": "US", "state": "NY", "display_address": ["68 Mott St", "New York, NY 10013"]}, "phone": "+12124666588", "display_phone": "(212) 466-6588", "distance": 5345.634441580298}, {"id": "X1upzQ1oDfU9Jb378kUkRA", "alias": "fish-village-point", "name": "Fish VIllage", "image_url": "https://s3-media3.fl.yelpcdn.com/bphoto/8yIRILOw9P1w-C60LNWaxQ/o.jpg", "is_closed": false, "url": "https://www.yelp.com/biz/fish-village-point?adjust_creative=9gNmiWYX8uTbFBeTTvJMdA&utm_campaign=yelp_api_v3&utm_medium=api_v3_business_search&utm_source=9gNmiWYX8uTbFBeTTvJMdA", "review_count": 112, "categories": [{"alias": "seafood", "title": "Seafood"}, {"alias": "cantonese", "title": "Cantonese"}], "rating": 3.5, "coordinates": {"latitude": 40.781505, "longitude": -73.8408955}, "transactions": ["delivery", "restaurant_reservation", "pickup"], "price": "$$$", "location": {"address1": "20-07", "address2": "Unit 3-14 127 Flr 3", "address3": "3 Fl", "city": "Point", "zip_code": "11356", "country": "US", "state": "NY", "display_address": ["20-07", "Unit 3-14 127 Flr 3", "3 Fl", "Point, NY 11356"]}, "phone": "+17188882268", "display_phone": "(718) 888-2268", "distance": 11117.048339316547}, {"id": "0yC40qHlgV3LTVx_jEr8pg", "alias": "park-asia-brooklyn", "name": "Park Asia", "image_url": "https://s3-media1.fl.yelpcdn.com/bphoto/vZRFONi7B3whu1DWxuGKVA/o.jpg", "is_closed": false, "url": "https://www.yelp.com/biz/park-asia-brooklyn?adjust_creative=9gNmiWYX8uTbFBeTTvJMdA&utm_campaign=yelp_api_v3&utm_medium=api_v3_business_search&utm_source=9gNmiWYX8uTbFBeTTvJMdA", "review_count": 314, "categories": [{"alias": "dimsum", "title": "Dim Sum"}, {"alias": "cantonese", "title": "Cantonese"}, {"alias": "venues", "title": "Venues & Event Spaces"}], "rating": 3.5, "coordinates": {"latitude": 40.6321623490724, "longitude": -74.0128705497028}, "transactions": ["delivery", "pickup"], "price": "$$", "location": {"address1": "6521 8th Ave", "address2": "", "address3": "", "city": "Brooklyn", "zip_code": "11220", "country": "US", "state": "NY", "display_address": ["6521 8th Ave", "Brooklyn, NY 11220"]}, "phone": "+17188331688", "display_phone": "(718) 833-1688", "distance": 14587.1873369229}, {"id": "zdX9mwhoknXXYL1GCstnow", "alias": "lucky-garden-brooklyn-2", "name": "Lucky Garden", "image_url": "https://s3-media3.fl.yelpcdn.com/bphoto/tEvb0kAtAphqhv4zXG73Lw/o.jpg", "is_closed": false, "url": "https://www.yelp.com/biz/lucky-garden-brooklyn-2?adjust_creative=9gNmiWYX8uTbFBeTTvJMdA&utm_campaign=yelp_api_v3&utm_medium=api_v3_business_search&utm_source=9gNmiWYX8uTbFBeTTvJMdA", "review_count": 14, "categories": [{"alias": "chinese", "title": "Chinese"}], "rating": 4.5, "coordinates": {"latitude": 40.7003, "longitude": -73.91221}, "transactions": [], "price": "$", "location": {"address1": "305L Wyckoff Ave", "address2": "", "address3": "", "city": "Brooklyn", "zip_code": "11237", "country": "US", "state": "NY", "display_address": ["305L Wyckoff Ave", "Brooklyn, NY 11237"]}, "phone": "+17184181002", "display_phone": "(718) 418-1002", "distance": 8138.376785408891}, {"id": "Wc_vQmkP7tb8eQQfwd39Qw", "alias": "hainan-chicken-house-brooklyn-2", "name": "Hainan Chicken House", "image_url": "https://s3-media3.fl.yelpcdn.com/bphoto/BCJAOQqsFvTDmUYI0uspLA/o.jpg", "is_closed": false, "url": "https://www.yelp.com/biz/hainan-chicken-house-brooklyn-2?adjust_creative=9gNmiWYX8uTbFBeTTvJMdA&utm_campaign=yelp_api_v3&utm_medium=api_v3_business_search&utm_source=9gNmiWYX8uTbFBeTTvJMdA", "review_count": 14, "categories": [{"alias": "hainan", "title": "Hainan"}, {"alias": "malaysian", "title": "Malaysian"}], "rating": 4.5, "coordinates": {"latitude": 40.64188951457645, "longitude": -74.00258744797691}, "transactions": ["delivery", "pickup"], "location": {"address1": "4807 8th Ave", "address2": "", "address3": null, "city": "Brooklyn", "zip_code": "11220", "country": "US", "state": "NY", "display_address": ["4807 8th Ave", "Brooklyn, NY 11220"]}, "phone": "+13473653864", "display_phone": "(347) 365-3864", "distance": 13335.144830941492}, {"id": "PYN67roncq-uYxKWPd7ukQ", "alias": "dumpling-dojo-rutherford-3", "name": "Dumpling Dojo", "image_url": "https://s3-media3.fl.yelpcdn.com/bphoto/-iFoFdVikh6cK3uhtQiVZg/o.jpg", "is_closed": false, "url": "https://www.yelp.com/biz/dumpling-dojo-rutherford-3?adjust_creative=9gNmiWYX8uTbFBeTTvJMdA&utm_campaign=yelp_api_v3&utm_medium=api_v3_business_search&utm_source=9gNmiWYX8uTbFBeTTvJMdA", "review_count": 326, "categories": [{"alias": "ramen", "title": "Ramen"}, {"alias": "asianfusion", "title": "Asian Fusion"}, {"alias": "noodles", "title": "Noodles"}], "rating": 4.0, "coordinates": {"latitude": 40.82738778671193, "longitude": -74.1026645}, "transactions": ["delivery", "pickup"], "price": "$$", "location": {"address1": "16 Glen Rd", "address2": "", "address3": "", "city": "Rutherford", "zip_code": "07070", "country": "US", "state": "NJ", "display_address": ["16 Glen Rd", "Rutherford, NJ 07070"]}, "phone": "+12015144163", "display_phone": "(201) 514-4163", "distance": 13529.90296067934}, {"id": "2z_2ETItITMQiuAE7tTZAQ", "alias": "silver-palace-new-york", "name": "Silver Palace", "image_url": "https://s3-media2.fl.yelpcdn.com/bphoto/5dCNKCA3u2M8XecWgQl68A/o.jpg", "is_closed": false, "url": "https://www.yelp.com/biz/silver-palace-new-york?adjust_creative=9gNmiWYX8uTbFBeTTvJMdA&utm_campaign=yelp_api_v3&utm_medium=api_v3_business_search&utm_source=9gNmiWYX8uTbFBeTTvJMdA", "review_count": 15, "categories": [{"alias": "chinese", "title": "Chinese"}], "rating": 3.0, "coordinates": {"latitude": 40.823034042794845, "longitude": -73.9526024360038}, "transactions": ["delivery", "pickup"], "price": "$", "location": {"address1": "3438 Bdwy", "address2": "", "address3": "", "city": "New York", "zip_code": "10032", "country": "US", "state": "NY", "display_address": ["3438 Bdwy", "New York, NY 10032"]}, "phone": "+12122838000", "display_phone": "(212) 283-8000", "distance": 7243.139341143226}, {"id": "GmtybiZEicQ4qqPTzhqVew", "alias": "taste-of-china-maspeth", "name": "Taste of China", "image_url": "https://s3-media3.fl.yelpcdn.com/bphoto/vbHyJMsHrNjvQaeE4FJRGQ/o.jpg", "is_closed": false, "url": "https://www.yelp.com/biz/taste-of-china-maspeth?adjust_creative=9gNmiWYX8uTbFBeTTvJMdA&utm_campaign=yelp_api_v3&utm_medium=api_v3_business_search&utm_source=9gNmiWYX8uTbFBeTTvJMdA", "review_count": 89, "categories": [{"alias": "chinese", "title": "Chinese"}], "rating": 3.5, "coordinates": {"latitude": 40.72762, "longitude": -73.892011}, "transactions": ["delivery", "pickup"], "price": "$", "location": {"address1": "7100 Grand Ave", "address2": "", "address3": "", "city": "Maspeth", "zip_code": "11378", "country": "US", "state": "NY", "display_address": ["7100 Grand Ave", "Maspeth, NY 11378"]}, "phone": "+17188989500", "display_phone": "(718) 898-9500", "distance": 7417.320277353624}, {"id": "XbQNANeO1E4-yanLZHgCmw", "alias": "beijing-chinese-new-york", "name": "Beijing Chinese", "image_url": "https://s3-media1.fl.yelpcdn.com/bphoto/2l_Cy4YiJQv7LIBQHL4RJQ/o.jpg", "is_closed": false, "url": "https://www.yelp.com/biz/beijing-chinese-new-york?adjust_creative=9gNmiWYX8uTbFBeTTvJMdA&utm_campaign=yelp_api_v3&utm_medium=api_v3_business_search&utm_source=9gNmiWYX8uTbFBeTTvJMdA", "review_count": 21, "categories": [{"alias": "chinese", "title": "Chinese"}, {"alias": "seafood", "title": "Seafood"}, {"alias": "soup", "title": "Soup"}], "rating": 3.0, "coordinates": {"latitude": 40.733059, "longitude": -73.9861382}, "transactions": ["delivery", "pickup"], "price": "$", "location": {"address1": "223 E 14th St", "address2": "", "address3": "", "city": "New York", "zip_code": "10003", "country": "US", "state": "NY", "display_address": ["223 E 14th St", "New York, NY 10003"]}, "phone": "+12129828966", "display_phone": "(212) 982-8966", "distance": 3221.7967972913034}, {"id": "JE3i1eX-qGkEdMWMdEC56Q", "alias": "tipsy-shanghai-new-york-4", "name": "Tipsy Shanghai", "image_url": "https://s3-media2.fl.yelpcdn.com/bphoto/tgbRosPY4hMihlQSaCOWaw/o.jpg", "is_closed": false, "url": "https://www.yelp.com/biz/tipsy-shanghai-new-york-4?adjust_creative=9gNmiWYX8uTbFBeTTvJMdA&utm_campaign=yelp_api_v3&utm_medium=api_v3_business_search&utm_source=9gNmiWYX8uTbFBeTTvJMdA", "review_count": 30, "categories": [{"alias": "asianfusion", "title": "Asian Fusion"}], "rating": 4.0, "coordinates": {"latitude": 40.71404, "longitude": -73.98884}, "transactions": ["delivery", "pickup"], "location": {"address1": "189 East Broadway", "address2": null, "address3": "", "city": "New York", "zip_code": "10002", "country": "US", "state": "NY", "display_address": ["189 East Broadway", "New York, NY 10002"]}, "phone": "+12124666988", "display_phone": "(212) 466-6988", "distance": 5284.557232828331}, {"id": "J_CmfwKnzYbfRHvncl7uVA", "alias": "hung-sang-union-city", "name": "Hung Sang", "image_url": "https://s3-media1.fl.yelpcdn.com/bphoto/r0FcmuhwTuDn5wBbojcOyA/o.jpg", "is_closed": false, "url": "https://www.yelp.com/biz/hung-sang-union-city?adjust_creative=9gNmiWYX8uTbFBeTTvJMdA&utm_campaign=yelp_api_v3&utm_medium=api_v3_business_search&utm_source=9gNmiWYX8uTbFBeTTvJMdA", "review_count": 18, "categories": [{"alias": "chinese", "title": "Chinese"}], "rating": 3.5, "coordinates": {"latitude": 40.7729837, "longitude": -74.0285907}, "transactions": ["delivery"], "price": "$", "location": {"address1": "3404 Bergenline Ave", "address2": "", "address3": "", "city": "Union City", "zip_code": "07087", "country": "US", "state": "NJ", "display_address": ["3404 Bergenline Ave", "Union City, NJ 07087"]}, "phone": "+12015529422", "display_phone": "(201) 552-9422", "distance": 5201.987813060094}, {"id": "S7vbop89Qs2v5WqELlp0JA", "alias": "hong-kong-kitchen-north-bergen", "name": "Hong Kong Kitchen", "image_url": "https://s3-media3.fl.yelpcdn.com/bphoto/oiANSRdMr6wut292CYUcrA/o.jpg", "is_closed": false, "url": "https://www.yelp.com/biz/hong-kong-kitchen-north-bergen?adjust_creative=9gNmiWYX8uTbFBeTTvJMdA&utm_campaign=yelp_api_v3&utm_medium=api_v3_business_search&utm_source=9gNmiWYX8uTbFBeTTvJMdA", "review_count": 19, "categories": [{"alias": "chinese", "title": "Chinese"}, {"alias": "seafood", "title": "Seafood"}, {"alias": "soup", "title": "Soup"}], "rating": 2.5, "coordinates": {"latitude": 40.78288, "longitude": -74.03303}, "transactions": ["delivery", "pickup"], "price": "$", "location": {"address1": "4300 Bergen Turnpike", "address2": "", "address3": "", "city": "North Bergen", "zip_code": "07047", "country": "US", "state": "NJ", "display_address": ["4300 Bergen Turnpike", "North Bergen, NJ 07047"]}, "phone": "+12013483699", "display_phone": "(201) 348-3699", "distance": 5960.862512238203}, {"id": "XjPfgkSP-RDEkq_ox8fE3A", "alias": "kings-chef-astoria", "name": "King's Chef", "image_url": "https://s3-media3.fl.yelpcdn.com/bphoto/zHa0JjW4861d8G73_trdBQ/o.jpg", "is_closed": false, "url": "https://www.yelp.com/biz/kings-chef-astoria?adjust_creative=9gNmiWYX8uTbFBeTTvJMdA&utm_campaign=yelp_api_v3&utm_medium=api_v3_business_search&utm_source=9gNmiWYX8uTbFBeTTvJMdA", "review_count": 64, "categories": [{"alias": "chinese", "title": "Chinese"}, {"alias": "chickenshop", "title": "Chicken Shop"}, {"alias": "soup", "title": "Soup"}], "rating": 3.5, "coordinates": {"latitude": 40.76433, "longitude": -73.91072}, "transactions": ["delivery", "pickup"], "price": "$", "location": {"address1": "4311 28th Ave", "address2": "", "address3": "", "city": "Astoria", "zip_code": "11103", "country": "US", "state": "NY", "display_address": ["4311 28th Ave", "Astoria, NY 11103"]}, "phone": "+17182746666", "display_phone": "(718) 274-6666", "distance": 4985.394733304411}, {"id": "ECKMWJwm_sihRQIP1ydeOA", "alias": "new-golden-chopstick-chinese-restaurant-new-york", "name": "New Golden Chopstick Chinese Restaurant", "image_url": "https://s3-media1.fl.yelpcdn.com/bphoto/Ndf7yG0hmc7jxEb_6K4Ehg/o.jpg", "is_closed": false, "url": "https://www.yelp.com/biz/new-golden-chopstick-chinese-restaurant-new-york?adjust_creative=9gNmiWYX8uTbFBeTTvJMdA&utm_campaign=yelp_api_v3&utm_medium=api_v3_business_search&utm_source=9gNmiWYX8uTbFBeTTvJMdA", "review_count": 41, "categories": [{"alias": "chinese", "title": "Chinese"}], "rating": 3.0, "coordinates": {"latitude": 40.7043185353197, "longitude": -74.010657025795}, "transactions": ["pickup"], "price": "$", "location": {"address1": "77 Pearl St", "address2": "", "address3": "", "city": "New York", "zip_code": "10004", "country": "US", "state": "NY", "display_address": ["77 Pearl St", "New York, NY 10004"]}, "phone": "+12128250314", "display_phone": "(212) 825-0314", "distance": 7013.543076796968}, {"id": "9ieA0TyApI94wEqqW_r93w", "alias": "aarons-chinese-and-thai-new-york", "name": "Aaron's Chinese and Thai", "image_url": "https://s3-media2.fl.yelpcdn.com/bphoto/MQkUltccSjODZ23qgmz7lQ/o.jpg", "is_closed": false, "url": "https://www.yelp.com/biz/aarons-chinese-and-thai-new-york?adjust_creative=9gNmiWYX8uTbFBeTTvJMdA&utm_campaign=yelp_api_v3&utm_medium=api_v3_business_search&utm_source=9gNmiWYX8uTbFBeTTvJMdA", "review_count": 63, "categories": [{"alias": "chinese", "title": "Chinese"}, {"alias": "thai", "title": "Thai"}], "rating": 2.0, "coordinates": {"latitude": 40.750379, "longitude": -73.998141}, "transactions": ["delivery", "pickup"], "price": "$$", "location": {"address1": "338 9th Ave", "address2": "", "address3": "", "city": "New York", "zip_code": "10001", "country": "US", "state": "NY", "display_address": ["338 9th Ave", "New York, NY 10001"]}, "phone": "+12125609898", "display_phone": "(212) 560-9898", "distance": 2597.4077828034933}, {"id": "SduYUnNnuA93MVg4FrIguA", "alias": "happy-garden-chinese-restaurant-brooklyn", "name": "Happy Garden Chinese Restaurant", "image_url": "https://s3-media2.fl.yelpcdn.com/bphoto/AwfHjJOmhZTrZ-zPyc-dqQ/o.jpg", "is_closed": false, "url": "https://www.yelp.com/biz/happy-garden-chinese-restaurant-brooklyn?adjust_creative=9gNmiWYX8uTbFBeTTvJMdA&utm_campaign=yelp_api_v3&utm_medium=api_v3_business_search&utm_source=9gNmiWYX8uTbFBeTTvJMdA", "review_count": 12, "categories": [{"alias": "chinese", "title": "Chinese"}], "rating": 3.0, "coordinates": {"latitude": 40.70529, "longitude": -73.9430299}, "transactions": ["delivery", "pickup"], "price": "$", "location": {"address1": "103 Graham Ave", "address2": "", "address3": "", "city": "Brooklyn", "zip_code": "11206", "country": "US", "state": "NY", "display_address": ["103 Graham Ave", "Brooklyn, NY 11206"]}, "phone": "+17183872200", "display_phone": "(718) 387-2200", "distance": 6394.8242414819615}, {"id": "gl1p0g_BN_DC4Eh_hRaUEg", "alias": "joong-koog-jip-flushing", "name": "Joong Koog Jip", "image_url": "https://s3-media2.fl.yelpcdn.com/bphoto/sYNIMZC2zTwAN7ZP303ySQ/o.jpg", "is_closed": false, "url": "https://www.yelp.com/biz/joong-koog-jip-flushing?adjust_creative=9gNmiWYX8uTbFBeTTvJMdA&utm_campaign=yelp_api_v3&utm_medium=api_v3_business_search&utm_source=9gNmiWYX8uTbFBeTTvJMdA", "review_count": 275, "categories": [{"alias": "korean", "title": "Korean"}, {"alias": "chinese", "title": "Chinese"}], "rating": 4.0, "coordinates": {"latitude": 40.76194966092599, "longitude": -73.8153339}, "transactions": ["delivery", "pickup"], "price": "$$", "location": {"address1": "149-08 41st Ave", "address2": "", "address3": "", "city": "Flushing", "zip_code": "11355", "country": "US", "state": "NY", "display_address": ["149-08 41st Ave", "Flushing, NY 11355"]}, "phone": "+17183580468", "display_phone": "(718) 358-0468", "distance": 12994.364130596987}, {"id": "7GFuwK9bv_rmn_-eykzk8Q", "alias": "jade-gourmet-cliffside-park", "name": "Jade Gourmet", "image_url": "https://s3-media4.fl.yelpcdn.com/bphoto/amKeUwTCjTr-NJAH-OSkEw/o.jpg", "is_closed": false, "url": "https://www.yelp.com/biz/jade-gourmet-cliffside-park?adjust_creative=9gNmiWYX8uTbFBeTTvJMdA&utm_campaign=yelp_api_v3&utm_medium=api_v3_business_search&utm_source=9gNmiWYX8uTbFBeTTvJMdA", "review_count": 42, "categories": [{"alias": "chinese", "title": "Chinese"}], "rating": 4.0, "coordinates": {"latitude": 40.81275, "longitude": -73.9926}, "transactions": ["delivery", "pickup"], "price": "$", "location": {"address1": "237 Palisade Ave", "address2": "", "address3": "", "city": "Cliffside Park", "zip_code": "07010", "country": "US", "state": "NJ", "display_address": ["237 Palisade Ave", "Cliffside Park, NJ 07010"]}, "phone": "+12013131290", "display_phone": "(201) 313-1290", "distance": 6275.6422419356295}, {"id": "PUwrkoUztUYs4VdHlK9qBg", "alias": "wa-lung-kitchen-new-york", "name": "Wa Lung Kitchen", "image_url": "https://s3-media2.fl.yelpcdn.com/bphoto/6kINe65fFg9HOPqY4fmwVA/o.jpg", "is_closed": false, "url": "https://www.yelp.com/biz/wa-lung-kitchen-new-york?adjust_creative=9gNmiWYX8uTbFBeTTvJMdA&utm_campaign=yelp_api_v3&utm_medium=api_v3_business_search&utm_source=9gNmiWYX8uTbFBeTTvJMdA", "review_count": 84, "categories": [{"alias": "chinese", "title": "Chinese"}], "rating": 3.0, "coordinates": {"latitude": 40.713919, "longitude": -73.980251}, "transactions": ["delivery", "pickup"], "price": "$", "location": {"address1": "557 Grand St", "address2": "", "address3": "", "city": "New York", "zip_code": "10002", "country": "US", "state": "NY", "display_address": ["557 Grand St", "New York, NY 10002"]}, "phone": "+12122543775", "display_phone": "(212) 254-3775", "distance": 5111.974620942458}, {"id": "-HIsDolVluV6n5tlfQGB5w", "alias": "yan-asian-restaurant-rutherford-2", "name": "Yan Asian Restaurant", "image_url": "https://s3-media1.fl.yelpcdn.com/bphoto/V5boTRGKQ39-O46gF9pc0A/o.jpg", "is_closed": false, "url": "https://www.yelp.com/biz/yan-asian-restaurant-rutherford-2?adjust_creative=9gNmiWYX8uTbFBeTTvJMdA&utm_campaign=yelp_api_v3&utm_medium=api_v3_business_search&utm_source=9gNmiWYX8uTbFBeTTvJMdA", "review_count": 155, "categories": [{"alias": "asianfusion", "title": "Asian Fusion"}, {"alias": "sushi", "title": "Sushi Bars"}, {"alias": "ramen", "title": "Ramen"}], "rating": 3.5, "coordinates": {"latitude": 40.827441, "longitude": -74.104935}, "transactions": ["delivery", "pickup"], "price": "$$", "location": {"address1": "94 Park Ave", "address2": "", "address3": "", "city": "Rutherford", "zip_code": "07070", "country": "US", "state": "NJ", "display_address": ["94 Park Ave", "Rutherford, NJ 07070"]}, "phone": "+12018961888", "display_phone": "(201) 896-1888", "distance": 13692.085762079114}, {"id": "4fBgrzK3S_zSlVJ6sLJYTA", "alias": "red-bowl-brooklyn-5", "name": "Red Bowl", "image_url": "https://s3-media1.fl.yelpcdn.com/bphoto/BiyoLCG6qRCGPcHsl_o-7A/o.jpg", "is_closed": false, "url": "https://www.yelp.com/biz/red-bowl-brooklyn-5?adjust_creative=9gNmiWYX8uTbFBeTTvJMdA&utm_campaign=yelp_api_v3&utm_medium=api_v3_business_search&utm_source=9gNmiWYX8uTbFBeTTvJMdA", "review_count": 69, "categories": [{"alias": "cantonese", "title": "Cantonese"}, {"alias": "szechuan", "title": "Szechuan"}, {"alias": "seafood", "title": "Seafood"}], "rating": 4.5, "coordinates": {"latitude": 40.62393, "longitude": -74.03104}, "transactions": ["delivery", "pickup"], "price": "$$", "location": {"address1": "8518 3rd Ave", "address2": null, "address3": "", "city": "Brooklyn", "zip_code": "11209", "country": "US", "state": "NY", "display_address": ["8518 3rd Ave", "Brooklyn, NY 11209"]}, "phone": "+17183072828", "display_phone": "(718) 307-2828", "distance": 15910.022086110394}, {"id": "xBTqo83cgF4TvCjKFjlwqQ", "alias": "la-dinastia-ii-new-york", "name": "La Dinastia II", "image_url": "https://s3-media3.fl.yelpcdn.com/bphoto/0LZ2684hN3g7ruWpGOCmZQ/o.jpg", "is_closed": false, "url": "https://www.yelp.com/biz/la-dinastia-ii-new-york?adjust_creative=9gNmiWYX8uTbFBeTTvJMdA&utm_campaign=yelp_api_v3&utm_medium=api_v3_business_search&utm_source=9gNmiWYX8uTbFBeTTvJMdA", "review_count": 77, "categories": [{"alias": "chinese", "title": "Chinese"}, {"alias": "cuban", "title": "Cuban"}], "rating": 3.0, "coordinates": {"latitude": 40.8431911, "longitude": -73.9393521}, "transactions": ["delivery", "pickup"], "price": "$$", "location": {"address1": "4059 Broadway", "address2": "", "address3": "", "city": "New York", "zip_code": "10032", "country": "US", "state": "NY", "display_address": ["4059 Broadway", "New York, NY 10032"]}, "phone": "+12129286605", "display_phone": "(212) 928-6605", "distance": 9678.004969159123}, {"id": "6gsxavB8DolodZl-fZX65Q", "alias": "chinese-five-star-restaurant-bronx", "name": "Chinese Five Star Restaurant", "image_url": "https://s3-media3.fl.yelpcdn.com/bphoto/efMdBIWNNY60NFlEFqbzyg/o.jpg", "is_closed": false, "url": "https://www.yelp.com/biz/chinese-five-star-restaurant-bronx?adjust_creative=9gNmiWYX8uTbFBeTTvJMdA&utm_campaign=yelp_api_v3&utm_medium=api_v3_business_search&utm_source=9gNmiWYX8uTbFBeTTvJMdA", "review_count": 4, "categories": [{"alias": "chinese", "title": "Chinese"}], "rating": 4.5, "coordinates": {"latitude": 40.83475, "longitude": -73.87107}, "transactions": [], "price": "$", "location": {"address1": "1715 E 174th St", "address2": null, "address3": null, "city": "Bronx", "zip_code": "10472", "country": "US", "state": "NY", "display_address": ["1715 E 174th St", "Bronx, NY 10472"]}, "phone": "+17183783138", "display_phone": "(718) 378-3138", "distance": 11804.615959038725}, {"id": "7g9GDy7rPg6yVs4RjTm9FQ", "alias": "number-eleven-food-store-hoboken", "name": "Number Eleven Food Store", "image_url": "https://s3-media3.fl.yelpcdn.com/bphoto/reWbu_Fz-nHqa1z1u5mG1A/o.jpg", "is_closed": false, "url": "https://www.yelp.com/biz/number-eleven-food-store-hoboken?adjust_creative=9gNmiWYX8uTbFBeTTvJMdA&utm_campaign=yelp_api_v3&utm_medium=api_v3_business_search&utm_source=9gNmiWYX8uTbFBeTTvJMdA", "review_count": 13, "categories": [{"alias": "chinese", "title": "Chinese"}], "rating": 5.0, "coordinates": {"latitude": 40.74151, "longitude": -74.03173}, "transactions": ["delivery", "pickup"], "location": {"address1": "342 Garden St", "address2": "", "address3": null, "city": "Hoboken", "zip_code": "07030", "country": "US", "state": "NJ", "display_address": ["342 Garden St", "Hoboken, NJ 07030"]}, "phone": "+12012573321", "display_phone": "(201) 257-3321", "distance": 5585.28118525474}, {"id": "VrUqSxFaaFcN7T01pCCMwQ", "alias": "wing-gong-i-kitchen-new-york", "name": "Wing Gong I Kitchen", "image_url": "https://s3-media2.fl.yelpcdn.com/bphoto/qNn2oq6cTWgYya7HRzyr_w/o.jpg", "is_closed": false, "url": "https://www.yelp.com/biz/wing-gong-i-kitchen-new-york?adjust_creative=9gNmiWYX8uTbFBeTTvJMdA&utm_campaign=yelp_api_v3&utm_medium=api_v3_business_search&utm_source=9gNmiWYX8uTbFBeTTvJMdA", "review_count": 4, "categories": [{"alias": "chinese", "title": "Chinese"}], "rating": 4.0, "coordinates": {"latitude": 40.791313, "longitude": -73.939239}, "transactions": ["delivery", "pickup"], "price": "$", "location": {"address1": "2109 1st Ave", "address2": "", "address3": "", "city": "New York", "zip_code": "10029", "country": "US", "state": "NY", "display_address": ["2109 1st Ave", "New York, NY 10029"]}, "phone": "+12124101661", "display_phone": "(212) 410-1661", "distance": 4394.130840299404}, {"id": "JTFc6V7JLTdiUL3LuH7LiQ", "alias": "lotus-cafe-hackensack-hackensack", "name": "Lotus Cafe - Hackensack", "image_url": "https://s3-media3.fl.yelpcdn.com/bphoto/1pWMnZ5gvSvYynVTEMxM9w/o.jpg", "is_closed": false, "url": "https://www.yelp.com/biz/lotus-cafe-hackensack-hackensack?adjust_creative=9gNmiWYX8uTbFBeTTvJMdA&utm_campaign=yelp_api_v3&utm_medium=api_v3_business_search&utm_source=9gNmiWYX8uTbFBeTTvJMdA", "review_count": 224, "categories": [{"alias": "chinese", "title": "Chinese"}], "rating": 3.0, "coordinates": {"latitude": 40.908911297714745, "longitude": -74.02838765921352}, "transactions": ["delivery", "pickup"], "price": "$$", "location": {"address1": "450 Hackensack Ave", "address2": "", "address3": "", "city": "Hackensack", "zip_code": "07601", "country": "US", "state": "NJ", "display_address": ["450 Hackensack Ave", "Hackensack, NJ 07601"]}, "phone": "+12014887070", "display_phone": "(201) 488-7070", "distance": 17369.60661023296}, {"id": "fBOhaN4rabcM9aJg5qWM-w", "alias": "chung-ching-restaurant-bronx", "name": "Chung Ching Restaurant", "image_url": "https://s3-media3.fl.yelpcdn.com/bphoto/-2ari-36gqjLFgbYXSC3Ng/o.jpg", "is_closed": false, "url": "https://www.yelp.com/biz/chung-ching-restaurant-bronx?adjust_creative=9gNmiWYX8uTbFBeTTvJMdA&utm_campaign=yelp_api_v3&utm_medium=api_v3_business_search&utm_source=9gNmiWYX8uTbFBeTTvJMdA", "review_count": 9, "categories": [{"alias": "chinese", "title": "Chinese"}], "rating": 3.5, "coordinates": {"latitude": 40.81019, "longitude": -73.92476}, "transactions": ["delivery"], "location": {"address1": "262 Alexander Ave", "address2": "", "address3": "", "city": "Bronx", "zip_code": "10454", "country": "US", "state": "NY", "display_address": ["262 Alexander Ave", "Bronx, NY 10454"]}, "phone": "+17186657533", "display_phone": "(718) 665-7533", "distance": 6823.083051736154}, {"id": "2Ja9jloYL0JGjhgMD2cevA", "alias": "in-se-new-york-2", "name": "In Se", "image_url": "", "is_closed": false, "url": "https://www.yelp.com/biz/in-se-new-york-2?adjust_creative=9gNmiWYX8uTbFBeTTvJMdA&utm_campaign=yelp_api_v3&utm_medium=api_v3_business_search&utm_source=9gNmiWYX8uTbFBeTTvJMdA", "review_count": 1, "categories": [{"alias": "fooddeliveryservices", "title": "Food Delivery Services"}, {"alias": "asianfusion", "title": "Asian Fusion"}], "rating": 5.0, "coordinates": {"latitude": 40.728995, "longitude": -73.988279}, "transactions": ["delivery", "pickup"], "location": {"address1": "31 St Marks Pl", "address2": null, "address3": null, "city": "New York", "zip_code": "10003", "country": "US", "state": "NY", "display_address": ["31 St Marks Pl", "New York, NY 10003"]}, "phone": "+12125981188", "display_phone": "(212) 598-1188", "distance": 3701.448244552543}, {"id": "JKnQE46rkZzmHDlX8yyumg", "alias": "city-island-chinese-restaurant-bronx-2", "name": "City Island Chinese Restaurant", "image_url": "https://s3-media2.fl.yelpcdn.com/bphoto/mX454hBWJa-sCsjjNyJB-A/o.jpg", "is_closed": false, "url": "https://www.yelp.com/biz/city-island-chinese-restaurant-bronx-2?adjust_creative=9gNmiWYX8uTbFBeTTvJMdA&utm_campaign=yelp_api_v3&utm_medium=api_v3_business_search&utm_source=9gNmiWYX8uTbFBeTTvJMdA", "review_count": 12, "categories": [{"alias": "chinese", "title": "Chinese"}], "rating": 2.5, "coordinates": {"latitude": 40.84009, "longitude": -73.783559}, "transactions": ["delivery", "pickup"], "price": "$$", "location": {"address1": "84 City Island Ave", "address2": "", "address3": "", "city": "Bronx", "zip_code": "10464", "country": "US", "state": "NY", "display_address": ["84 City Island Ave", "Bronx, NY 10464"]}, "phone": "+17188853775", "display_phone": "(718) 885-3775", "distance": 18058.67378190267}, {"id": "kjItczuC-FQa-nECT9VF8A", "alias": "udon-lab-new-york", "name": "Udon Lab", "image_url": "https://s3-media1.fl.yelpcdn.com/bphoto/b8Bwq4QqGwCMNf8r6dM1rw/o.jpg", "is_closed": false, "url": "https://www.yelp.com/biz/udon-lab-new-york?adjust_creative=9gNmiWYX8uTbFBeTTvJMdA&utm_campaign=yelp_api_v3&utm_medium=api_v3_business_search&utm_source=9gNmiWYX8uTbFBeTTvJMdA", "review_count": 354, "categories": [{"alias": "noodles", "title": "Noodles"}, {"alias": "japanese", "title": "Japanese"}, {"alias": "sushi", "title": "Sushi Bars"}], "rating": 4.0, "coordinates": {"latitude": 40.7482036287177, "longitude": -73.9874565}, "transactions": ["delivery", "pickup"], "price": "$$", "location": {"address1": "43 W 32nd St", "address2": "", "address3": null, "city": "New York", "zip_code": "10001", "country": "US", "state": "NY", "display_address": ["43 W 32nd St", "New York, NY 10001"]}, "phone": "+16468385338", "display_phone": "(646) 838-5338", "distance": 1938.3334724813365}, {"id": "E1fFQqXuO2Ido9hGDmTbDg", "alias": "good-luck-chinese-restaurant-woodside", "name": "Good Luck Chinese Restaurant", "image_url": "https://s3-media3.fl.yelpcdn.com/bphoto/CMC2lyyVP9G4S4Qc9siPkQ/o.jpg", "is_closed": false, "url": "https://www.yelp.com/biz/good-luck-chinese-restaurant-woodside?adjust_creative=9gNmiWYX8uTbFBeTTvJMdA&utm_campaign=yelp_api_v3&utm_medium=api_v3_business_search&utm_source=9gNmiWYX8uTbFBeTTvJMdA", "review_count": 16, "categories": [{"alias": "chinese", "title": "Chinese"}], "rating": 4.0, "coordinates": {"latitude": 40.7392043166647, "longitude": -73.9197625899353}, "transactions": [], "price": "$", "location": {"address1": "4516 48th Ave", "address2": "", "address3": "", "city": "Woodside", "zip_code": "11377", "country": "US", "state": "NY", "display_address": ["4516 48th Ave", "Woodside, NY 11377"]}, "phone": "+17187293247", "display_phone": "(718) 729-3247", "distance": 4747.391186278616}, {"id": "FeTHmYg5RJiE23yFIPO7sg", "alias": "q-town-asian-cuisine-inc-\u4e61\u7f18\u95fd\u53f0\u6d77\u9c9c-elmhurst", "name": "Q Town Asian Cuisine Inc \u4e61\u7f18\u95fd\u53f0\u6d77\u9c9c", "image_url": "https://s3-media4.fl.yelpcdn.com/bphoto/adA3Sx4K-SXMCmpL6xT9aQ/o.jpg", "is_closed": false, "url": "https://www.yelp.com/biz/q-town-asian-cuisine-inc-%E4%B9%A1%E7%BC%98%E9%97%BD%E5%8F%B0%E6%B5%B7%E9%B2%9C-elmhurst?adjust_creative=9gNmiWYX8uTbFBeTTvJMdA&utm_campaign=yelp_api_v3&utm_medium=api_v3_business_search&utm_source=9gNmiWYX8uTbFBeTTvJMdA", "review_count": 141, "categories": [{"alias": "chinese", "title": "Chinese"}, {"alias": "seafood", "title": "Seafood"}, {"alias": "taiwanese", "title": "Taiwanese"}], "rating": 4.0, "coordinates": {"latitude": 40.7415014, "longitude": -73.8802964}, "transactions": ["delivery", "pickup"], "price": "$$", "location": {"address1": "82-87 Broadway", "address2": null, "address3": "", "city": "Elmhurst", "zip_code": "11373", "country": "US", "state": "NY", "display_address": ["82-87 Broadway", "Elmhurst, NY 11373"]}, "phone": "+17188988281", "display_phone": "(718) 898-8281", "distance": 7777.839706414848}, {"id": "VaDTMmv1Yq7A4xBhd1Mb_Q", "alias": "sanyuu-west-new-york", "name": "Sanyuu West", "image_url": "https://s3-media3.fl.yelpcdn.com/bphoto/CP_ayxaA6UgqqAmlFoHZUA/o.jpg", "is_closed": false, "url": "https://www.yelp.com/biz/sanyuu-west-new-york?adjust_creative=9gNmiWYX8uTbFBeTTvJMdA&utm_campaign=yelp_api_v3&utm_medium=api_v3_business_search&utm_source=9gNmiWYX8uTbFBeTTvJMdA", "review_count": 63, "categories": [{"alias": "sushi", "title": "Sushi Bars"}, {"alias": "asianfusion", "title": "Asian Fusion"}, {"alias": "japanese", "title": "Japanese"}], "rating": 4.5, "coordinates": {"latitude": 40.74156, "longitude": -73.99932}, "transactions": [], "price": "$$$$", "location": {"address1": "228 W 18th St", "address2": null, "address3": "", "city": "New York", "zip_code": "10011", "country": "US", "state": "NY", "display_address": ["228 W 18th St", "New York, NY 10011"]}, "phone": "+13477256580", "display_phone": "(347) 725-6580", "distance": 3188.0076291578926}, {"id": "__r8_g1cgDaiDn10cGeJ3Q", "alias": "new-china-red-new-york", "name": "New China Red", "image_url": "https://s3-media3.fl.yelpcdn.com/bphoto/W0W7krLBGgVU4QgCN1kgrQ/o.jpg", "is_closed": false, "url": "https://www.yelp.com/biz/new-china-red-new-york?adjust_creative=9gNmiWYX8uTbFBeTTvJMdA&utm_campaign=yelp_api_v3&utm_medium=api_v3_business_search&utm_source=9gNmiWYX8uTbFBeTTvJMdA", "review_count": 37, "categories": [{"alias": "chinese", "title": "Chinese"}], "rating": 2.5, "coordinates": {"latitude": 40.715023, "longitude": -74.008636}, "transactions": ["delivery", "pickup"], "price": "$", "location": {"address1": "118 Chambers St", "address2": "", "address3": "", "city": "New York", "zip_code": "10007", "country": "US", "state": "NY", "display_address": ["118 Chambers St", "New York, NY 10007"]}, "phone": "+12122674015", "display_phone": "(212) 267-4015", "distance": 5906.9290956249315}, {"id": "qb8zEppvglM41R6oZHx2FQ", "alias": "brooklyn-dumpling-shop-hoboken-hoboken", "name": "Brooklyn Dumpling Shop - Hoboken", "image_url": "https://s3-media2.fl.yelpcdn.com/bphoto/PyM4C4nG2Yn806K2txGBTg/o.jpg", "is_closed": false, "url": "https://www.yelp.com/biz/brooklyn-dumpling-shop-hoboken-hoboken?adjust_creative=9gNmiWYX8uTbFBeTTvJMdA&utm_campaign=yelp_api_v3&utm_medium=api_v3_business_search&utm_source=9gNmiWYX8uTbFBeTTvJMdA", "review_count": 6, "categories": [{"alias": "dimsum", "title": "Dim Sum"}, {"alias": "steak", "title": "Steakhouses"}, {"alias": "asianfusion", "title": "Asian Fusion"}], "rating": 4.0, "coordinates": {"latitude": 40.74294980292616, "longitude": -74.02951957334565}, "transactions": [], "location": {"address1": "514 Washington St", "address2": "", "address3": null, "city": "Hoboken", "zip_code": "07030", "country": "US", "state": "NJ", "display_address": ["514 Washington St", "Hoboken, NJ 07030"]}, "phone": "+12012382489", "display_phone": "(201) 238-2489", "distance": 5362.188327461572}, {"id": "6Jjz97KPJ0jtmmIBCjReEw", "alias": "hou-yi-hot-pot-new-york", "name": "Hou Yi Hot Pot", "image_url": "https://s3-media4.fl.yelpcdn.com/bphoto/FoarlGiZDU6FrrUqY8-Owg/o.jpg", "is_closed": false, "url": "https://www.yelp.com/biz/hou-yi-hot-pot-new-york?adjust_creative=9gNmiWYX8uTbFBeTTvJMdA&utm_campaign=yelp_api_v3&utm_medium=api_v3_business_search&utm_source=9gNmiWYX8uTbFBeTTvJMdA", "review_count": 509, "categories": [{"alias": "hotpot", "title": "Hot Pot"}], "rating": 4.0, "coordinates": {"latitude": 40.7161793, "longitude": -73.9925896}, "transactions": [], "price": "$$$", "location": {"address1": "92 Hester St", "address2": "", "address3": "", "city": "New York", "zip_code": "10002", "country": "US", "state": "NY", "display_address": ["92 Hester St", "New York, NY 10002"]}, "phone": "+12129663420", "display_phone": "(212) 966-3420", "distance": 5159.158268996748}, {"id": "czQm6Ull9V6b-64amhUMyA", "alias": "good-taste-restaurant-new-york", "name": "Good Taste Restaurant", "image_url": "https://s3-media2.fl.yelpcdn.com/bphoto/d3UX_u_S1rb7lohjr_sB2g/o.jpg", "is_closed": false, "url": "https://www.yelp.com/biz/good-taste-restaurant-new-york?adjust_creative=9gNmiWYX8uTbFBeTTvJMdA&utm_campaign=yelp_api_v3&utm_medium=api_v3_business_search&utm_source=9gNmiWYX8uTbFBeTTvJMdA", "review_count": 60, "categories": [{"alias": "chinese", "title": "Chinese"}], "rating": 4.0, "coordinates": {"latitude": 40.8214624, "longitude": -73.9543845}, "transactions": [], "price": "$", "location": {"address1": "3371 Broadway", "address2": "", "address3": "", "city": "New York", "zip_code": "10031", "country": "US", "state": "NY", "display_address": ["3371 Broadway", "New York, NY 10031"]}, "phone": "+12122818898", "display_phone": "(212) 281-8898", "distance": 7016.779108057554}, {"id": "1KoKR9fug8VXZr5tqqtimQ", "alias": "rim-nam-thai-brooklyn", "name": "Rim Nam Thai", "image_url": "https://s3-media2.fl.yelpcdn.com/bphoto/7PLGNMeERGw67tQHA06lxg/o.jpg", "is_closed": false, "url": "https://www.yelp.com/biz/rim-nam-thai-brooklyn?adjust_creative=9gNmiWYX8uTbFBeTTvJMdA&utm_campaign=yelp_api_v3&utm_medium=api_v3_business_search&utm_source=9gNmiWYX8uTbFBeTTvJMdA", "review_count": 25, "categories": [{"alias": "thai", "title": "Thai"}, {"alias": "salad", "title": "Salad"}, {"alias": "noodles", "title": "Noodles"}], "rating": 4.0, "coordinates": {"latitude": 40.7033674860089, "longitude": -73.9868891}, "transactions": ["delivery", "pickup"], "location": {"address1": "52 Jay St", "address2": null, "address3": "", "city": "Brooklyn", "zip_code": "11201", "country": "US", "state": "NY", "display_address": ["52 Jay St", "Brooklyn, NY 11201"]}, "phone": "+13474220404", "display_phone": "(347) 422-0404", "distance": 6374.679981309412}, {"id": "_XLLSXPIjgoZQtwU3RCcQA", "alias": "hunan-delight-brooklyn-2", "name": "Hunan Delight", "image_url": "https://s3-media3.fl.yelpcdn.com/bphoto/GydoNAcyZqMpdKwULzMmmA/o.jpg", "is_closed": false, "url": "https://www.yelp.com/biz/hunan-delight-brooklyn-2?adjust_creative=9gNmiWYX8uTbFBeTTvJMdA&utm_campaign=yelp_api_v3&utm_medium=api_v3_business_search&utm_source=9gNmiWYX8uTbFBeTTvJMdA", "review_count": 341, "categories": [{"alias": "chinese", "title": "Chinese"}], "rating": 4.0, "coordinates": {"latitude": 40.6755282563532, "longitude": -73.9780712127686}, "transactions": ["delivery", "pickup"], "price": "$$", "location": {"address1": "752 Union St", "address2": null, "address3": "", "city": "Brooklyn", "zip_code": "11215", "country": "US", "state": "NY", "display_address": ["752 Union St", "Brooklyn, NY 11215"]}, "phone": "+17187891400", "display_phone": "(718) 789-1400", "distance": 9328.57927190239}, {"id": "JU-hU3RJ_56KMYdYhp0zyw", "alias": "wu-s-foods-fort-lee", "name": "WU\u2019S Foods", "image_url": "https://s3-media4.fl.yelpcdn.com/bphoto/2jmNvUUUbAPDHYCO5lHkww/o.jpg", "is_closed": false, "url": "https://www.yelp.com/biz/wu-s-foods-fort-lee?adjust_creative=9gNmiWYX8uTbFBeTTvJMdA&utm_campaign=yelp_api_v3&utm_medium=api_v3_business_search&utm_source=9gNmiWYX8uTbFBeTTvJMdA", "review_count": 1, "categories": [{"alias": "asianfusion", "title": "Asian Fusion"}, {"alias": "chinese", "title": "Chinese"}, {"alias": "fooddeliveryservices", "title": "Food Delivery Services"}], "rating": 5.0, "coordinates": {"latitude": 40.85089879134409, "longitude": -73.9712145855811}, "transactions": [], "location": {"address1": null, "address2": null, "address3": null, "city": "Fort Lee", "zip_code": "07024", "country": "US", "state": "NJ", "display_address": ["Fort Lee, NJ 07024"]}, "phone": "+17183090111", "display_phone": "(718) 309-0111", "distance": 10200.17632099982}, {"id": "zWDiH7KpUhRhv1cPNExMDg", "alias": "new-hong-kong-restaurant-new-york", "name": "New Hong Kong Restaurant", "image_url": "https://s3-media1.fl.yelpcdn.com/bphoto/eerbRAGCO0cfqyHfg4iDgg/o.jpg", "is_closed": false, "url": "https://www.yelp.com/biz/new-hong-kong-restaurant-new-york?adjust_creative=9gNmiWYX8uTbFBeTTvJMdA&utm_campaign=yelp_api_v3&utm_medium=api_v3_business_search&utm_source=9gNmiWYX8uTbFBeTTvJMdA", "review_count": 9, "categories": [{"alias": "chinese", "title": "Chinese"}], "rating": 2.5, "coordinates": {"latitude": 40.8001850545406, "longitude": -73.9404103159904}, "transactions": ["delivery", "pickup"], "price": "$", "location": {"address1": "1907 Lexington Ave", "address2": "", "address3": "", "city": "New York", "zip_code": "10035", "country": "US", "state": "NY", "display_address": ["1907 Lexington Ave", "New York, NY 10035"]}, "phone": "+12125345533", "display_phone": "(212) 534-5533", "distance": 5192.672753399251}, {"id": "uD0Tnv0DsMU_JhG7UlYRew", "alias": "hunan-park-new-york-4", "name": "Hunan Park", "image_url": "https://s3-media1.fl.yelpcdn.com/bphoto/xfuzwCvlaEuipki8CHHi_Q/o.jpg", "is_closed": false, "url": "https://www.yelp.com/biz/hunan-park-new-york-4?adjust_creative=9gNmiWYX8uTbFBeTTvJMdA&utm_campaign=yelp_api_v3&utm_medium=api_v3_business_search&utm_source=9gNmiWYX8uTbFBeTTvJMdA", "review_count": 2, "categories": [{"alias": "seafood", "title": "Seafood"}, {"alias": "noodles", "title": "Noodles"}, {"alias": "szechuan", "title": "Szechuan"}], "rating": 1.5, "coordinates": {"latitude": 40.79006, "longitude": -73.97351}, "transactions": ["delivery", "pickup"], "location": {"address1": "610 Amsterdam Ave", "address2": null, "address3": "", "city": "New York", "zip_code": "10024", "country": "US", "state": "NY", "display_address": ["610 Amsterdam Ave", "New York, NY 10024"]}, "phone": "+12122226511", "display_phone": "(212) 222-6511", "distance": 3448.6140441481834}], "total": 3300, "region": {"center": {"longitude": -73.96957397460938, "latitude": 40.75917470627005}}}