{"businesses": [{"id": "4fQuriJ0mFzzG6RE1cRV5A", "alias": "halal-kitchen-sunnyside", "name": "Halal Kitchen", "image_url": "https://s3-media1.fl.yelpcdn.com/bphoto/C2-DyZk43sktCcTF82JDdw/o.jpg", "is_closed": false, "url": "https://www.yelp.com/biz/halal-kitchen-sunnyside?adjust_creative=9gNmiWYX8uTbFBeTTvJMdA&utm_campaign=yelp_api_v3&utm_medium=api_v3_business_search&utm_source=9gNmiWYX8uTbFBeTTvJMdA", "review_count": 38, "categories": [{"alias": "chinese", "title": "Chinese"}, {"alias": "halal", "title": "Halal"}], "rating": 3.5, "coordinates": {"latitude": 40.74051, "longitude": -73.92241}, "transactions": ["pickup", "delivery"], "price": "$", "location": {"address1": "4214 Greenpoint Ave", "address2": "", "address3": "", "city": "Sunnyside", "zip_code": "11104", "country": "US", "state": "NY", "display_address": ["4214 Greenpoint Ave", "Sunnyside, NY 11104"]}, "phone": "+17183928688", "display_phone": "(718) 392-8688", "distance": 4468.685691923762}, {"id": "vLsTPg42rkgN5rUpNfg1OA", "alias": "da-long-yi-hot-pot-new-york-4", "name": "Da Long Yi Hot Pot", "image_url": "https://s3-media1.fl.yelpcdn.com/bphoto/T98hwsi6Ca_H_FEdknxwkw/o.jpg", "is_closed": false, "url": "https://www.yelp.com/biz/da-long-yi-hot-pot-new-york-4?adjust_creative=9gNmiWYX8uTbFBeTTvJMdA&utm_campaign=yelp_api_v3&utm_medium=api_v3_business_search&utm_source=9gNmiWYX8uTbFBeTTvJMdA", "review_count": 527, "categories": [{"alias": "hotpot", "title": "Hot Pot"}, {"alias": "szechuan", "title": "Szechuan"}], "rating": 4.5, "coordinates": {"latitude": 40.716557, "longitude": -73.996583}, "transactions": ["pickup", "delivery", "restaurant_reservation"], "price": "$$$", "location": {"address1": "159 Canal St", "address2": "Fl 2 Unit E", "address3": null, "city": "New York", "zip_code": "10013", "country": "US", "state": "NY", "display_address": ["159 Canal St", "Fl 2 Unit E", "New York, NY 10013"]}, "phone": "+19178895539", "display_phone": "(917) 889-5539", "distance": 5256.421653643382}, {"id": "eS9mTLlWwu_Ap2ROMQWPxg", "alias": "chuko-brooklyn-2", "name": "Chuko", "image_url": "https://s3-media1.fl.yelpcdn.com/bphoto/1B2hibo8rEeSqHlhmb_nFw/o.jpg", "is_closed": false, "url": "https://www.yelp.com/biz/chuko-brooklyn-2?adjust_creative=9gNmiWYX8uTbFBeTTvJMdA&utm_campaign=yelp_api_v3&utm_medium=api_v3_business_search&utm_source=9gNmiWYX8uTbFBeTTvJMdA", "review_count": 1102, "categories": [{"alias": "asianfusion", "title": "Asian Fusion"}, {"alias": "ramen", "title": "Ramen"}], "rating": 4.0, "coordinates": {"latitude": 40.680784, "longitude": -73.967455}, "transactions": ["pickup", "delivery"], "price": "$$", "location": {"address1": "565 Vanderbilt Ave", "address2": "", "address3": "", "city": "Brooklyn", "zip_code": "11238", "country": "US", "state": "NY", "display_address": ["565 Vanderbilt Ave", "Brooklyn, NY 11238"]}, "phone": "+13474259570", "display_phone": "(347) 425-9570", "distance": 8718.468223198219}, {"id": "b6O3gPP3S0eugOO4tIbxPg", "alias": "ok-canaan-taiwanese-gourmet-\u53f0\u7063\u597d\u6ecb\u5473-flushing", "name": "Ok Canaan Taiwanese Gourmet \u53f0\u7063\u597d\u6ecb\u5473", "image_url": "https://s3-media2.fl.yelpcdn.com/bphoto/hzCmpyWUHsqd6lgmOb5dmQ/o.jpg", "is_closed": false, "url": "https://www.yelp.com/biz/ok-canaan-taiwanese-gourmet-%E5%8F%B0%E7%81%A3%E5%A5%BD%E6%BB%8B%E5%91%B3-flushing?adjust_creative=9gNmiWYX8uTbFBeTTvJMdA&utm_campaign=yelp_api_v3&utm_medium=api_v3_business_search&utm_source=9gNmiWYX8uTbFBeTTvJMdA", "review_count": 98, "categories": [{"alias": "taiwanese", "title": "Taiwanese"}], "rating": 4.5, "coordinates": {"latitude": 40.75182, "longitude": -73.8272}, "transactions": ["pickup", "delivery"], "price": "$$", "location": {"address1": "43-18 Main St", "address2": "", "address3": "", "city": "Flushing", "zip_code": "11355", "country": "US", "state": "NY", "display_address": ["43-18 Main St", "Flushing, NY 11355"]}, "phone": "+17188868844", "display_phone": "(718) 886-8844", "distance": 12039.154016414717}, {"id": "4NCvsUR3cKLaPgIZJK622w", "alias": "chang-hong-chinese-restaurant-brooklyn", "name": "Chang Hong Chinese Restaurant", "image_url": "https://s3-media1.fl.yelpcdn.com/bphoto/zWW9FuN0J6nz1PTAKFX96g/o.jpg", "is_closed": false, "url": "https://www.yelp.com/biz/chang-hong-chinese-restaurant-brooklyn?adjust_creative=9gNmiWYX8uTbFBeTTvJMdA&utm_campaign=yelp_api_v3&utm_medium=api_v3_business_search&utm_source=9gNmiWYX8uTbFBeTTvJMdA", "review_count": 14, "categories": [{"alias": "chinese", "title": "Chinese"}], "rating": 4.0, "coordinates": {"latitude": 40.696949, "longitude": -73.910232}, "transactions": ["pickup", "delivery"], "price": "$$", "location": {"address1": "409 Irving Ave", "address2": "", "address3": "", "city": "Brooklyn", "zip_code": "11237", "country": "US", "state": "NY", "display_address": ["409 Irving Ave", "Brooklyn, NY 11237"]}, "phone": "+17188215988", "display_phone": "(718) 821-5988", "distance": 8538.451618710096}, {"id": "TjB0wn5MyHM5rDMBCSCnfw", "alias": "old-peking-jersey-city-2", "name": "Old Peking", "image_url": "https://s3-media3.fl.yelpcdn.com/bphoto/aHmCpBtnikywWqpBdJd4Yw/o.jpg", "is_closed": false, "url": "https://www.yelp.com/biz/old-peking-jersey-city-2?adjust_creative=9gNmiWYX8uTbFBeTTvJMdA&utm_campaign=yelp_api_v3&utm_medium=api_v3_business_search&utm_source=9gNmiWYX8uTbFBeTTvJMdA", "review_count": 46, "categories": [{"alias": "chinese", "title": "Chinese"}], "rating": 4.0, "coordinates": {"latitude": 40.7255268, "longitude": -74.0683028}, "transactions": ["pickup", "delivery"], "price": "$", "location": {"address1": "746 Montgomery St", "address2": "", "address3": "", "city": "Jersey City", "zip_code": "07306", "country": "US", "state": "NJ", "display_address": ["746 Montgomery St", "Jersey City, NJ 07306"]}, "phone": "+12014354664", "display_phone": "(201) 435-4664", "distance": 9128.621122138211}, {"id": "qd5JBbRv6iFBuqaCkCEOvQ", "alias": "rong-hang-restaurant-new-york", "name": "Rong Hang Restaurant", "image_url": "https://s3-media4.fl.yelpcdn.com/bphoto/qB5s6c6qCvfgjCWRwyoV2g/o.jpg", "is_closed": false, "url": "https://www.yelp.com/biz/rong-hang-restaurant-new-york?adjust_creative=9gNmiWYX8uTbFBeTTvJMdA&utm_campaign=yelp_api_v3&utm_medium=api_v3_business_search&utm_source=9gNmiWYX8uTbFBeTTvJMdA", "review_count": 6, "categories": [{"alias": "chinese", "title": "Chinese"}], "rating": 3.0, "coordinates": {"latitude": 40.71572, "longitude": -73.99311}, "transactions": [], "location": {"address1": "38 Eldridge St", "address2": null, "address3": null, "city": "New York", "zip_code": "10002", "country": "US", "state": "NY", "display_address": ["38 Eldridge St", "New York, NY 10002"]}, "phone": "+12126258999", "display_phone": "(212) 625-8999", "distance": 5224.385756876192}, {"id": "9yTwuznxkJo9JZl7KBZ0zw", "alias": "hibachi-express-new-york-17", "name": "Hibachi Express", "image_url": "https://s3-media4.fl.yelpcdn.com/bphoto/0qD5VCILuSTcdkaUqr5v_Q/o.jpg", "is_closed": false, "url": "https://www.yelp.com/biz/hibachi-express-new-york-17?adjust_creative=9gNmiWYX8uTbFBeTTvJMdA&utm_campaign=yelp_api_v3&utm_medium=api_v3_business_search&utm_source=9gNmiWYX8uTbFBeTTvJMdA", "review_count": 25, "categories": [{"alias": "japanese", "title": "Japanese"}, {"alias": "chinese", "title": "Chinese"}], "rating": 3.5, "coordinates": {"latitude": 40.729499, "longitude": -73.978765}, "transactions": ["pickup", "delivery"], "price": "$$", "location": {"address1": "536 E 14th St", "address2": "", "address3": null, "city": "New York", "zip_code": "10009", "country": "US", "state": "NY", "display_address": ["536 E 14th St", "New York, NY 10009"]}, "phone": "+19172617701", "display_phone": "(917) 261-7701", "distance": 3389.41088962502}, {"id": "sGwQYKPaMJ-tD2E4fQ0EJQ", "alias": "jardin-de-china-corona", "name": "Jardin De China", "image_url": "https://s3-media4.fl.yelpcdn.com/bphoto/Z37vhbHAAxJoZRkA3sHzmw/o.jpg", "is_closed": false, "url": "https://www.yelp.com/biz/jardin-de-china-corona?adjust_creative=9gNmiWYX8uTbFBeTTvJMdA&utm_campaign=yelp_api_v3&utm_medium=api_v3_business_search&utm_source=9gNmiWYX8uTbFBeTTvJMdA", "review_count": 259, "categories": [{"alias": "chinese", "title": "Chinese"}, {"alias": "latin", "title": "Latin American"}], "rating": 4.0, "coordinates": {"latitude": 40.750672, "longitude": -73.869982}, "transactions": ["delivery"], "price": "$$", "location": {"address1": "3737 Jct Blvd", "address2": "", "address3": "", "city": "Corona", "zip_code": "11368", "country": "US", "state": "NY", "display_address": ["3737 Jct Blvd", "Corona, NY 11368"]}, "phone": "+17184763755", "display_phone": "(718) 476-3755", "distance": 8440.331777846364}, {"id": "GKZa6xX1ZctdDTLDyfGBHw", "alias": "thank-you-come-again-brooklyn", "name": "Thank You Come Again", "image_url": "https://s3-media2.fl.yelpcdn.com/bphoto/jL1oEO-1dAwmSrjF-o1how/o.jpg", "is_closed": false, "url": "https://www.yelp.com/biz/thank-you-come-again-brooklyn?adjust_creative=9gNmiWYX8uTbFBeTTvJMdA&utm_campaign=yelp_api_v3&utm_medium=api_v3_business_search&utm_source=9gNmiWYX8uTbFBeTTvJMdA", "review_count": 53, "categories": [{"alias": "thai", "title": "Thai"}, {"alias": "dimsum", "title": "Dim Sum"}, {"alias": "asianfusion", "title": "Asian Fusion"}], "rating": 4.0, "coordinates": {"latitude": 40.69085, "longitude": -73.98329}, "transactions": ["pickup", "delivery"], "location": {"address1": "445 Albee Square W", "address2": "", "address3": null, "city": "Brooklyn", "zip_code": "11201", "country": "US", "state": "NY", "display_address": ["445 Albee Square W", "Brooklyn, NY 11201"]}, "phone": "+19293887878", "display_phone": "(929) 388-7878", "distance": 7700.544881908911}, {"id": "_BL1-CT06HGkiA3jcucu2Q", "alias": "panda-express-new-york-17", "name": "Panda Express", "image_url": "https://s3-media2.fl.yelpcdn.com/bphoto/rtyJ4VxF8RvSvWjya3xo5A/o.jpg", "is_closed": false, "url": "https://www.yelp.com/biz/panda-express-new-york-17?adjust_creative=9gNmiWYX8uTbFBeTTvJMdA&utm_campaign=yelp_api_v3&utm_medium=api_v3_business_search&utm_source=9gNmiWYX8uTbFBeTTvJMdA", "review_count": 61, "categories": [{"alias": "hotdogs", "title": "Fast Food"}, {"alias": "chinese", "title": "Chinese"}], "rating": 2.5, "coordinates": {"latitude": 40.80459, "longitude": -73.96607}, "transactions": ["pickup", "delivery"], "price": "$$", "location": {"address1": "2852 Broadway", "address2": "", "address3": null, "city": "New York", "zip_code": "10025", "country": "US", "state": "NY", "display_address": ["2852 Broadway", "New York, NY 10025"]}, "phone": "+12126780139", "display_phone": "(212) 678-0139", "distance": 5058.555130571649}, {"id": "Dh2I2jRTXE7oDCfuA9vCoQ", "alias": "super-china-pagoda-astoria", "name": "Super China Pagoda", "image_url": "https://s3-media3.fl.yelpcdn.com/bphoto/f5QlNr8mfif1asw2DRpkVQ/o.jpg", "is_closed": false, "url": "https://www.yelp.com/biz/super-china-pagoda-astoria?adjust_creative=9gNmiWYX8uTbFBeTTvJMdA&utm_campaign=yelp_api_v3&utm_medium=api_v3_business_search&utm_source=9gNmiWYX8uTbFBeTTvJMdA", "review_count": 51, "categories": [{"alias": "halal", "title": "Halal"}, {"alias": "chinese", "title": "Chinese"}], "rating": 3.5, "coordinates": {"latitude": 40.7610039, "longitude": -73.9091797}, "transactions": ["pickup", "delivery"], "price": "$", "location": {"address1": "4720 30th Ave", "address2": "", "address3": "", "city": "Astoria", "zip_code": "11103", "country": "US", "state": "NY", "display_address": ["4720 30th Ave", "Astoria, NY 11103"]}, "phone": "+17186260388", "display_phone": "(718) 626-0388", "distance": 5114.101452425809}, {"id": "WpfuHkTsiRN2EerQ8ZaG4g", "alias": "saigon-cafe-jersey-city", "name": "Saigon Cafe", "image_url": "https://s3-media2.fl.yelpcdn.com/bphoto/PAZE2Kb8NIFFA1ec8U-k4w/o.jpg", "is_closed": false, "url": "https://www.yelp.com/biz/saigon-cafe-jersey-city?adjust_creative=9gNmiWYX8uTbFBeTTvJMdA&utm_campaign=yelp_api_v3&utm_medium=api_v3_business_search&utm_source=9gNmiWYX8uTbFBeTTvJMdA", "review_count": 395, "categories": [{"alias": "vietnamese", "title": "Vietnamese"}, {"alias": "noodles", "title": "Noodles"}, {"alias": "soup", "title": "Soup"}], "rating": 4.0, "coordinates": {"latitude": 40.72164, "longitude": -74.04574}, "transactions": ["pickup", "delivery"], "price": "$$", "location": {"address1": "188 Newark Ave", "address2": "", "address3": "", "city": "Jersey City", "zip_code": "07302", "country": "US", "state": "NJ", "display_address": ["188 Newark Ave", "Jersey City, NJ 07302"]}, "phone": "+12013328711", "display_phone": "(201) 332-8711", "distance": 7645.737769632133}, {"id": "2VpurA2lb-q90nmALklNcA", "alias": "perry-st-new-york", "name": "Perry St", "image_url": "https://s3-media2.fl.yelpcdn.com/bphoto/kKBQXzKG4Db-lDwuNQQ6nw/o.jpg", "is_closed": false, "url": "https://www.yelp.com/biz/perry-st-new-york?adjust_creative=9gNmiWYX8uTbFBeTTvJMdA&utm_campaign=yelp_api_v3&utm_medium=api_v3_business_search&utm_source=9gNmiWYX8uTbFBeTTvJMdA", "review_count": 994, "categories": [{"alias": "newamerican", "title": "American (New)"}, {"alias": "french", "title": "French"}, {"alias": "asianfusion", "title": "Asian Fusion"}], "rating": 4.0, "coordinates": {"latitude": 40.73442, "longitude": -74.00971}, "transactions": ["pickup", "delivery"], "price": "$$$", "location": {"address1": "176 Perry St", "address2": "", "address3": "", "city": "New York", "zip_code": "10014", "country": "US", "state": "NY", "display_address": ["176 Perry St", "New York, NY 10014"]}, "phone": "+12123521900", "display_phone": "(212) 352-1900", "distance": 4358.550341794475}, {"id": "6gE9N5wD4K-bbmSEBm7Lhw", "alias": "kong-kee-new-york", "name": "Kong Kee", "image_url": "https://s3-media2.fl.yelpcdn.com/bphoto/bwlsS3ENBqagGbqwmZAmhA/o.jpg", "is_closed": false, "url": "https://www.yelp.com/biz/kong-kee-new-york?adjust_creative=9gNmiWYX8uTbFBeTTvJMdA&utm_campaign=yelp_api_v3&utm_medium=api_v3_business_search&utm_source=9gNmiWYX8uTbFBeTTvJMdA", "review_count": 64, "categories": [{"alias": "chinese", "title": "Chinese"}, {"alias": "foodstands", "title": "Food Stands"}], "rating": 4.0, "coordinates": {"latitude": 40.719047, "longitude": -73.996139}, "transactions": [], "price": "$", "location": {"address1": "212 Grand St", "address2": "", "address3": "", "city": "New York", "zip_code": "10002", "country": "US", "state": "NY", "display_address": ["212 Grand St", "New York, NY 10002"]}, "phone": "+12129661350", "display_phone": "(212) 966-1350", "distance": 4991.8544689697865}, {"id": "sp2PDj9G6yDw-3YcSo0Zkg", "alias": "thar-gi-mohinga-and-burmese-food-queens", "name": "Thar Gi Mohinga And Burmese Food", "image_url": "https://s3-media3.fl.yelpcdn.com/bphoto/aZj3yE4Ipoj8voxoBV7sBw/o.jpg", "is_closed": false, "url": "https://www.yelp.com/biz/thar-gi-mohinga-and-burmese-food-queens?adjust_creative=9gNmiWYX8uTbFBeTTvJMdA&utm_campaign=yelp_api_v3&utm_medium=api_v3_business_search&utm_source=9gNmiWYX8uTbFBeTTvJMdA", "review_count": 3, "categories": [{"alias": "burmese", "title": "Burmese"}, {"alias": "chinese", "title": "Chinese"}], "rating": 4.0, "coordinates": {"latitude": 40.741388, "longitude": -73.88252}, "transactions": [], "location": {"address1": "8202 45th Ave", "address2": "Ste 22", "address3": null, "city": "Queens", "zip_code": "11373", "country": "US", "state": "NY", "display_address": ["8202 45th Ave", "Ste 22", "Queens, NY 11373"]}, "phone": "+19294543344", "display_phone": "(929) 454-3344", "distance": 7594.009711932809}, {"id": "grg_0Zt9WwCmXHPjWu7b-Q", "alias": "bk-seafood-market-brooklyn", "name": "BK Seafood Market", "image_url": "https://s3-media2.fl.yelpcdn.com/bphoto/DFufG_mdqsA6-ZYfyUducA/o.jpg", "is_closed": false, "url": "https://www.yelp.com/biz/bk-seafood-market-brooklyn?adjust_creative=9gNmiWYX8uTbFBeTTvJMdA&utm_campaign=yelp_api_v3&utm_medium=api_v3_business_search&utm_source=9gNmiWYX8uTbFBeTTvJMdA", "review_count": 31, "categories": [{"alias": "cantonese", "title": "Cantonese"}, {"alias": "seafood", "title": "Seafood"}], "rating": 4.0, "coordinates": {"latitude": 40.63236, "longitude": -74.01091}, "transactions": ["pickup", "delivery"], "location": {"address1": "842 64th St", "address2": null, "address3": "", "city": "Brooklyn", "zip_code": "11220", "country": "US", "state": "NY", "display_address": ["842 64th St", "Brooklyn, NY 11220"]}, "phone": "+17188366888", "display_phone": "(718) 836-6888", "distance": 14522.632638090061}, {"id": "vGS8gDY40HaX0Xsbkl3nEg", "alias": "big-wong-brooklyn", "name": "Big Wong", "image_url": "https://s3-media4.fl.yelpcdn.com/bphoto/UjnB7P104_nAUBWBEjJN7Q/o.jpg", "is_closed": false, "url": "https://www.yelp.com/biz/big-wong-brooklyn?adjust_creative=9gNmiWYX8uTbFBeTTvJMdA&utm_campaign=yelp_api_v3&utm_medium=api_v3_business_search&utm_source=9gNmiWYX8uTbFBeTTvJMdA", "review_count": 1, "categories": [{"alias": "cantonese", "title": "Cantonese"}, {"alias": "hkcafe", "title": "Hong Kong Style Cafe"}, {"alias": "bbq", "title": "Barbeque"}], "rating": 5.0, "coordinates": {"latitude": 40.71706810433018, "longitude": -73.95910409999999}, "transactions": [], "location": {"address1": "135B N 5th St", "address2": "", "address3": null, "city": "Brooklyn", "zip_code": "11249", "country": "US", "state": "NY", "display_address": ["135B N 5th St", "Brooklyn, NY 11249"]}, "phone": "+19294893539", "display_phone": "(929) 489-3539", "distance": 4764.407113038652}, {"id": "k_y6o8zqI3cODdKABwWZ9g", "alias": "china-garden-brooklyn-5", "name": "China Garden", "image_url": "https://s3-media3.fl.yelpcdn.com/bphoto/K63Ca3QqhvyAG4r0ZZ--TQ/o.jpg", "is_closed": false, "url": "https://www.yelp.com/biz/china-garden-brooklyn-5?adjust_creative=9gNmiWYX8uTbFBeTTvJMdA&utm_campaign=yelp_api_v3&utm_medium=api_v3_business_search&utm_source=9gNmiWYX8uTbFBeTTvJMdA", "review_count": 18, "categories": [{"alias": "chinese", "title": "Chinese"}], "rating": 4.5, "coordinates": {"latitude": 40.703364, "longitude": -73.921517}, "transactions": ["pickup", "delivery"], "price": "$", "location": {"address1": "133 Irving Ave", "address2": null, "address3": null, "city": "Brooklyn", "zip_code": "11237", "country": "US", "state": "NY", "display_address": ["133 Irving Ave", "Brooklyn, NY 11237"]}, "phone": "+17184182888", "display_phone": "(718) 418-2888", "distance": 7411.590067440769}, {"id": "UYYtmHw1gD3MIg1dMRY7hg", "alias": "golden-bay-parkway-restaurant-brooklyn-2", "name": "Golden Bay Parkway Restaurant", "image_url": "https://s3-media3.fl.yelpcdn.com/bphoto/ZIt71PaTlANj_kvpHh-ZOA/o.jpg", "is_closed": false, "url": "https://www.yelp.com/biz/golden-bay-parkway-restaurant-brooklyn-2?adjust_creative=9gNmiWYX8uTbFBeTTvJMdA&utm_campaign=yelp_api_v3&utm_medium=api_v3_business_search&utm_source=9gNmiWYX8uTbFBeTTvJMdA", "review_count": 15, "categories": [{"alias": "chinese", "title": "Chinese"}], "rating": 3.0, "coordinates": {"latitude": 40.612596, "longitude": -73.983184}, "transactions": ["pickup", "delivery"], "location": {"address1": "6712 Bay Pkwy", "address2": "", "address3": null, "city": "Brooklyn", "zip_code": "11204", "country": "US", "state": "NY", "display_address": ["6712 Bay Pkwy", "Brooklyn, NY 11204"]}, "phone": "+17182329888", "display_phone": "(718) 232-9888", "distance": 16341.026596375441}, {"id": "r16il2wCv7glckJ8QkO1-g", "alias": "china-taste-leonia", "name": "China Taste", "image_url": "https://s3-media2.fl.yelpcdn.com/bphoto/XM6aUzpGQRz6oElPLHMGzg/o.jpg", "is_closed": false, "url": "https://www.yelp.com/biz/china-taste-leonia?adjust_creative=9gNmiWYX8uTbFBeTTvJMdA&utm_campaign=yelp_api_v3&utm_medium=api_v3_business_search&utm_source=9gNmiWYX8uTbFBeTTvJMdA", "review_count": 31, "categories": [{"alias": "chinese", "title": "Chinese"}], "rating": 4.0, "coordinates": {"latitude": 40.8609142899513, "longitude": -73.9884473383427}, "transactions": ["delivery"], "price": "$", "location": {"address1": "297 Broad Ave", "address2": "", "address3": "", "city": "Leonia", "zip_code": "07605", "country": "US", "state": "NJ", "display_address": ["297 Broad Ave", "Leonia, NJ 07605"]}, "phone": "+12015857771", "display_phone": "(201) 585-7771", "distance": 11448.976713126774}, {"id": "wFjW3d0PDr2Lb_54RmnB6Q", "alias": "tlk-by-tigerlily-kitchen-new-york-2", "name": "TLK by Tigerlily Kitchen", "image_url": "https://s3-media3.fl.yelpcdn.com/bphoto/5WPH9I1p0xsWF4eroq9dcQ/o.jpg", "is_closed": false, "url": "https://www.yelp.com/biz/tlk-by-tigerlily-kitchen-new-york-2?adjust_creative=9gNmiWYX8uTbFBeTTvJMdA&utm_campaign=yelp_api_v3&utm_medium=api_v3_business_search&utm_source=9gNmiWYX8uTbFBeTTvJMdA", "review_count": 59, "categories": [{"alias": "gluten_free", "title": "Gluten-Free"}, {"alias": "panasian", "title": "Pan Asian"}, {"alias": "cocktailbars", "title": "Cocktail Bars"}], "rating": 4.5, "coordinates": {"latitude": 40.73116944194413, "longitude": -73.98908630204441}, "transactions": ["pickup", "delivery"], "location": {"address1": "58 3rd Ave", "address2": null, "address3": "", "city": "New York", "zip_code": "10003", "country": "US", "state": "NY", "display_address": ["58 3rd Ave", "New York, NY 10003"]}, "phone": "+19293738992", "display_phone": "(929) 373-8992", "distance": 3521.2601265438548}, {"id": "Yo6D3B8TP_xdN1yaoNc0Ww", "alias": "fresh-wok-new-york", "name": "Fresh Wok", "image_url": "https://s3-media4.fl.yelpcdn.com/bphoto/A0jLbWtJCYe-D7ITG2bl3A/o.jpg", "is_closed": false, "url": "https://www.yelp.com/biz/fresh-wok-new-york?adjust_creative=9gNmiWYX8uTbFBeTTvJMdA&utm_campaign=yelp_api_v3&utm_medium=api_v3_business_search&utm_source=9gNmiWYX8uTbFBeTTvJMdA", "review_count": 40, "categories": [{"alias": "chinese", "title": "Chinese"}, {"alias": "asianfusion", "title": "Asian Fusion"}], "rating": 3.5, "coordinates": {"latitude": 40.78065, "longitude": -73.94698}, "transactions": ["pickup", "delivery"], "price": "$", "location": {"address1": "1777 1st Ave", "address2": "", "address3": "", "city": "New York", "zip_code": "10128", "country": "US", "state": "NY", "display_address": ["1777 1st Ave", "New York, NY 10128"]}, "phone": "+12128287688", "display_phone": "(212) 828-7688", "distance": 3053.266473694096}, {"id": "R1eZIyH8dOECfqUGGcANdQ", "alias": "red-star-restaurant-new-york", "name": "Red Star Restaurant", "image_url": "https://s3-media2.fl.yelpcdn.com/bphoto/TAZfZFjZ7x86BhA3rWeVZA/o.jpg", "is_closed": false, "url": "https://www.yelp.com/biz/red-star-restaurant-new-york?adjust_creative=9gNmiWYX8uTbFBeTTvJMdA&utm_campaign=yelp_api_v3&utm_medium=api_v3_business_search&utm_source=9gNmiWYX8uTbFBeTTvJMdA", "review_count": 22, "categories": [{"alias": "chinese", "title": "Chinese"}], "rating": 3.5, "coordinates": {"latitude": 40.7987632751465, "longitude": -73.9426727294922}, "transactions": ["pickup"], "price": "$", "location": {"address1": "112 E 116th St", "address2": "", "address3": "", "city": "New York", "zip_code": "10029", "country": "US", "state": "NY", "display_address": ["112 E 116th St", "New York, NY 10029"]}, "phone": "+12128608883", "display_phone": "(212) 860-8883", "distance": 4963.189684742716}, {"id": "6aOITRm4GrNbAJ9Li1J_yQ", "alias": "sanmiwago-new-york", "name": "Sanmiwago", "image_url": "https://s3-media1.fl.yelpcdn.com/bphoto/TyTcGmWu9nmHdaG1NbvEPA/o.jpg", "is_closed": false, "url": "https://www.yelp.com/biz/sanmiwago-new-york?adjust_creative=9gNmiWYX8uTbFBeTTvJMdA&utm_campaign=yelp_api_v3&utm_medium=api_v3_business_search&utm_source=9gNmiWYX8uTbFBeTTvJMdA", "review_count": 38, "categories": [{"alias": "chinese", "title": "Chinese"}, {"alias": "taiwanese", "title": "Taiwanese"}], "rating": 4.5, "coordinates": {"latitude": 40.71718663968627, "longitude": -73.9972861}, "transactions": [], "location": {"address1": "98 Mott St", "address2": "Ste 3", "address3": "", "city": "New York", "zip_code": "10013", "country": "US", "state": "NY", "display_address": ["98 Mott St", "Ste 3", "New York, NY 10013"]}, "phone": "+16464848888", "display_phone": "(646) 484-8888", "distance": 5220.109042243705}, {"id": "bVEvRibOk3dukWJ8TiU7GQ", "alias": "taste-of-china-astoria", "name": "Taste of China", "image_url": "https://s3-media1.fl.yelpcdn.com/bphoto/lpKmgAzJPGV0U7wWMoOb7w/o.jpg", "is_closed": false, "url": "https://www.yelp.com/biz/taste-of-china-astoria?adjust_creative=9gNmiWYX8uTbFBeTTvJMdA&utm_campaign=yelp_api_v3&utm_medium=api_v3_business_search&utm_source=9gNmiWYX8uTbFBeTTvJMdA", "review_count": 40, "categories": [{"alias": "chinese", "title": "Chinese"}], "rating": 3.5, "coordinates": {"latitude": 40.7571451223932, "longitude": -73.9148019297323}, "transactions": ["pickup", "delivery"], "price": "$", "location": {"address1": "4501 Broadway", "address2": "", "address3": "", "city": "Astoria", "zip_code": "11103", "country": "US", "state": "NY", "display_address": ["4501 Broadway", "Astoria, NY 11103"]}, "phone": "+17187281614", "display_phone": "(718) 728-1614", "distance": 4618.799039025833}, {"id": "a-hVnSTC12MY5L3t9yOSJw", "alias": "eastern-chinese-restaurant-long-island-city", "name": "Eastern Chinese Restaurant", "image_url": "https://s3-media2.fl.yelpcdn.com/bphoto/wwv8uGMmPUCmepo7qbYChg/o.jpg", "is_closed": false, "url": "https://www.yelp.com/biz/eastern-chinese-restaurant-long-island-city?adjust_creative=9gNmiWYX8uTbFBeTTvJMdA&utm_campaign=yelp_api_v3&utm_medium=api_v3_business_search&utm_source=9gNmiWYX8uTbFBeTTvJMdA", "review_count": 31, "categories": [{"alias": "chinese", "title": "Chinese"}], "rating": 3.0, "coordinates": {"latitude": 40.7656686822612, "longitude": -73.9307687804103}, "transactions": ["pickup", "delivery"], "price": "$", "location": {"address1": "2105 Broadway", "address2": "", "address3": "Broadway Shopping Ctr", "city": "Long Island City", "zip_code": "11106", "country": "US", "state": "NY", "display_address": ["2105 Broadway", "Broadway Shopping Ctr", "Long Island City, NY 11106"]}, "phone": "+17182787333", "display_phone": "(718) 278-7333", "distance": 3347.0545584163633}, {"id": "DY0y0KPwu8LnQteNB-uoAQ", "alias": "amaze-new-york", "name": "Amaze", "image_url": "https://s3-media1.fl.yelpcdn.com/bphoto/ct7SAtAdWU-2Z8dnPoZLlQ/o.jpg", "is_closed": false, "url": "https://www.yelp.com/biz/amaze-new-york?adjust_creative=9gNmiWYX8uTbFBeTTvJMdA&utm_campaign=yelp_api_v3&utm_medium=api_v3_business_search&utm_source=9gNmiWYX8uTbFBeTTvJMdA", "review_count": 279, "categories": [{"alias": "lounges", "title": "Lounges"}, {"alias": "asianfusion", "title": "Asian Fusion"}, {"alias": "pubs", "title": "Pubs"}], "rating": 3.0, "coordinates": {"latitude": 40.7519302, "longitude": -73.9739609}, "transactions": ["pickup", "delivery"], "price": "$$", "location": {"address1": "694 3rd Ave", "address2": "", "address3": "", "city": "New York", "zip_code": "10017", "country": "US", "state": "NY", "display_address": ["694 3rd Ave", "New York, NY 10017"]}, "phone": "+12129865555", "display_phone": "(212) 986-5555", "distance": 886.9857861462277}, {"id": "gqUR7hd3NsxOD_JrD-iFfQ", "alias": "traditional-chinese-food-cart-new-york-2", "name": "Traditional Chinese Food Cart", "image_url": "https://s3-media2.fl.yelpcdn.com/bphoto/ZdQxdRa6otKp1hmuU91XgA/o.jpg", "is_closed": false, "url": "https://www.yelp.com/biz/traditional-chinese-food-cart-new-york-2?adjust_creative=9gNmiWYX8uTbFBeTTvJMdA&utm_campaign=yelp_api_v3&utm_medium=api_v3_business_search&utm_source=9gNmiWYX8uTbFBeTTvJMdA", "review_count": 8, "categories": [{"alias": "chinese", "title": "Chinese"}], "rating": 4.5, "coordinates": {"latitude": 40.7293724, "longitude": -73.995937}, "transactions": [], "location": {"address1": "35 W 4th St", "address2": "", "address3": "", "city": "New York", "zip_code": "10014", "country": "US", "state": "NY", "display_address": ["35 W 4th St", "New York, NY 10014"]}, "phone": "", "display_phone": "", "distance": 3989.2677638143905}, {"id": "Em1w7fCeJqcZUBRS_QuTEg", "alias": "hardees-brooklyn", "name": "Hardee's", "image_url": "https://s3-media1.fl.yelpcdn.com/bphoto/Yn9Ts-_fYpNT55KQ0OXz9w/o.jpg", "is_closed": false, "url": "https://www.yelp.com/biz/hardees-brooklyn?adjust_creative=9gNmiWYX8uTbFBeTTvJMdA&utm_campaign=yelp_api_v3&utm_medium=api_v3_business_search&utm_source=9gNmiWYX8uTbFBeTTvJMdA", "review_count": 8, "categories": [{"alias": "hotdogs", "title": "Fast Food"}, {"alias": "chinese", "title": "Chinese"}], "rating": 4.0, "coordinates": {"latitude": 40.692907422781, "longitude": -73.9718820154667}, "transactions": [], "location": {"address1": "154 Adelphi St", "address2": "", "address3": "", "city": "Brooklyn", "zip_code": "11205", "country": "US", "state": "NY", "display_address": ["154 Adelphi St", "Brooklyn, NY 11205"]}, "phone": "", "display_phone": "", "distance": 7349.424246141285}, {"id": "TWI3efEcCVsTErKFWz4Zqg", "alias": "nom-wah-nolita-new-york", "name": "Nom Wah Nolita", "image_url": "https://s3-media3.fl.yelpcdn.com/bphoto/VOfL5RCnk8dtdb8SyfXy7Q/o.jpg", "is_closed": false, "url": "https://www.yelp.com/biz/nom-wah-nolita-new-york?adjust_creative=9gNmiWYX8uTbFBeTTvJMdA&utm_campaign=yelp_api_v3&utm_medium=api_v3_business_search&utm_source=9gNmiWYX8uTbFBeTTvJMdA", "review_count": 235, "categories": [{"alias": "dimsum", "title": "Dim Sum"}, {"alias": "cantonese", "title": "Cantonese"}], "rating": 3.5, "coordinates": {"latitude": 40.7204154878855, "longitude": -73.9944789558649}, "transactions": ["pickup", "delivery"], "price": "$$", "location": {"address1": "10 Kenmare St", "address2": null, "address3": "", "city": "New York", "zip_code": "10012", "country": "US", "state": "NY", "display_address": ["10 Kenmare St", "New York, NY 10012"]}, "phone": "+16464788242", "display_phone": "(646) 478-8242", "distance": 4803.952821879166}, {"id": "7yi9uA-LmrGpG6OOuK2byg", "alias": "hong-kong-chinese-restaurant-ridgewood", "name": "Hong Kong Chinese Restaurant", "image_url": "https://s3-media4.fl.yelpcdn.com/bphoto/kvBZu1NY_dflrBrF3P90uw/o.jpg", "is_closed": false, "url": "https://www.yelp.com/biz/hong-kong-chinese-restaurant-ridgewood?adjust_creative=9gNmiWYX8uTbFBeTTvJMdA&utm_campaign=yelp_api_v3&utm_medium=api_v3_business_search&utm_source=9gNmiWYX8uTbFBeTTvJMdA", "review_count": 29, "categories": [{"alias": "chinese", "title": "Chinese"}], "rating": 3.5, "coordinates": {"latitude": 40.710983, "longitude": -73.904869}, "transactions": [], "price": "$", "location": {"address1": "6297 Forest Ave", "address2": "", "address3": "", "city": "Ridgewood", "zip_code": "11385", "country": "US", "state": "NY", "display_address": ["6297 Forest Ave", "Ridgewood, NY 11385"]}, "phone": "+17186280888", "display_phone": "(718) 628-0888", "distance": 7645.442727337703}, {"id": "g42C_GsiLWzbVY2OZQsoyw", "alias": "ho-may-kitchen-brooklyn", "name": "Ho May Kitchen", "image_url": "https://s3-media3.fl.yelpcdn.com/bphoto/pajAW32f1ivAM21av3r_Gw/o.jpg", "is_closed": false, "url": "https://www.yelp.com/biz/ho-may-kitchen-brooklyn?adjust_creative=9gNmiWYX8uTbFBeTTvJMdA&utm_campaign=yelp_api_v3&utm_medium=api_v3_business_search&utm_source=9gNmiWYX8uTbFBeTTvJMdA", "review_count": 15, "categories": [{"alias": "chinese", "title": "Chinese"}], "rating": 4.0, "coordinates": {"latitude": 40.7186, "longitude": -73.94072}, "transactions": ["delivery"], "location": {"address1": "100 Woodpoint Rd", "address2": "", "address3": "", "city": "Brooklyn", "zip_code": "11211", "country": "US", "state": "NY", "display_address": ["100 Woodpoint Rd", "Brooklyn, NY 11211"]}, "phone": "+17183899788", "display_phone": "(718) 389-9788", "distance": 5121.793305710997}, {"id": "zPK48x2wvTmJTQ_13bbeRQ", "alias": "hong-kong-cafe-brooklyn", "name": "Hong Kong Cafe", "image_url": "https://s3-media3.fl.yelpcdn.com/bphoto/1VHgxZ-Ve0JPx-6FLeuOUg/o.jpg", "is_closed": false, "url": "https://www.yelp.com/biz/hong-kong-cafe-brooklyn?adjust_creative=9gNmiWYX8uTbFBeTTvJMdA&utm_campaign=yelp_api_v3&utm_medium=api_v3_business_search&utm_source=9gNmiWYX8uTbFBeTTvJMdA", "review_count": 51, "categories": [{"alias": "chinese", "title": "Chinese"}], "rating": 4.0, "coordinates": {"latitude": 40.687267, "longitude": -73.95667}, "transactions": ["pickup", "delivery"], "price": "$", "location": {"address1": "357 Franklin Ave", "address2": "", "address3": "", "city": "Brooklyn", "zip_code": "11238", "country": "US", "state": "NY", "display_address": ["357 Franklin Ave", "Brooklyn, NY 11238"]}, "phone": "+17187833838", "display_phone": "(718) 783-3838", "distance": 8069.3705531172145}, {"id": "CsRZKzk0ZJjsBi3y0vDaiw", "alias": "vanessas-dumpling-house-new-york-10", "name": "Vanessa's Dumpling House", "image_url": "https://s3-media3.fl.yelpcdn.com/bphoto/d2lHCBOIJ4cx7VfomcgofQ/o.jpg", "is_closed": false, "url": "https://www.yelp.com/biz/vanessas-dumpling-house-new-york-10?adjust_creative=9gNmiWYX8uTbFBeTTvJMdA&utm_campaign=yelp_api_v3&utm_medium=api_v3_business_search&utm_source=9gNmiWYX8uTbFBeTTvJMdA", "review_count": 8, "categories": [{"alias": "chinese", "title": "Chinese"}], "rating": 3.5, "coordinates": {"latitude": 40.77686037076055, "longitude": -73.95270992070436}, "transactions": [], "location": {"address1": "1623 2nd Ave", "address2": "", "address3": null, "city": "New York", "zip_code": "10028", "country": "US", "state": "NY", "display_address": ["1623 2nd Ave", "New York, NY 10028"]}, "phone": "", "display_phone": "", "distance": 2425.7564998931994}, {"id": "UNLfH42wkAAChV76hmbdkg", "alias": "eight-jane-food-\u79c0\u516b\u73cd\u5364\u5473-flushing", "name": "Eight Jane Food \u79c0\u516b\u73cd\u5364\u5473", "image_url": "https://s3-media3.fl.yelpcdn.com/bphoto/Qocf6y8mZKW3CQXhqRuSmA/o.jpg", "is_closed": false, "url": "https://www.yelp.com/biz/eight-jane-food-%E7%A7%80%E5%85%AB%E7%8F%8D%E5%8D%A4%E5%91%B3-flushing?adjust_creative=9gNmiWYX8uTbFBeTTvJMdA&utm_campaign=yelp_api_v3&utm_medium=api_v3_business_search&utm_source=9gNmiWYX8uTbFBeTTvJMdA", "review_count": 87, "categories": [{"alias": "chinese", "title": "Chinese"}, {"alias": "streetvendors", "title": "Street Vendors"}], "rating": 4.5, "coordinates": {"latitude": 40.7611559832951, "longitude": -73.8310919214537}, "transactions": [], "location": {"address1": "37-12 Main St", "address2": "", "address3": null, "city": "Flushing", "zip_code": "11354", "country": "US", "state": "NY", "display_address": ["37-12 Main St", "Flushing, NY 11354"]}, "phone": "+19176095898", "display_phone": "(917) 609-5898", "distance": 11665.648531154202}, {"id": "2VQDEQuK3xLFNktPBIpmuQ", "alias": "new-aroma-chinese-restaurant-new-york", "name": "New Aroma Chinese Restaurant", "image_url": "https://s3-media2.fl.yelpcdn.com/bphoto/9-oe4px6s3yMb-ozCM3H-Q/o.jpg", "is_closed": false, "url": "https://www.yelp.com/biz/new-aroma-chinese-restaurant-new-york?adjust_creative=9gNmiWYX8uTbFBeTTvJMdA&utm_campaign=yelp_api_v3&utm_medium=api_v3_business_search&utm_source=9gNmiWYX8uTbFBeTTvJMdA", "review_count": 30, "categories": [{"alias": "chinese", "title": "Chinese"}], "rating": 3.5, "coordinates": {"latitude": 40.8132171630859, "longitude": -73.9557037353516}, "transactions": ["delivery"], "price": "$", "location": {"address1": "465 W 125th St", "address2": "", "address3": "", "city": "New York", "zip_code": "10027", "country": "US", "state": "NY", "display_address": ["465 W 125th St", "New York, NY 10027"]}, "phone": "+12129328706", "display_phone": "(212) 932-8706", "distance": 6120.997313097659}, {"id": "OpOwJYqJRgRnoBKKPYwdTQ", "alias": "double-dragon-new-york-3", "name": "Double Dragon", "image_url": "https://s3-media4.fl.yelpcdn.com/bphoto/Veoqv_CMeWY2yp82euC9iQ/o.jpg", "is_closed": false, "url": "https://www.yelp.com/biz/double-dragon-new-york-3?adjust_creative=9gNmiWYX8uTbFBeTTvJMdA&utm_campaign=yelp_api_v3&utm_medium=api_v3_business_search&utm_source=9gNmiWYX8uTbFBeTTvJMdA", "review_count": 5, "categories": [{"alias": "chinese", "title": "Chinese"}], "rating": 3.0, "coordinates": {"latitude": 40.78919, "longitude": -73.94061}, "transactions": ["pickup", "delivery"], "location": {"address1": "2037 1st Ave", "address2": "", "address3": "", "city": "New York", "zip_code": "10029", "country": "US", "state": "NY", "display_address": ["2037 1st Ave", "New York, NY 10029"]}, "phone": "+12125346399", "display_phone": "(212) 534-6399", "distance": 4136.805536425377}, {"id": "jLhKLKuNPMTzAMJgEY5DsQ", "alias": "monarch-restaurant-brooklyn", "name": "Monarch Restaurant", "image_url": "https://s3-media2.fl.yelpcdn.com/bphoto/uUpaXi0VyfQ92QXBEyTRYw/o.jpg", "is_closed": false, "url": "https://www.yelp.com/biz/monarch-restaurant-brooklyn?adjust_creative=9gNmiWYX8uTbFBeTTvJMdA&utm_campaign=yelp_api_v3&utm_medium=api_v3_business_search&utm_source=9gNmiWYX8uTbFBeTTvJMdA", "review_count": 112, "categories": [{"alias": "panasian", "title": "Pan Asian"}, {"alias": "cocktailbars", "title": "Cocktail Bars"}, {"alias": "breakfast_brunch", "title": "Breakfast & Brunch"}], "rating": 4.5, "coordinates": {"latitude": 40.715895, "longitude": -73.962271}, "transactions": ["pickup", "delivery"], "price": "$$", "location": {"address1": "146 Metropolitan Ave", "address2": "", "address3": null, "city": "Brooklyn", "zip_code": "11249", "country": "US", "state": "NY", "display_address": ["146 Metropolitan Ave", "Brooklyn, NY 11249"]}, "phone": "+19179091596", "display_phone": "(917) 909-1596", "distance": 4850.045033117468}, {"id": "wVZmnDlPDdVHI01_XLfBXQ", "alias": "beijing-hot-pot-rutherford-3", "name": "Beijing Hot Pot", "image_url": "https://s3-media1.fl.yelpcdn.com/bphoto/Zf3rHQJr5nfvg9sAfmi6lA/o.jpg", "is_closed": false, "url": "https://www.yelp.com/biz/beijing-hot-pot-rutherford-3?adjust_creative=9gNmiWYX8uTbFBeTTvJMdA&utm_campaign=yelp_api_v3&utm_medium=api_v3_business_search&utm_source=9gNmiWYX8uTbFBeTTvJMdA", "review_count": 64, "categories": [{"alias": "hotpot", "title": "Hot Pot"}, {"alias": "chinese", "title": "Chinese"}], "rating": 4.0, "coordinates": {"latitude": 40.827236, "longitude": -74.1036817}, "transactions": ["pickup", "delivery"], "price": "$$", "location": {"address1": "12 Sylvan St", "address2": null, "address3": "", "city": "Rutherford", "zip_code": "07070", "country": "US", "state": "NJ", "display_address": ["12 Sylvan St", "Rutherford, NJ 07070"]}, "phone": "+12019352868", "display_phone": "(201) 935-2868", "distance": 13591.502186839507}, {"id": "uAggq823dP2HqFUeqpQnNw", "alias": "yummy-malatang-new-york", "name": "Yummy Malatang", "image_url": "https://s3-media1.fl.yelpcdn.com/bphoto/gi5hN_Ur_C7x8GP-p_tDbA/o.jpg", "is_closed": false, "url": "https://www.yelp.com/biz/yummy-malatang-new-york?adjust_creative=9gNmiWYX8uTbFBeTTvJMdA&utm_campaign=yelp_api_v3&utm_medium=api_v3_business_search&utm_source=9gNmiWYX8uTbFBeTTvJMdA", "review_count": 15, "categories": [{"alias": "panasian", "title": "Pan Asian"}, {"alias": "chinese", "title": "Chinese"}], "rating": 2.0, "coordinates": {"latitude": 40.755702, "longitude": -73.9912808}, "transactions": ["pickup", "delivery"], "location": {"address1": "805 8th Ave", "address2": "", "address3": null, "city": "New York", "zip_code": "10018", "country": "US", "state": "NY", "display_address": ["805 8th Ave", "New York, NY 10018"]}, "phone": "", "display_phone": "", "distance": 1868.652418764251}, {"id": "AJKcsxpc9IthvhdEnfqogg", "alias": "good-chinese-restaurant-brooklyn-3", "name": "Good Chinese Restaurant", "image_url": "https://s3-media3.fl.yelpcdn.com/bphoto/uxsKYRrs-J8WzbnrnyJjZQ/o.jpg", "is_closed": false, "url": "https://www.yelp.com/biz/good-chinese-restaurant-brooklyn-3?adjust_creative=9gNmiWYX8uTbFBeTTvJMdA&utm_campaign=yelp_api_v3&utm_medium=api_v3_business_search&utm_source=9gNmiWYX8uTbFBeTTvJMdA", "review_count": 206, "categories": [{"alias": "chinese", "title": "Chinese"}], "rating": 4.0, "coordinates": {"latitude": 40.6951122106303, "longitude": -73.9116479761463}, "transactions": ["pickup", "delivery"], "price": "$", "location": {"address1": "663 Knickerbocker Ave", "address2": "", "address3": "", "city": "Brooklyn", "zip_code": "11221", "country": "US", "state": "NY", "display_address": ["663 Knickerbocker Ave", "Brooklyn, NY 11221"]}, "phone": "+17183667829", "display_phone": "(718) 366-7829", "distance": 8635.347527028747}, {"id": "N9QzfD5sbkbnfdJk227L7g", "alias": "u-n-restaurant-new-york", "name": "U N Restaurant", "image_url": "https://s3-media2.fl.yelpcdn.com/bphoto/9CP86swuW3W5DzhciY8KfA/o.jpg", "is_closed": false, "url": "https://www.yelp.com/biz/u-n-restaurant-new-york?adjust_creative=9gNmiWYX8uTbFBeTTvJMdA&utm_campaign=yelp_api_v3&utm_medium=api_v3_business_search&utm_source=9gNmiWYX8uTbFBeTTvJMdA", "review_count": 6, "categories": [{"alias": "chinese", "title": "Chinese"}, {"alias": "noodles", "title": "Noodles"}, {"alias": "japanese", "title": "Japanese"}], "rating": 2.0, "coordinates": {"latitude": 40.7533771406699, "longitude": -73.9669233695786}, "transactions": ["pickup", "delivery"], "location": {"address1": "875 1st Ave", "address2": "", "address3": null, "city": "New York", "zip_code": "10017", "country": "US", "state": "NY", "display_address": ["875 1st Ave", "New York, NY 10017"]}, "phone": "+12128886103", "display_phone": "(212) 888-6103", "distance": 682.2242239919716}, {"id": "XGn1UkkUAGkwRHnegq6Xig", "alias": "china-spice-jersey-city-3", "name": "China Spice", "image_url": "https://s3-media2.fl.yelpcdn.com/bphoto/-kmkXWbAPidjxXzyGrGgmw/o.jpg", "is_closed": false, "url": "https://www.yelp.com/biz/china-spice-jersey-city-3?adjust_creative=9gNmiWYX8uTbFBeTTvJMdA&utm_campaign=yelp_api_v3&utm_medium=api_v3_business_search&utm_source=9gNmiWYX8uTbFBeTTvJMdA", "review_count": 57, "categories": [{"alias": "chinese", "title": "Chinese"}], "rating": 2.5, "coordinates": {"latitude": 40.7352069, "longitude": -74.0671543}, "transactions": ["pickup", "delivery"], "price": "$$", "location": {"address1": "117 Tonnelle Ave", "address2": "", "address3": "", "city": "Jersey City", "zip_code": "07306", "country": "US", "state": "NJ", "display_address": ["117 Tonnelle Ave", "Jersey City, NJ 07306"]}, "phone": "+12016537742", "display_phone": "(201) 653-7742", "distance": 8646.379865917897}, {"id": "1oBUB-3_kCYDsggJqWq_GA", "alias": "first-wok-north-bergen", "name": "First Wok", "image_url": "https://s3-media1.fl.yelpcdn.com/bphoto/rePxDmpmtCz-5bTOWlv-8w/o.jpg", "is_closed": false, "url": "https://www.yelp.com/biz/first-wok-north-bergen?adjust_creative=9gNmiWYX8uTbFBeTTvJMdA&utm_campaign=yelp_api_v3&utm_medium=api_v3_business_search&utm_source=9gNmiWYX8uTbFBeTTvJMdA", "review_count": 45, "categories": [{"alias": "chinese", "title": "Chinese"}], "rating": 2.5, "coordinates": {"latitude": 40.7727099, "longitude": -74.04002}, "transactions": ["pickup", "delivery"], "price": "$", "location": {"address1": "2608 Paterson Plank Rd", "address2": null, "address3": null, "city": "North Bergen", "zip_code": "07047", "country": "US", "state": "NJ", "display_address": ["2608 Paterson Plank Rd", "North Bergen, NJ 07047"]}, "phone": "+12018674222", "display_phone": "(201) 867-4222", "distance": 6134.794624583185}, {"id": "vdu9-vHCpcZ4wZWzQ0xtGA", "alias": "wok-bar-fort-lee", "name": "Wok Bar", "image_url": "https://s3-media4.fl.yelpcdn.com/bphoto/zETiEEilk4DHqWTZdVx7MQ/o.jpg", "is_closed": false, "url": "https://www.yelp.com/biz/wok-bar-fort-lee?adjust_creative=9gNmiWYX8uTbFBeTTvJMdA&utm_campaign=yelp_api_v3&utm_medium=api_v3_business_search&utm_source=9gNmiWYX8uTbFBeTTvJMdA", "review_count": 127, "categories": [{"alias": "szechuan", "title": "Szechuan"}, {"alias": "hotpot", "title": "Hot Pot"}], "rating": 4.0, "coordinates": {"latitude": 40.85097, "longitude": -73.97005}, "transactions": ["pickup", "delivery"], "price": "$$", "location": {"address1": "200 Main St", "address2": "Ste 9", "address3": null, "city": "Fort Lee", "zip_code": "07024", "country": "US", "state": "NJ", "display_address": ["200 Main St", "Ste 9", "Fort Lee, NJ 07024"]}, "phone": "+12014614654", "display_phone": "(201) 461-4654", "distance": 10210.743380513031}, {"id": "R070R6r0WdmdREd3DT0Omg", "alias": "the-flying-dragon-bronx", "name": "The Flying Dragon", "image_url": "", "is_closed": false, "url": "https://www.yelp.com/biz/the-flying-dragon-bronx?adjust_creative=9gNmiWYX8uTbFBeTTvJMdA&utm_campaign=yelp_api_v3&utm_medium=api_v3_business_search&utm_source=9gNmiWYX8uTbFBeTTvJMdA", "review_count": 1, "categories": [{"alias": "chinese", "title": "Chinese"}], "rating": 1.0, "coordinates": {"latitude": 40.82897, "longitude": -73.87462}, "transactions": ["delivery"], "location": {"address1": "1183 Morrison Ave", "address2": "", "address3": "", "city": "Bronx", "zip_code": "10472", "country": "US", "state": "NY", "display_address": ["1183 Morrison Ave", "Bronx, NY 10472"]}, "phone": "+17189914530", "display_phone": "(718) 991-4530", "distance": 11135.27267060868}, {"id": "entLjafiBAYOvbJYHRvyrw", "alias": "yang-garden-new-york", "name": "Yang Garden", "image_url": "https://s3-media1.fl.yelpcdn.com/bphoto/Dk4xkxLqV3OBoaB-Kr1gWw/o.jpg", "is_closed": false, "url": "https://www.yelp.com/biz/yang-garden-new-york?adjust_creative=9gNmiWYX8uTbFBeTTvJMdA&utm_campaign=yelp_api_v3&utm_medium=api_v3_business_search&utm_source=9gNmiWYX8uTbFBeTTvJMdA", "review_count": 23, "categories": [{"alias": "chinese", "title": "Chinese"}, {"alias": "soup", "title": "Soup"}, {"alias": "sandwiches", "title": "Sandwiches"}], "rating": 3.5, "coordinates": {"latitude": 40.855266, "longitude": -73.937759}, "transactions": ["pickup", "delivery"], "price": "$", "location": {"address1": "816 W 187th St", "address2": "", "address3": "", "city": "New York", "zip_code": "10033", "country": "US", "state": "NY", "display_address": ["816 W 187th St", "New York, NY 10033"]}, "phone": "+12127810055", "display_phone": "(212) 781-0055", "distance": 11015.268638936817}, {"id": "PRQyJoum--REZ-yeEidyBg", "alias": "soba-noodle-azuma-fort-lee-2", "name": "Soba Noodle Azuma", "image_url": "https://s3-media1.fl.yelpcdn.com/bphoto/rEgKpGCMusAPLtPFhTeV5g/o.jpg", "is_closed": false, "url": "https://www.yelp.com/biz/soba-noodle-azuma-fort-lee-2?adjust_creative=9gNmiWYX8uTbFBeTTvJMdA&utm_campaign=yelp_api_v3&utm_medium=api_v3_business_search&utm_source=9gNmiWYX8uTbFBeTTvJMdA", "review_count": 417, "categories": [{"alias": "japanese", "title": "Japanese"}, {"alias": "noodles", "title": "Noodles"}], "rating": 4.0, "coordinates": {"latitude": 40.85172, "longitude": -73.97219}, "transactions": ["pickup", "delivery"], "price": "$$", "location": {"address1": "246 Main St", "address2": "", "address3": "", "city": "Fort Lee", "zip_code": "07024", "country": "US", "state": "NJ", "display_address": ["246 Main St", "Fort Lee, NJ 07024"]}, "phone": "+12015851319", "display_phone": "(201) 585-1319", "distance": 10290.91825118861}, {"id": "VQ5YGa4L4AT3ugF61hM9qQ", "alias": "zongzi-lady-new-york", "name": "Zongzi lady", "image_url": "https://s3-media3.fl.yelpcdn.com/bphoto/H6X45RPAOKDnp5-1DmFUMg/o.jpg", "is_closed": false, "url": "https://www.yelp.com/biz/zongzi-lady-new-york?adjust_creative=9gNmiWYX8uTbFBeTTvJMdA&utm_campaign=yelp_api_v3&utm_medium=api_v3_business_search&utm_source=9gNmiWYX8uTbFBeTTvJMdA", "review_count": 77, "categories": [{"alias": "streetvendors", "title": "Street Vendors"}, {"alias": "chinese", "title": "Chinese"}], "rating": 5.0, "coordinates": {"latitude": 40.7181661, "longitude": -73.9938466}, "transactions": [], "price": "$", "location": {"address1": "Chrystie St Grand St", "address2": "", "address3": "", "city": "New York", "zip_code": "10002", "country": "US", "state": "NY", "display_address": ["Chrystie St Grand St", "New York, NY 10002"]}, "phone": "", "display_phone": "", "distance": 4997.514145298655}], "total": 3300, "region": {"center": {"longitude": -73.96957397460938, "latitude": 40.75917470627005}}}