{"businesses": [{"id": "KUW8hx5kinOT_XJj3ttCDQ", "alias": "go-noodle-nine-moon-new-york", "name": "Go Noodle Nine Moon", "image_url": "https://s3-media2.fl.yelpcdn.com/bphoto/-MLTieBHNAmi9CVNyHeeSg/o.jpg", "is_closed": false, "url": "https://www.yelp.com/biz/go-noodle-nine-moon-new-york?adjust_creative=9gNmiWYX8uTbFBeTTvJMdA&utm_campaign=yelp_api_v3&utm_medium=api_v3_business_search&utm_source=9gNmiWYX8uTbFBeTTvJMdA", "review_count": 71, "categories": [{"alias": "chinese", "title": "Chinese"}, {"alias": "noodles", "title": "Noodles"}, {"alias": "soup", "title": "Soup"}], "rating": 3.5, "coordinates": {"latitude": 40.75932, "longitude": -73.96254}, "transactions": ["delivery", "pickup"], "price": "$", "location": {"address1": "1069 1st Ave", "address2": "", "address3": "", "city": "New York", "zip_code": "10022", "country": "US", "state": "NY", "display_address": ["1069 1st Ave", "New York, NY 10022"]}, "phone": "+12128886366", "display_phone": "(212) 888-6366", "distance": 595.8515776215432}, {"id": "8SA_ZTKNo6TdD65u8ppRGQ", "alias": "panda-house-new-york-2", "name": "Panda House", "image_url": "https://s3-media2.fl.yelpcdn.com/bphoto/HaFBKGMBgIVaoJXE8fZkmg/o.jpg", "is_closed": false, "url": "https://www.yelp.com/biz/panda-house-new-york-2?adjust_creative=9gNmiWYX8uTbFBeTTvJMdA&utm_campaign=yelp_api_v3&utm_medium=api_v3_business_search&utm_source=9gNmiWYX8uTbFBeTTvJMdA", "review_count": 28, "categories": [{"alias": "chinese", "title": "Chinese"}], "rating": 3.5, "coordinates": {"latitude": 40.86055, "longitude": -73.92815}, "transactions": ["delivery", "pickup"], "price": "$", "location": {"address1": "82 Nagle Ave", "address2": "", "address3": "", "city": "New York", "zip_code": "10040", "country": "US", "state": "NY", "display_address": ["82 Nagle Ave", "New York, NY 10040"]}, "phone": "+12125695200", "display_phone": "(212) 569-5200", "distance": 11805.234035435275}, {"id": "P8-7w1GFnZMV5hCvgXwkHg", "alias": "cbao-asian-buns-and-bubble-tea-new-york-2", "name": "CBao Asian Buns and Bubble Tea", "image_url": "https://s3-media2.fl.yelpcdn.com/bphoto/SE7xZD_144YCrqPqtMrmSg/o.jpg", "is_closed": false, "url": "https://www.yelp.com/biz/cbao-asian-buns-and-bubble-tea-new-york-2?adjust_creative=9gNmiWYX8uTbFBeTTvJMdA&utm_campaign=yelp_api_v3&utm_medium=api_v3_business_search&utm_source=9gNmiWYX8uTbFBeTTvJMdA", "review_count": 16, "categories": [{"alias": "taiwanese", "title": "Taiwanese"}], "rating": 3.5, "coordinates": {"latitude": 40.751722, "longitude": -73.920644}, "transactions": [], "location": {"address1": "42nd St and 43rd St", "address2": "", "address3": null, "city": "New York", "zip_code": "11104", "country": "US", "state": "NY", "display_address": ["42nd St and 43rd St", "New York, NY 11104"]}, "phone": "+13474588898", "display_phone": "(347) 458-8898", "distance": 4203.880124320484}, {"id": "jB1V38PMXtWbOzg4j0deFQ", "alias": "lees-hawaiian-islander-lyndhurst", "name": "Lees Hawaiian Islander", "image_url": "https://s3-media4.fl.yelpcdn.com/bphoto/_whXR4vkT7hDF0-5N00aFA/o.jpg", "is_closed": false, "url": "https://www.yelp.com/biz/lees-hawaiian-islander-lyndhurst?adjust_creative=9gNmiWYX8uTbFBeTTvJMdA&utm_campaign=yelp_api_v3&utm_medium=api_v3_business_search&utm_source=9gNmiWYX8uTbFBeTTvJMdA", "review_count": 230, "categories": [{"alias": "asianfusion", "title": "Asian Fusion"}, {"alias": "chinese", "title": "Chinese"}, {"alias": "hawaiian", "title": "Hawaiian"}], "rating": 3.5, "coordinates": {"latitude": 40.804107, "longitude": -74.134033}, "transactions": ["delivery"], "price": "$$", "location": {"address1": "768 Stuyvesant Ave", "address2": "", "address3": "", "city": "Lyndhurst", "zip_code": "07071", "country": "US", "state": "NJ", "display_address": ["768 Stuyvesant Ave", "Lyndhurst, NJ 07071"]}, "phone": "+12019393777", "display_phone": "(201) 939-3777", "distance": 14736.220271300814}, {"id": "PRd1P_8glLwB5cNO-hFEcw", "alias": "china-wok-new-york-2", "name": "China Wok", "image_url": "https://s3-media2.fl.yelpcdn.com/bphoto/jUif5atUnDl_Dq5k3kggIQ/o.jpg", "is_closed": false, "url": "https://www.yelp.com/biz/china-wok-new-york-2?adjust_creative=9gNmiWYX8uTbFBeTTvJMdA&utm_campaign=yelp_api_v3&utm_medium=api_v3_business_search&utm_source=9gNmiWYX8uTbFBeTTvJMdA", "review_count": 19, "categories": [{"alias": "chinese", "title": "Chinese"}], "rating": 4.0, "coordinates": {"latitude": 40.8124997466803, "longitude": -73.9418902248144}, "transactions": [], "price": "$", "location": {"address1": "454-A Lenox Ave", "address2": "", "address3": "", "city": "New York", "zip_code": "10037", "country": "US", "state": "NY", "display_address": ["454-A Lenox Ave", "New York, NY 10037"]}, "phone": "+12122814188", "display_phone": "(212) 281-4188", "distance": 6387.694366050382}, {"id": "TKfUaqizEuC1Qacr3MgmdA", "alias": "new-yummy-restaurant-union-city-2", "name": "New Yummy Restaurant", "image_url": "https://s3-media1.fl.yelpcdn.com/bphoto/DPdDvil7rT6h-cllfD9mdQ/o.jpg", "is_closed": false, "url": "https://www.yelp.com/biz/new-yummy-restaurant-union-city-2?adjust_creative=9gNmiWYX8uTbFBeTTvJMdA&utm_campaign=yelp_api_v3&utm_medium=api_v3_business_search&utm_source=9gNmiWYX8uTbFBeTTvJMdA", "review_count": 25, "categories": [{"alias": "chinese", "title": "Chinese"}, {"alias": "seafood", "title": "Seafood"}, {"alias": "steak", "title": "Steakhouses"}], "rating": 3.0, "coordinates": {"latitude": 40.77942, "longitude": -74.0175299}, "transactions": ["delivery", "pickup"], "location": {"address1": "133 48th St", "address2": "", "address3": "", "city": "Union City", "zip_code": "07087", "country": "US", "state": "NJ", "display_address": ["133 48th St", "Union City, NJ 07087"]}, "phone": "+12018668788", "display_phone": "(201) 866-8788", "distance": 4623.649990600886}, {"id": "khEsiq_isObizKE_RuP3Sw", "alias": "kings-wok-new-york-2", "name": "King's Wok", "image_url": "https://s3-media3.fl.yelpcdn.com/bphoto/Oq1rrPn2YpjjttXSIzcpog/o.jpg", "is_closed": false, "url": "https://www.yelp.com/biz/kings-wok-new-york-2?adjust_creative=9gNmiWYX8uTbFBeTTvJMdA&utm_campaign=yelp_api_v3&utm_medium=api_v3_business_search&utm_source=9gNmiWYX8uTbFBeTTvJMdA", "review_count": 31, "categories": [{"alias": "chinese", "title": "Chinese"}], "rating": 4.0, "coordinates": {"latitude": 40.82762, "longitude": -73.9499}, "transactions": ["delivery", "pickup"], "price": "$", "location": {"address1": "3575 Broadway", "address2": "", "address3": null, "city": "New York", "zip_code": "10031", "country": "US", "state": "NY", "display_address": ["3575 Broadway", "New York, NY 10031"]}, "phone": "+12122810383", "display_phone": "(212) 281-0383", "distance": 7788.75423545863}, {"id": "lnI9toC-uAhBIbtHDMxvcA", "alias": "indika-house-brooklyn", "name": "Indika House", "image_url": "https://s3-media3.fl.yelpcdn.com/bphoto/hFD0a5SaICalC1Z_ROBXCw/o.jpg", "is_closed": false, "url": "https://www.yelp.com/biz/indika-house-brooklyn?adjust_creative=9gNmiWYX8uTbFBeTTvJMdA&utm_campaign=yelp_api_v3&utm_medium=api_v3_business_search&utm_source=9gNmiWYX8uTbFBeTTvJMdA", "review_count": 118, "categories": [{"alias": "indpak", "title": "Indian"}, {"alias": "asianfusion", "title": "Asian Fusion"}], "rating": 4.5, "coordinates": {"latitude": 40.69716, "longitude": -73.9353}, "transactions": ["delivery", "pickup"], "price": "$$", "location": {"address1": "943 Broadway", "address2": null, "address3": "", "city": "Brooklyn", "zip_code": "11206", "country": "US", "state": "NY", "display_address": ["943 Broadway", "Brooklyn, NY 11206"]}, "phone": "+17184843600", "display_phone": "(718) 484-3600", "distance": 7476.539597522628}, {"id": "ApjmgPwYXgrb0JurjQZO4w", "alias": "fortune-cookie-chinese-kitchen-brooklyn", "name": "Fortune Cookie Chinese Kitchen", "image_url": "https://s3-media4.fl.yelpcdn.com/bphoto/5nS0-PJw_FjGLAP5juOl7g/o.jpg", "is_closed": false, "url": "https://www.yelp.com/biz/fortune-cookie-chinese-kitchen-brooklyn?adjust_creative=9gNmiWYX8uTbFBeTTvJMdA&utm_campaign=yelp_api_v3&utm_medium=api_v3_business_search&utm_source=9gNmiWYX8uTbFBeTTvJMdA", "review_count": 49, "categories": [{"alias": "chinese", "title": "Chinese"}], "rating": 3.5, "coordinates": {"latitude": 40.72338, "longitude": -73.9507}, "transactions": ["delivery", "pickup"], "price": "$", "location": {"address1": "611 Manhattan Ave", "address2": "", "address3": "", "city": "Brooklyn", "zip_code": "11222", "country": "US", "state": "NY", "display_address": ["611 Manhattan Ave", "Brooklyn, NY 11222"]}, "phone": "+17183897103", "display_phone": "(718) 389-7103", "distance": 4286.257848482297}, {"id": "Kkz2heNcQYz6dBKJcnBuaw", "alias": "great-wall-chinese-new-york-4", "name": "Great Wall Chinese", "image_url": "https://s3-media4.fl.yelpcdn.com/bphoto/T3ButrHoVJhff1KP-8Zw7w/o.jpg", "is_closed": false, "url": "https://www.yelp.com/biz/great-wall-chinese-new-york-4?adjust_creative=9gNmiWYX8uTbFBeTTvJMdA&utm_campaign=yelp_api_v3&utm_medium=api_v3_business_search&utm_source=9gNmiWYX8uTbFBeTTvJMdA", "review_count": 60, "categories": [{"alias": "chinese", "title": "Chinese"}], "rating": 3.0, "coordinates": {"latitude": 40.85087726895802, "longitude": -73.9385181}, "transactions": ["delivery", "pickup"], "price": "$", "location": {"address1": "800 W 181st", "address2": "", "address3": "", "city": "New York", "zip_code": "10033", "country": "US", "state": "NY", "display_address": ["800 W 181st", "New York, NY 10033"]}, "phone": "+12127959373", "display_phone": "(212) 795-9373", "distance": 10526.545902071624}, {"id": "SW1yjGhC9kuePjUSesJmnQ", "alias": "wei-zhi-jia-us-queens", "name": "Wei Zhi Jia Us", "image_url": "", "is_closed": false, "url": "https://www.yelp.com/biz/wei-zhi-jia-us-queens?adjust_creative=9gNmiWYX8uTbFBeTTvJMdA&utm_campaign=yelp_api_v3&utm_medium=api_v3_business_search&utm_source=9gNmiWYX8uTbFBeTTvJMdA", "review_count": 1, "categories": [{"alias": "chinese", "title": "Chinese"}], "rating": 4.0, "coordinates": {"latitude": 40.71477, "longitude": -73.91317}, "transactions": [], "location": {"address1": "54-02 Flushing Ave", "address2": null, "address3": "", "city": "Queens", "zip_code": "11378", "country": "US", "state": "NY", "display_address": ["54-02 Flushing Ave", "Queens, NY 11378"]}, "phone": "+17184560066", "display_phone": "(718) 456-0066", "distance": 6843.468730493344}, {"id": "NdfAypZmyfJk-nJIPaSx_g", "alias": "red-feather-new-york", "name": "Red Feather", "image_url": "https://s3-media3.fl.yelpcdn.com/bphoto/BMQPwg4j5yKrwno1DKQClg/o.jpg", "is_closed": false, "url": "https://www.yelp.com/biz/red-feather-new-york?adjust_creative=9gNmiWYX8uTbFBeTTvJMdA&utm_campaign=yelp_api_v3&utm_medium=api_v3_business_search&utm_source=9gNmiWYX8uTbFBeTTvJMdA", "review_count": 84, "categories": [{"alias": "asianfusion", "title": "Asian Fusion"}, {"alias": "cocktailbars", "title": "Cocktail Bars"}, {"alias": "breakfast_brunch", "title": "Breakfast & Brunch"}], "rating": 4.5, "coordinates": {"latitude": 40.72975, "longitude": -73.99893}, "transactions": ["delivery", "pickup"], "price": "$$", "location": {"address1": "82 W 3rd St", "address2": null, "address3": "", "city": "New York", "zip_code": "10012", "country": "US", "state": "NY", "display_address": ["82 W 3rd St", "New York, NY 10012"]}, "phone": "+16463604433", "display_phone": "(646) 360-4433", "distance": 4107.00133044915}, {"id": "OXTcpNk9ZXuOxPnjpcSs7w", "alias": "pearl-garden-whitestone", "name": "Pearl Garden", "image_url": "https://s3-media1.fl.yelpcdn.com/bphoto/CdQR6D83UxQ4FPyi-MceUQ/o.jpg", "is_closed": false, "url": "https://www.yelp.com/biz/pearl-garden-whitestone?adjust_creative=9gNmiWYX8uTbFBeTTvJMdA&utm_campaign=yelp_api_v3&utm_medium=api_v3_business_search&utm_source=9gNmiWYX8uTbFBeTTvJMdA", "review_count": 149, "categories": [{"alias": "chinese", "title": "Chinese"}, {"alias": "taiwanese", "title": "Taiwanese"}], "rating": 4.5, "coordinates": {"latitude": 40.786695, "longitude": -73.8219}, "transactions": ["delivery"], "price": "$", "location": {"address1": "14508 14th Ave", "address2": "", "address3": "", "city": "Whitestone", "zip_code": "11357", "country": "US", "state": "NY", "display_address": ["14508 14th Ave", "Whitestone, NY 11357"]}, "phone": "+17187677854", "display_phone": "(718) 767-7854", "distance": 12805.139874441142}, {"id": "DGrFKsyAOotGDJw-JyXsTw", "alias": "double-dragon-restaurant-new-york-2", "name": "Double Dragon Restaurant", "image_url": "https://s3-media2.fl.yelpcdn.com/bphoto/dhFyZDus15062xJmvyyRDA/o.jpg", "is_closed": false, "url": "https://www.yelp.com/biz/double-dragon-restaurant-new-york-2?adjust_creative=9gNmiWYX8uTbFBeTTvJMdA&utm_campaign=yelp_api_v3&utm_medium=api_v3_business_search&utm_source=9gNmiWYX8uTbFBeTTvJMdA", "review_count": 24, "categories": [{"alias": "chinese", "title": "Chinese"}], "rating": 3.0, "coordinates": {"latitude": 40.867191, "longitude": -73.898079}, "transactions": ["delivery", "pickup"], "price": "$", "location": {"address1": "2647 Jerome Ave", "address2": "", "address3": "", "city": "New York", "zip_code": "10468", "country": "US", "state": "NY", "display_address": ["2647 Jerome Ave", "New York, NY 10468"]}, "phone": "+17183675308", "display_phone": "(718) 367-5308", "distance": 13433.536615812893}, {"id": "iheFO5N-JE-hXCWO4USvPg", "alias": "rice-n-fire-new-york", "name": "Rice n Fire", "image_url": "https://s3-media3.fl.yelpcdn.com/bphoto/VUSVDCobaJKn3DEcaj9uoA/o.jpg", "is_closed": false, "url": "https://www.yelp.com/biz/rice-n-fire-new-york?adjust_creative=9gNmiWYX8uTbFBeTTvJMdA&utm_campaign=yelp_api_v3&utm_medium=api_v3_business_search&utm_source=9gNmiWYX8uTbFBeTTvJMdA", "review_count": 1, "categories": [{"alias": "thai", "title": "Thai"}, {"alias": "asianfusion", "title": "Asian Fusion"}], "rating": 4.0, "coordinates": {"latitude": 40.719763, "longitude": -73.988776}, "transactions": ["delivery", "pickup"], "location": {"address1": "123 Ludlow St", "address2": "", "address3": null, "city": "New York", "zip_code": "10002", "country": "US", "state": "NY", "display_address": ["123 Ludlow St", "New York, NY 10002"]}, "phone": "+19172617891", "display_phone": "(917) 261-7891", "distance": 4665.561607693127}, {"id": "n61FbfvTddHBXF5WKWjF4g", "alias": "pad-thai-noodle-lounge-new-york-2", "name": "Pad Thai Noodle Lounge", "image_url": "https://s3-media2.fl.yelpcdn.com/bphoto/i0badHl_FlFpztJ3zmV6mQ/o.jpg", "is_closed": false, "url": "https://www.yelp.com/biz/pad-thai-noodle-lounge-new-york-2?adjust_creative=9gNmiWYX8uTbFBeTTvJMdA&utm_campaign=yelp_api_v3&utm_medium=api_v3_business_search&utm_source=9gNmiWYX8uTbFBeTTvJMdA", "review_count": 346, "categories": [{"alias": "thai", "title": "Thai"}, {"alias": "noodles", "title": "Noodles"}, {"alias": "cocktailbars", "title": "Cocktail Bars"}], "rating": 3.5, "coordinates": {"latitude": 40.7408371121571, "longitude": -74.00145524314277}, "transactions": ["delivery", "pickup"], "price": "$$", "location": {"address1": "114 8th Ave", "address2": "", "address3": "", "city": "New York", "zip_code": "10011", "country": "US", "state": "NY", "display_address": ["114 8th Ave", "New York, NY 10011"]}, "phone": "+12126916226", "display_phone": "(212) 691-6226", "distance": 3371.9587976148873}, {"id": "YIYetgfNE34G8JhQu98XQw", "alias": "ozen-new-york-3", "name": "Ozen", "image_url": "https://s3-media1.fl.yelpcdn.com/bphoto/vLjo213qoXjMF3iRK82WvQ/o.jpg", "is_closed": false, "url": "https://www.yelp.com/biz/ozen-new-york-3?adjust_creative=9gNmiWYX8uTbFBeTTvJMdA&utm_campaign=yelp_api_v3&utm_medium=api_v3_business_search&utm_source=9gNmiWYX8uTbFBeTTvJMdA", "review_count": 210, "categories": [{"alias": "asianfusion", "title": "Asian Fusion"}, {"alias": "sushi", "title": "Sushi Bars"}], "rating": 3.0, "coordinates": {"latitude": 40.7948819801249, "longitude": -73.9700052707462}, "transactions": ["delivery", "pickup"], "price": "$$", "location": {"address1": "760 Amsterdam Ave", "address2": "", "address3": "", "city": "New York", "zip_code": "10025", "country": "US", "state": "NY", "display_address": ["760 Amsterdam Ave", "New York, NY 10025"]}, "phone": "+12126780300", "display_phone": "(212) 678-0300", "distance": 3970.629376773403}, {"id": "IBMaz2RZPkU1Ng9b8A6ywg", "alias": "lins-kitchen-jackson-heights", "name": "Lin's Kitchen", "image_url": "https://s3-media1.fl.yelpcdn.com/bphoto/fUa-NwiooE8TVlKSzbgq7A/o.jpg", "is_closed": false, "url": "https://www.yelp.com/biz/lins-kitchen-jackson-heights?adjust_creative=9gNmiWYX8uTbFBeTTvJMdA&utm_campaign=yelp_api_v3&utm_medium=api_v3_business_search&utm_source=9gNmiWYX8uTbFBeTTvJMdA", "review_count": 51, "categories": [{"alias": "chinese", "title": "Chinese"}], "rating": 3.5, "coordinates": {"latitude": 40.75051, "longitude": -73.8955064}, "transactions": ["delivery", "pickup"], "price": "$", "location": {"address1": "70-24 35th Ave", "address2": "", "address3": "", "city": "Jackson Heights", "zip_code": "11372", "country": "US", "state": "NY", "display_address": ["70-24 35th Ave", "Jackson Heights, NY 11372"]}, "phone": "+17185051388", "display_phone": "(718) 505-1388", "distance": 6362.518089766496}, {"id": "J2ks4DGmJ286xUI8WzlYeg", "alias": "first-choice-chinese-kitchen-new-york", "name": "First Choice Chinese Kitchen", "image_url": "https://s3-media3.fl.yelpcdn.com/bphoto/2ZPDY_U1lNSW365vT2tMJw/o.jpg", "is_closed": false, "url": "https://www.yelp.com/biz/first-choice-chinese-kitchen-new-york?adjust_creative=9gNmiWYX8uTbFBeTTvJMdA&utm_campaign=yelp_api_v3&utm_medium=api_v3_business_search&utm_source=9gNmiWYX8uTbFBeTTvJMdA", "review_count": 58, "categories": [{"alias": "chinese", "title": "Chinese"}], "rating": 3.0, "coordinates": {"latitude": 40.83778, "longitude": -73.9425}, "transactions": ["delivery", "pickup"], "price": "$", "location": {"address1": "3893 Broadway", "address2": "", "address3": "", "city": "New York", "zip_code": "10032", "country": "US", "state": "NY", "display_address": ["3893 Broadway", "New York, NY 10032"]}, "phone": "+12129276898", "display_phone": "(212) 927-6898", "distance": 9035.029166068825}, {"id": "YGfpddz2ml_2h75wbzkh2A", "alias": "new-lake-pavilion-flushing", "name": "New Lake Pavilion", "image_url": "https://s3-media3.fl.yelpcdn.com/bphoto/H5cgeDcULbSXZ4LE9LZOeQ/o.jpg", "is_closed": false, "url": "https://www.yelp.com/biz/new-lake-pavilion-flushing?adjust_creative=9gNmiWYX8uTbFBeTTvJMdA&utm_campaign=yelp_api_v3&utm_medium=api_v3_business_search&utm_source=9gNmiWYX8uTbFBeTTvJMdA", "review_count": 574, "categories": [{"alias": "dimsum", "title": "Dim Sum"}, {"alias": "seafood", "title": "Seafood"}], "rating": 3.0, "coordinates": {"latitude": 40.7425994873047, "longitude": -73.8249769210815}, "transactions": ["delivery"], "price": "$$", "location": {"address1": "6015 Main St", "address2": "", "address3": "", "city": "Flushing", "zip_code": "11355", "country": "US", "state": "NY", "display_address": ["6015 Main St", "Flushing, NY 11355"]}, "phone": "+17188866693", "display_phone": "(718) 886-6693", "distance": 12318.954558728386}, {"id": "2eR8ftw-GiTEwg3Y7Rm-MA", "alias": "mimi-chengs-dumplings-new-york", "name": "Mimi Cheng's Dumplings", "image_url": "https://s3-media1.fl.yelpcdn.com/bphoto/EGGqRIgqJirzIsp8ZqUgTw/o.jpg", "is_closed": false, "url": "https://www.yelp.com/biz/mimi-chengs-dumplings-new-york?adjust_creative=9gNmiWYX8uTbFBeTTvJMdA&utm_campaign=yelp_api_v3&utm_medium=api_v3_business_search&utm_source=9gNmiWYX8uTbFBeTTvJMdA", "review_count": 712, "categories": [{"alias": "taiwanese", "title": "Taiwanese"}, {"alias": "dimsum", "title": "Dim Sum"}], "rating": 3.5, "coordinates": {"latitude": 40.7305254, "longitude": -73.986285}, "transactions": ["delivery", "pickup"], "price": "$$", "location": {"address1": "179 2nd Ave", "address2": "", "address3": "", "city": "New York", "zip_code": "10003", "country": "US", "state": "NY", "display_address": ["179 2nd Ave", "New York, NY 10003"]}, "phone": "+12125332007", "display_phone": "(212) 533-2007", "distance": 3482.857069241253}, {"id": "_iLjlrftSGKvFyG6PXQyAg", "alias": "jimmys-best-chinese-restaurant-bronx", "name": "Jimmy's Best Chinese Restaurant", "image_url": "https://s3-media3.fl.yelpcdn.com/bphoto/P1DqmAZaKPYEOfcvhbWApQ/o.jpg", "is_closed": false, "url": "https://www.yelp.com/biz/jimmys-best-chinese-restaurant-bronx?adjust_creative=9gNmiWYX8uTbFBeTTvJMdA&utm_campaign=yelp_api_v3&utm_medium=api_v3_business_search&utm_source=9gNmiWYX8uTbFBeTTvJMdA", "review_count": 41, "categories": [{"alias": "chinese", "title": "Chinese"}], "rating": 4.5, "coordinates": {"latitude": 40.88447, "longitude": -73.8315}, "transactions": [], "price": "$", "location": {"address1": "4004A Boston Rd", "address2": "", "address3": "", "city": "Bronx", "zip_code": "10475", "country": "US", "state": "NY", "display_address": ["4004A Boston Rd", "Bronx, NY 10475"]}, "phone": "+17183792438", "display_phone": "(718) 379-2438", "distance": 17995.77326543479}, {"id": "mLN0bQ_A8gpdf6r85vQLuw", "alias": "jiangnan-brooklyn-brooklyn-4", "name": "JiangNan -  Brooklyn", "image_url": "https://s3-media1.fl.yelpcdn.com/bphoto/BuUXfm4TfI86Vq3qCKG4cg/o.jpg", "is_closed": false, "url": "https://www.yelp.com/biz/jiangnan-brooklyn-brooklyn-4?adjust_creative=9gNmiWYX8uTbFBeTTvJMdA&utm_campaign=yelp_api_v3&utm_medium=api_v3_business_search&utm_source=9gNmiWYX8uTbFBeTTvJMdA", "review_count": 8, "categories": [{"alias": "chinese", "title": "Chinese"}], "rating": 3.0, "coordinates": {"latitude": 40.6315087, "longitude": -74.00296589999999}, "transactions": ["delivery", "pickup"], "location": {"address1": "6000 11th Ave", "address2": null, "address3": "", "city": "Brooklyn", "zip_code": "11219", "country": "US", "state": "NY", "display_address": ["6000 11th Ave", "Brooklyn, NY 11219"]}, "phone": "+17187099706", "display_phone": "(718) 709-9706", "distance": 14472.239995608834}, {"id": "3uJAt1EHG0x9pz_c91AHuQ", "alias": "peking-garden-new-york-2", "name": "Peking Garden", "image_url": "https://s3-media4.fl.yelpcdn.com/bphoto/kuWx6tCwnlaWChfRe0c2MA/o.jpg", "is_closed": false, "url": "https://www.yelp.com/biz/peking-garden-new-york-2?adjust_creative=9gNmiWYX8uTbFBeTTvJMdA&utm_campaign=yelp_api_v3&utm_medium=api_v3_business_search&utm_source=9gNmiWYX8uTbFBeTTvJMdA", "review_count": 34, "categories": [{"alias": "chinese", "title": "Chinese"}], "rating": 3.5, "coordinates": {"latitude": 40.8149986, "longitude": -73.9592896}, "transactions": ["delivery", "pickup"], "price": "$", "location": {"address1": "3163 Broadway", "address2": "", "address3": "", "city": "New York", "zip_code": "10027", "country": "US", "state": "NY", "display_address": ["3163 Broadway", "New York, NY 10027"]}, "phone": "+12128653600", "display_phone": "(212) 865-3600", "distance": 6264.531795242247}, {"id": "_VWpp7qBwJTAEwc4U2QX8Q", "alias": "funny-bbq-new-york-2", "name": "Funny BBQ", "image_url": "https://s3-media2.fl.yelpcdn.com/bphoto/i1mRLNFfuA4Jf1EDDUYmQw/o.jpg", "is_closed": false, "url": "https://www.yelp.com/biz/funny-bbq-new-york-2?adjust_creative=9gNmiWYX8uTbFBeTTvJMdA&utm_campaign=yelp_api_v3&utm_medium=api_v3_business_search&utm_source=9gNmiWYX8uTbFBeTTvJMdA", "review_count": 242, "categories": [{"alias": "hotpot", "title": "Hot Pot"}, {"alias": "bbq", "title": "Barbeque"}, {"alias": "noodles", "title": "Noodles"}], "rating": 3.0, "coordinates": {"latitude": 40.71773, "longitude": -73.99554}, "transactions": ["delivery", "pickup"], "price": "$$", "location": {"address1": "98 Bowery", "address2": "", "address3": "", "city": "New York", "zip_code": "10013", "country": "US", "state": "NY", "display_address": ["98 Bowery", "New York, NY 10013"]}, "phone": "+12129650076", "display_phone": "(212) 965-0076", "distance": 5099.905014479264}, {"id": "5MJdYsY1iSrNuNRSNS9Cbg", "alias": "china-garden-brooklyn", "name": "China Garden", "image_url": "https://s3-media2.fl.yelpcdn.com/bphoto/ajy60H42bZmIrw9M6a6o1w/o.jpg", "is_closed": false, "url": "https://www.yelp.com/biz/china-garden-brooklyn?adjust_creative=9gNmiWYX8uTbFBeTTvJMdA&utm_campaign=yelp_api_v3&utm_medium=api_v3_business_search&utm_source=9gNmiWYX8uTbFBeTTvJMdA", "review_count": 1, "categories": [{"alias": "chinese", "title": "Chinese"}], "rating": 5.0, "coordinates": {"latitude": 40.6884727478027, "longitude": -73.9169464111328}, "transactions": [], "location": {"address1": "1178 Bushwick Ave", "address2": "", "address3": "", "city": "Brooklyn", "zip_code": "11221", "country": "US", "state": "NY", "display_address": ["1178 Bushwick Ave", "Brooklyn, NY 11221"]}, "phone": "+17185732810", "display_phone": "(718) 573-2810", "distance": 9029.291915286765}, {"id": "-7PgxPVUGZh__U3CxRFKxg", "alias": "trinidad-golden-place-restaurant-brooklyn", "name": "Trinidad Golden Place Restaurant", "image_url": "https://s3-media2.fl.yelpcdn.com/bphoto/QKtC3uQk3G73YrNgGqgrdg/o.jpg", "is_closed": false, "url": "https://www.yelp.com/biz/trinidad-golden-place-restaurant-brooklyn?adjust_creative=9gNmiWYX8uTbFBeTTvJMdA&utm_campaign=yelp_api_v3&utm_medium=api_v3_business_search&utm_source=9gNmiWYX8uTbFBeTTvJMdA", "review_count": 182, "categories": [{"alias": "chinese", "title": "Chinese"}, {"alias": "trinidadian", "title": "Trinidadian"}], "rating": 4.5, "coordinates": {"latitude": 40.6718291030037, "longitude": -73.950525317791}, "transactions": ["delivery"], "price": "$", "location": {"address1": "788 Nostrand Ave", "address2": "", "address3": "", "city": "Brooklyn", "zip_code": "11216", "country": "US", "state": "NY", "display_address": ["788 Nostrand Ave", "Brooklyn, NY 11216"]}, "phone": "+17187357065", "display_phone": "(718) 735-7065", "distance": 9844.1710917507}, {"id": "tesXYams5rhVNH9edvpzUg", "alias": "hong-kong-restaurant-bronx", "name": "Hong Kong Restaurant", "image_url": "https://s3-media2.fl.yelpcdn.com/bphoto/Xb-JBV6Evnb6vuvFWDAk-Q/o.jpg", "is_closed": false, "url": "https://www.yelp.com/biz/hong-kong-restaurant-bronx?adjust_creative=9gNmiWYX8uTbFBeTTvJMdA&utm_campaign=yelp_api_v3&utm_medium=api_v3_business_search&utm_source=9gNmiWYX8uTbFBeTTvJMdA", "review_count": 21, "categories": [{"alias": "chinese", "title": "Chinese"}], "rating": 3.5, "coordinates": {"latitude": 40.85056, "longitude": -73.85179}, "transactions": ["delivery", "pickup"], "price": "$", "location": {"address1": "1811 Williamsbridge Rd", "address2": "", "address3": "", "city": "Bronx", "zip_code": "10461", "country": "US", "state": "NY", "display_address": ["1811 Williamsbridge Rd", "Bronx, NY 10461"]}, "phone": "+17184096100", "display_phone": "(718) 409-6100", "distance": 14194.461237830043}, {"id": "ZpifrJsBsz7RUT1_Tyu9nQ", "alias": "hot-space-brooklyn", "name": "Hot Space", "image_url": "https://s3-media4.fl.yelpcdn.com/bphoto/Lb0-vnfQGsUnueSugxvx5A/o.jpg", "is_closed": false, "url": "https://www.yelp.com/biz/hot-space-brooklyn?adjust_creative=9gNmiWYX8uTbFBeTTvJMdA&utm_campaign=yelp_api_v3&utm_medium=api_v3_business_search&utm_source=9gNmiWYX8uTbFBeTTvJMdA", "review_count": 167, "categories": [{"alias": "szechuan", "title": "Szechuan"}, {"alias": "seafood", "title": "Seafood"}], "rating": 4.5, "coordinates": {"latitude": 40.64068, "longitude": -74.00476}, "transactions": ["delivery"], "price": "$$", "location": {"address1": "774 51st St", "address2": null, "address3": "", "city": "Brooklyn", "zip_code": "11220", "country": "US", "state": "NY", "display_address": ["774 51st St", "Brooklyn, NY 11220"]}, "phone": "+17189808801", "display_phone": "(718) 980-8801", "distance": 13501.360879459451}, {"id": "806LMXdSg8HuDiemcbnF4g", "alias": "new-joy-garden-brooklyn", "name": "New Joy Garden", "image_url": "https://s3-media3.fl.yelpcdn.com/bphoto/yizznT3c82j-Nf76LaXzXw/o.jpg", "is_closed": false, "url": "https://www.yelp.com/biz/new-joy-garden-brooklyn?adjust_creative=9gNmiWYX8uTbFBeTTvJMdA&utm_campaign=yelp_api_v3&utm_medium=api_v3_business_search&utm_source=9gNmiWYX8uTbFBeTTvJMdA", "review_count": 7, "categories": [{"alias": "chinese", "title": "Chinese"}], "rating": 3.5, "coordinates": {"latitude": 40.66261097196922, "longitude": -73.89809553095428}, "transactions": ["delivery", "pickup"], "price": "$", "location": {"address1": "482 Riverdale Ave", "address2": null, "address3": "", "city": "Brooklyn", "zip_code": "11207", "country": "US", "state": "NY", "display_address": ["482 Riverdale Ave", "Brooklyn, NY 11207"]}, "phone": "+17183852288", "display_phone": "(718) 385-2288", "distance": 12312.12034672671}, {"id": "JAwcUcaAEeb-xuWIJHgPeA", "alias": "new-sunny-wok-chinese-restaurant-union-city", "name": "New Sunny Wok Chinese Restaurant", "image_url": "https://s3-media2.fl.yelpcdn.com/bphoto/-5eS-aDAPbBF8rq6O7NHzQ/o.jpg", "is_closed": false, "url": "https://www.yelp.com/biz/new-sunny-wok-chinese-restaurant-union-city?adjust_creative=9gNmiWYX8uTbFBeTTvJMdA&utm_campaign=yelp_api_v3&utm_medium=api_v3_business_search&utm_source=9gNmiWYX8uTbFBeTTvJMdA", "review_count": 8, "categories": [{"alias": "chinese", "title": "Chinese"}], "rating": 3.5, "coordinates": {"latitude": 40.75914, "longitude": -74.04298}, "transactions": ["delivery", "pickup"], "price": "$", "location": {"address1": "810 Summit Ave", "address2": "", "address3": "", "city": "Union City", "zip_code": "07087", "country": "US", "state": "NJ", "display_address": ["810 Summit Ave", "Union City, NJ 07087"]}, "phone": "+12018667988", "display_phone": "(201) 866-7988", "distance": 6191.852988324258}, {"id": "nhez4xxvwwYIQEN2Vrj9mQ", "alias": "yuji-ramen-brooklyn-3", "name": "YUJI Ramen", "image_url": "https://s3-media4.fl.yelpcdn.com/bphoto/FLvUpb8xkTTthoNOKxn8cA/o.jpg", "is_closed": false, "url": "https://www.yelp.com/biz/yuji-ramen-brooklyn-3?adjust_creative=9gNmiWYX8uTbFBeTTvJMdA&utm_campaign=yelp_api_v3&utm_medium=api_v3_business_search&utm_source=9gNmiWYX8uTbFBeTTvJMdA", "review_count": 137, "categories": [{"alias": "ramen", "title": "Ramen"}, {"alias": "noodles", "title": "Noodles"}], "rating": 4.0, "coordinates": {"latitude": 40.712527, "longitude": -73.9487788}, "transactions": [], "price": "$$", "location": {"address1": "150 Ainslie St", "address2": "", "address3": "", "city": "Brooklyn", "zip_code": "11211", "country": "US", "state": "NY", "display_address": ["150 Ainslie St", "Brooklyn, NY 11211"]}, "phone": "", "display_phone": "", "distance": 5474.910772620173}, {"id": "1Duix1fA6zcJGdYAmBPkmw", "alias": "dumpling-man-new-york", "name": "Dumpling Man", "image_url": "https://s3-media3.fl.yelpcdn.com/bphoto/8z7uY08EhBNUS8OzLhzh5A/o.jpg", "is_closed": false, "url": "https://www.yelp.com/biz/dumpling-man-new-york?adjust_creative=9gNmiWYX8uTbFBeTTvJMdA&utm_campaign=yelp_api_v3&utm_medium=api_v3_business_search&utm_source=9gNmiWYX8uTbFBeTTvJMdA", "review_count": 891, "categories": [{"alias": "dimsum", "title": "Dim Sum"}, {"alias": "szechuan", "title": "Szechuan"}], "rating": 3.5, "coordinates": {"latitude": 40.727171, "longitude": -73.9847508}, "transactions": ["delivery", "pickup"], "price": "$", "location": {"address1": "100 Saint Marks Pl", "address2": null, "address3": "", "city": "New York", "zip_code": "10009", "country": "US", "state": "NY", "display_address": ["100 Saint Marks Pl", "New York, NY 10009"]}, "phone": "+12125052121", "display_phone": "(212) 505-2121", "distance": 3781.3677189563987}, {"id": "1GNH6ZldleY8rKtWNZX_yg", "alias": "baybridge-szechuan-restaurant-bayside-3", "name": "Baybridge Szechuan Restaurant", "image_url": "https://s3-media3.fl.yelpcdn.com/bphoto/TQ0snlt4Y3Lk13_FTLlmFg/o.jpg", "is_closed": false, "url": "https://www.yelp.com/biz/baybridge-szechuan-restaurant-bayside-3?adjust_creative=9gNmiWYX8uTbFBeTTvJMdA&utm_campaign=yelp_api_v3&utm_medium=api_v3_business_search&utm_source=9gNmiWYX8uTbFBeTTvJMdA", "review_count": 76, "categories": [{"alias": "chinese", "title": "Chinese"}], "rating": 4.5, "coordinates": {"latitude": 40.78846149473183, "longitude": -73.78548924322907}, "transactions": [], "price": "$$", "location": {"address1": "20806 Cross Island Pkwy", "address2": "", "address3": "", "city": "Bayside", "zip_code": "11360", "country": "US", "state": "NY", "display_address": ["20806 Cross Island Pkwy", "Bayside, NY 11360"]}, "phone": "+17183528800", "display_phone": "(718) 352-8800", "distance": 15839.617240487256}, {"id": "jg5nc64wLYKwKAvz_lfMuA", "alias": "thai-at-lex-new-york-3", "name": "Thai At Lex", "image_url": "https://s3-media4.fl.yelpcdn.com/bphoto/e8eKWiAQeAtlaziOLr-rcw/o.jpg", "is_closed": false, "url": "https://www.yelp.com/biz/thai-at-lex-new-york-3?adjust_creative=9gNmiWYX8uTbFBeTTvJMdA&utm_campaign=yelp_api_v3&utm_medium=api_v3_business_search&utm_source=9gNmiWYX8uTbFBeTTvJMdA", "review_count": 236, "categories": [{"alias": "thai", "title": "Thai"}, {"alias": "noodles", "title": "Noodles"}, {"alias": "asianfusion", "title": "Asian Fusion"}], "rating": 3.5, "coordinates": {"latitude": 40.778142, "longitude": -73.956807}, "transactions": ["delivery", "pickup"], "price": "$$", "location": {"address1": "1244 Lexington Ave", "address2": "", "address3": "", "city": "New York", "zip_code": "10028", "country": "US", "state": "NY", "display_address": ["1244 Lexington Ave", "New York, NY 10028"]}, "phone": "+12122886060", "display_phone": "(212) 288-6060", "distance": 2366.687367566333}, {"id": "v5CsUc6pr7foHWsoQ0Y36Q", "alias": "ho-wan-restaurant-richmond-hill", "name": "Ho Wan Restaurant", "image_url": "https://s3-media3.fl.yelpcdn.com/bphoto/4vSquFLNRoFblUAk7tnmMQ/o.jpg", "is_closed": false, "url": "https://www.yelp.com/biz/ho-wan-restaurant-richmond-hill?adjust_creative=9gNmiWYX8uTbFBeTTvJMdA&utm_campaign=yelp_api_v3&utm_medium=api_v3_business_search&utm_source=9gNmiWYX8uTbFBeTTvJMdA", "review_count": 113, "categories": [{"alias": "chinese", "title": "Chinese"}], "rating": 3.5, "coordinates": {"latitude": 40.68508, "longitude": -73.83095}, "transactions": ["delivery", "pickup"], "price": "$$", "location": {"address1": "111-05 Liberty Ave", "address2": "", "address3": "", "city": "Richmond Hill", "zip_code": "11419", "country": "US", "state": "NY", "display_address": ["111-05 Liberty Ave", "Richmond Hill, NY 11419"]}, "phone": "+17188433288", "display_phone": "(718) 843-3288", "distance": 14298.876198434134}, {"id": "zrV2yUsz1SxymeH51iRBRw", "alias": "chuan-tian-xia-\u5ddd\u5929\u4e0b-brooklyn-brooklyn-3", "name": "Chuan Tian Xia \u5ddd\u5929\u4e0b - Brooklyn", "image_url": "https://s3-media1.fl.yelpcdn.com/bphoto/jBfIr6J9zzmNsyHezJe_yA/o.jpg", "is_closed": false, "url": "https://www.yelp.com/biz/chuan-tian-xia-%E5%B7%9D%E5%A4%A9%E4%B8%8B-brooklyn-brooklyn-3?adjust_creative=9gNmiWYX8uTbFBeTTvJMdA&utm_campaign=yelp_api_v3&utm_medium=api_v3_business_search&utm_source=9gNmiWYX8uTbFBeTTvJMdA", "review_count": 277, "categories": [{"alias": "szechuan", "title": "Szechuan"}, {"alias": "seafood", "title": "Seafood"}], "rating": 4.5, "coordinates": {"latitude": 40.6397, "longitude": -74.009131}, "transactions": ["delivery", "pickup"], "price": "$$", "location": {"address1": "5502 7th Ave", "address2": "", "address3": null, "city": "Brooklyn", "zip_code": "11220", "country": "US", "state": "NY", "display_address": ["5502 7th Ave", "Brooklyn, NY 11220"]}, "phone": "+19292950128", "display_phone": "(929) 295-0128", "distance": 13697.102082393663}, {"id": "_PdcklnobN5F81P_H2rk1A", "alias": "coco-rooster-\u7687\u6930\u9e21-flushing", "name": "Coco Rooster \u7687\u6930\u9e21", "image_url": "https://s3-media1.fl.yelpcdn.com/bphoto/MNsUjBmaOpzj0FM_GqHRuw/o.jpg", "is_closed": false, "url": "https://www.yelp.com/biz/coco-rooster-%E7%9A%87%E6%A4%B0%E9%B8%A1-flushing?adjust_creative=9gNmiWYX8uTbFBeTTvJMdA&utm_campaign=yelp_api_v3&utm_medium=api_v3_business_search&utm_source=9gNmiWYX8uTbFBeTTvJMdA", "review_count": 91, "categories": [{"alias": "cantonese", "title": "Cantonese"}, {"alias": "soup", "title": "Soup"}, {"alias": "hotpot", "title": "Hot Pot"}], "rating": 4.0, "coordinates": {"latitude": 40.7433869, "longitude": -73.8257789}, "transactions": ["delivery", "pickup"], "price": "$$", "location": {"address1": "59-14 Main St", "address2": "", "address3": null, "city": "Flushing", "zip_code": "11355", "country": "US", "state": "NY", "display_address": ["59-14 Main St", "Flushing, NY 11355"]}, "phone": "+13474381063", "display_phone": "(347) 438-1063", "distance": 12225.736059276842}, {"id": "E_V_pCjtbvdniE8ECOMg3Q", "alias": "great-wall-chinese-restaurant-east-elmhurst", "name": "Great Wall Chinese Restaurant", "image_url": "https://s3-media4.fl.yelpcdn.com/bphoto/7nsFlgCcM0I1YiBWpKhmyQ/o.jpg", "is_closed": false, "url": "https://www.yelp.com/biz/great-wall-chinese-restaurant-east-elmhurst?adjust_creative=9gNmiWYX8uTbFBeTTvJMdA&utm_campaign=yelp_api_v3&utm_medium=api_v3_business_search&utm_source=9gNmiWYX8uTbFBeTTvJMdA", "review_count": 38, "categories": [{"alias": "chinese", "title": "Chinese"}], "rating": 3.5, "coordinates": {"latitude": 40.7638765, "longitude": -73.8816184}, "transactions": ["delivery", "pickup"], "price": "$", "location": {"address1": "87-12 Astoria Blvd", "address2": "", "address3": "", "city": "East Elmhurst", "zip_code": "11369", "country": "US", "state": "NY", "display_address": ["87-12 Astoria Blvd", "East Elmhurst, NY 11369"]}, "phone": "+17184786433", "display_phone": "(718) 478-6433", "distance": 7411.2273214173965}, {"id": "gcwOJAeYOQsCaC9k_SRo2A", "alias": "kays-spring-garden-chinese-restaurant-jersey-city", "name": "Kay's Spring Garden Chinese Restaurant", "image_url": "https://s3-media3.fl.yelpcdn.com/bphoto/CmPdl5Ut95sYv_vQWNkQsA/o.jpg", "is_closed": false, "url": "https://www.yelp.com/biz/kays-spring-garden-chinese-restaurant-jersey-city?adjust_creative=9gNmiWYX8uTbFBeTTvJMdA&utm_campaign=yelp_api_v3&utm_medium=api_v3_business_search&utm_source=9gNmiWYX8uTbFBeTTvJMdA", "review_count": 51, "categories": [{"alias": "chinese", "title": "Chinese"}], "rating": 3.5, "coordinates": {"latitude": 40.750907, "longitude": -74.046302}, "transactions": ["delivery", "pickup"], "price": "$", "location": {"address1": "473 Central Ave", "address2": "", "address3": "", "city": "Jersey City", "zip_code": "07307", "country": "US", "state": "NJ", "display_address": ["473 Central Ave", "Jersey City, NJ 07307"]}, "phone": "+12016530235", "display_phone": "(201) 653-0235", "distance": 6522.8584997111875}, {"id": "00J0yKkOuOxMhqt-Dg9daw", "alias": "panda-express-new-york-20", "name": "Panda Express", "image_url": "https://s3-media1.fl.yelpcdn.com/bphoto/FWNSGRNfb5onKy9AMo9AYg/o.jpg", "is_closed": false, "url": "https://www.yelp.com/biz/panda-express-new-york-20?adjust_creative=9gNmiWYX8uTbFBeTTvJMdA&utm_campaign=yelp_api_v3&utm_medium=api_v3_business_search&utm_source=9gNmiWYX8uTbFBeTTvJMdA", "review_count": 86, "categories": [{"alias": "chinese", "title": "Chinese"}, {"alias": "hotdogs", "title": "Fast Food"}], "rating": 3.0, "coordinates": {"latitude": 40.7501065718521, "longitude": -73.9948594942689}, "transactions": ["delivery", "pickup"], "price": "$", "location": {"address1": "414 Eighth Avenue", "address2": "", "address3": null, "city": "New York", "zip_code": "10001", "country": "US", "state": "NY", "display_address": ["414 Eighth Avenue", "New York, NY 10001"]}, "phone": "+19176393302", "display_phone": "(917) 639-3302", "distance": 2356.464557472945}, {"id": "M1VHR29gMNs3EavDXdE_PA", "alias": "momos-and-buns-new-york", "name": "Momos & Buns", "image_url": "https://s3-media2.fl.yelpcdn.com/bphoto/2CzHP_i4fgDfS0yfQdx1EA/o.jpg", "is_closed": false, "url": "https://www.yelp.com/biz/momos-and-buns-new-york?adjust_creative=9gNmiWYX8uTbFBeTTvJMdA&utm_campaign=yelp_api_v3&utm_medium=api_v3_business_search&utm_source=9gNmiWYX8uTbFBeTTvJMdA", "review_count": 3, "categories": [{"alias": "foodtrucks", "title": "Food Trucks"}, {"alias": "indpak", "title": "Indian"}, {"alias": "chinese", "title": "Chinese"}], "rating": 3.5, "coordinates": {"latitude": 40.7428398, "longitude": -73.9826202}, "transactions": [], "location": {"address1": "120 Lexington Ave", "address2": "", "address3": "", "city": "New York", "zip_code": "10016", "country": "US", "state": "NY", "display_address": ["120 Lexington Ave", "New York, NY 10016"]}, "phone": "+17188999009", "display_phone": "(718) 899-9009", "distance": 2124.549958941949}, {"id": "mlm40NxsVJUPnh3LTayaaw", "alias": "kimika-new-york", "name": "Kimika", "image_url": "https://s3-media2.fl.yelpcdn.com/bphoto/C9cNpM69DQ8vN-7yQfzUcw/o.jpg", "is_closed": false, "url": "https://www.yelp.com/biz/kimika-new-york?adjust_creative=9gNmiWYX8uTbFBeTTvJMdA&utm_campaign=yelp_api_v3&utm_medium=api_v3_business_search&utm_source=9gNmiWYX8uTbFBeTTvJMdA", "review_count": 331, "categories": [{"alias": "italian", "title": "Italian"}, {"alias": "cocktailbars", "title": "Cocktail Bars"}, {"alias": "asianfusion", "title": "Asian Fusion"}], "rating": 4.0, "coordinates": {"latitude": 40.720572, "longitude": -73.995206}, "transactions": ["delivery"], "price": "$$$", "location": {"address1": "40 Kenmare St", "address2": "", "address3": null, "city": "New York", "zip_code": "10012", "country": "US", "state": "NY", "display_address": ["40 Kenmare St", "New York, NY 10012"]}, "phone": "+12122569280", "display_phone": "(212) 256-9280", "distance": 4803.18206582796}, {"id": "zEgjnd9lBU1ppfiL1U8_TA", "alias": "congee-village-flushing-2", "name": "Congee Village", "image_url": "https://s3-media2.fl.yelpcdn.com/bphoto/wEm0BFqWx4O6Ys2OYtSfZg/o.jpg", "is_closed": false, "url": "https://www.yelp.com/biz/congee-village-flushing-2?adjust_creative=9gNmiWYX8uTbFBeTTvJMdA&utm_campaign=yelp_api_v3&utm_medium=api_v3_business_search&utm_source=9gNmiWYX8uTbFBeTTvJMdA", "review_count": 394, "categories": [{"alias": "cantonese", "title": "Cantonese"}, {"alias": "desserts", "title": "Desserts"}], "rating": 2.5, "coordinates": {"latitude": 40.7610286904226, "longitude": -73.8329778607309}, "transactions": ["delivery", "pickup"], "price": "$$", "location": {"address1": "36-36 Prince St", "address2": "", "address3": null, "city": "Flushing", "zip_code": "11354", "country": "US", "state": "NY", "display_address": ["36-36 Prince St", "Flushing, NY 11354"]}, "phone": "+17188889799", "display_phone": "(718) 888-9799", "distance": 11506.583896264288}, {"id": "fLq5j4fkFmPD6I2tt6dSWQ", "alias": "100-mr-lin-brooklyn-2", "name": "100% Mr. Lin", "image_url": "https://s3-media1.fl.yelpcdn.com/bphoto/8Mssm8x9efCXA9GhcRrSbw/o.jpg", "is_closed": false, "url": "https://www.yelp.com/biz/100-mr-lin-brooklyn-2?adjust_creative=9gNmiWYX8uTbFBeTTvJMdA&utm_campaign=yelp_api_v3&utm_medium=api_v3_business_search&utm_source=9gNmiWYX8uTbFBeTTvJMdA", "review_count": 39, "categories": [{"alias": "chinese", "title": "Chinese"}], "rating": 4.0, "coordinates": {"latitude": 40.69085, "longitude": -73.98329}, "transactions": ["delivery", "pickup"], "location": {"address1": "445 Albee Square W", "address2": null, "address3": null, "city": "Brooklyn", "zip_code": "11201", "country": "US", "state": "NY", "display_address": ["445 Albee Square W", "Brooklyn, NY 11201"]}, "phone": "+17187973946", "display_phone": "(718) 797-3946", "distance": 7663.409667710228}, {"id": "fbFPeVj-PibAPVPGq76NfQ", "alias": "urbun-baos-and-bubble-tea-long-island-city", "name": "Urbun | Baos and Bubble Tea", "image_url": "https://s3-media3.fl.yelpcdn.com/bphoto/cA7s0iNjmNcuQW-KApA3JQ/o.jpg", "is_closed": false, "url": "https://www.yelp.com/biz/urbun-baos-and-bubble-tea-long-island-city?adjust_creative=9gNmiWYX8uTbFBeTTvJMdA&utm_campaign=yelp_api_v3&utm_medium=api_v3_business_search&utm_source=9gNmiWYX8uTbFBeTTvJMdA", "review_count": 6, "categories": [{"alias": "chinese", "title": "Chinese"}, {"alias": "bubbletea", "title": "Bubble Tea"}], "rating": 3.5, "coordinates": {"latitude": 40.746974, "longitude": -73.926766}, "transactions": ["delivery", "pickup"], "location": {"address1": "41-18 38th St", "address2": null, "address3": "", "city": "Long Island City", "zip_code": "11103", "country": "US", "state": "NY", "display_address": ["41-18 38th St", "Long Island City, NY 11103"]}, "phone": "+13476429695", "display_phone": "(347) 642-9695", "distance": 3844.569228148916}, {"id": "awvl9pC0RW8PT5A3NeLGMg", "alias": "fuxingmei-sushi-house-edgewater", "name": "FuXingMei Sushi House", "image_url": "https://s3-media1.fl.yelpcdn.com/bphoto/ZgikoAB5_zsELoJrhkS2wg/o.jpg", "is_closed": false, "url": "https://www.yelp.com/biz/fuxingmei-sushi-house-edgewater?adjust_creative=9gNmiWYX8uTbFBeTTvJMdA&utm_campaign=yelp_api_v3&utm_medium=api_v3_business_search&utm_source=9gNmiWYX8uTbFBeTTvJMdA", "review_count": 89, "categories": [{"alias": "sushi", "title": "Sushi Bars"}, {"alias": "asianfusion", "title": "Asian Fusion"}], "rating": 4.0, "coordinates": {"latitude": 40.83162, "longitude": -73.97267}, "transactions": ["delivery", "pickup"], "price": "$$", "location": {"address1": "1086 River Rd", "address2": null, "address3": "", "city": "Edgewater", "zip_code": "07020", "country": "US", "state": "NJ", "display_address": ["1086 River Rd", "Edgewater, NJ 07020"]}, "phone": "+12018861398", "display_phone": "(201) 886-1398", "distance": 8070.867958638587}, {"id": "nFqb7D7nng2FKunqlSd6XA", "alias": "empire-chinese-restaurant-bronx", "name": "Empire Chinese Restaurant", "image_url": "https://s3-media3.fl.yelpcdn.com/bphoto/69UumVKBT8kbOwLrEbZXIw/o.jpg", "is_closed": false, "url": "https://www.yelp.com/biz/empire-chinese-restaurant-bronx?adjust_creative=9gNmiWYX8uTbFBeTTvJMdA&utm_campaign=yelp_api_v3&utm_medium=api_v3_business_search&utm_source=9gNmiWYX8uTbFBeTTvJMdA", "review_count": 9, "categories": [{"alias": "chinese", "title": "Chinese"}], "rating": 3.0, "coordinates": {"latitude": 40.846452, "longitude": -73.918398}, "transactions": ["delivery"], "location": {"address1": "103 Featherbed Ln", "address2": "", "address3": "", "city": "Bronx", "zip_code": "10452", "country": "US", "state": "NY", "display_address": ["103 Featherbed Ln", "Bronx, NY 10452"]}, "phone": "+17182999190", "display_phone": "(718) 299-9190", "distance": 10617.783433055427}, {"id": "Tc2uYkCroymhrtXnkVcSmg", "alias": "francesca-chinese-restaruant-union-city", "name": "Francesca Chinese Restaruant", "image_url": "https://s3-media2.fl.yelpcdn.com/bphoto/2d3ymb5CqVxlWaaP3KPuGg/o.jpg", "is_closed": false, "url": "https://www.yelp.com/biz/francesca-chinese-restaruant-union-city?adjust_creative=9gNmiWYX8uTbFBeTTvJMdA&utm_campaign=yelp_api_v3&utm_medium=api_v3_business_search&utm_source=9gNmiWYX8uTbFBeTTvJMdA", "review_count": 9, "categories": [{"alias": "chinese", "title": "Chinese"}], "rating": 4.0, "coordinates": {"latitude": 40.7680018, "longitude": -74.0323863}, "transactions": ["delivery"], "price": "$", "location": {"address1": "2411 Bergenline Ave", "address2": "", "address3": "", "city": "Union City", "zip_code": "07087", "country": "US", "state": "NJ", "display_address": ["2411 Bergenline Ave", "Union City, NJ 07087"]}, "phone": "+12013480066", "display_phone": "(201) 348-0066", "distance": 5380.345175940457}, {"id": "oEtZCrpEeQDYou3edW9hkw", "alias": "chens-kitchen-hoboken", "name": "Chen's Kitchen", "image_url": "https://s3-media1.fl.yelpcdn.com/bphoto/mOTChC-3zjE5FBWZUnlHAQ/o.jpg", "is_closed": false, "url": "https://www.yelp.com/biz/chens-kitchen-hoboken?adjust_creative=9gNmiWYX8uTbFBeTTvJMdA&utm_campaign=yelp_api_v3&utm_medium=api_v3_business_search&utm_source=9gNmiWYX8uTbFBeTTvJMdA", "review_count": 24, "categories": [{"alias": "chinese", "title": "Chinese"}], "rating": 4.0, "coordinates": {"latitude": 40.74183, "longitude": -74.03993}, "transactions": ["delivery", "pickup"], "price": "$", "location": {"address1": "301 Jackson St", "address2": null, "address3": null, "city": "Hoboken", "zip_code": "07030", "country": "US", "state": "NJ", "display_address": ["301 Jackson St", "Hoboken, NJ 07030"]}, "phone": "+12016560949", "display_phone": "(201) 656-0949", "distance": 6224.0500681172}], "total": 3300, "region": {"center": {"longitude": -73.96957397460938, "latitude": 40.75917470627005}}}