{"businesses": [{"id": "J2ks4DGmJ286xUI8WzlYeg", "alias": "first-choice-chinese-kitchen-new-york", "name": "First Choice Chinese Kitchen", "image_url": "https://s3-media3.fl.yelpcdn.com/bphoto/2ZPDY_U1lNSW365vT2tMJw/o.jpg", "is_closed": false, "url": "https://www.yelp.com/biz/first-choice-chinese-kitchen-new-york?adjust_creative=9gNmiWYX8uTbFBeTTvJMdA&utm_campaign=yelp_api_v3&utm_medium=api_v3_business_search&utm_source=9gNmiWYX8uTbFBeTTvJMdA", "review_count": 58, "categories": [{"alias": "chinese", "title": "Chinese"}], "rating": 3.0, "coordinates": {"latitude": 40.83778, "longitude": -73.9425}, "transactions": ["delivery", "pickup"], "price": "$", "location": {"address1": "3893 Broadway", "address2": "", "address3": "", "city": "New York", "zip_code": "10032", "country": "US", "state": "NY", "display_address": ["3893 Broadway", "New York, NY 10032"]}, "phone": "+12129276898", "display_phone": "(212) 927-6898", "distance": 9035.029166068825}, {"id": "Dh2I2jRTXE7oDCfuA9vCoQ", "alias": "super-china-pagoda-astoria", "name": "Super China Pagoda", "image_url": "https://s3-media3.fl.yelpcdn.com/bphoto/f5QlNr8mfif1asw2DRpkVQ/o.jpg", "is_closed": false, "url": "https://www.yelp.com/biz/super-china-pagoda-astoria?adjust_creative=9gNmiWYX8uTbFBeTTvJMdA&utm_campaign=yelp_api_v3&utm_medium=api_v3_business_search&utm_source=9gNmiWYX8uTbFBeTTvJMdA", "review_count": 51, "categories": [{"alias": "halal", "title": "Halal"}, {"alias": "chinese", "title": "Chinese"}], "rating": 3.5, "coordinates": {"latitude": 40.7610039, "longitude": -73.9091797}, "transactions": ["delivery", "pickup"], "price": "$", "location": {"address1": "4720 30th Ave", "address2": "", "address3": "", "city": "Astoria", "zip_code": "11103", "country": "US", "state": "NY", "display_address": ["4720 30th Ave", "Astoria, NY 11103"]}, "phone": "+17186260388", "display_phone": "(718) 626-0388", "distance": 5114.101452425809}, {"id": "DMD9T2qmLopzy0JjQYtCag", "alias": "sunrise-chinese-restaurant-new-york", "name": "Sunrise Chinese Restaurant", "image_url": "https://s3-media1.fl.yelpcdn.com/bphoto/geVkcmspe_n4hTX10lW6PQ/o.jpg", "is_closed": false, "url": "https://www.yelp.com/biz/sunrise-chinese-restaurant-new-york?adjust_creative=9gNmiWYX8uTbFBeTTvJMdA&utm_campaign=yelp_api_v3&utm_medium=api_v3_business_search&utm_source=9gNmiWYX8uTbFBeTTvJMdA", "review_count": 12, "categories": [{"alias": "chinese", "title": "Chinese"}], "rating": 2.5, "coordinates": {"latitude": 40.7159409, "longitude": -73.9927712}, "transactions": ["delivery", "pickup"], "location": {"address1": "50 Eldridge St", "address2": "", "address3": "", "city": "New York", "zip_code": "10002", "country": "US", "state": "NY", "display_address": ["50 Eldridge St", "New York, NY 10002"]}, "phone": "+16463698588", "display_phone": "(646) 369-8588", "distance": 5189.477208440369}, {"id": "reIlBT2vdVkjqztXP73Vug", "alias": "xing-and-hui-lindas-kitchen-bronx", "name": "Xing & Hui Linda's Kitchen", "image_url": "https://s3-media4.fl.yelpcdn.com/bphoto/5XFkaKDrcb-fS_NNcuX8Kg/o.jpg", "is_closed": false, "url": "https://www.yelp.com/biz/xing-and-hui-lindas-kitchen-bronx?adjust_creative=9gNmiWYX8uTbFBeTTvJMdA&utm_campaign=yelp_api_v3&utm_medium=api_v3_business_search&utm_source=9gNmiWYX8uTbFBeTTvJMdA", "review_count": 12, "categories": [{"alias": "chinese", "title": "Chinese"}], "rating": 4.0, "coordinates": {"latitude": 40.82022, "longitude": -73.81824}, "transactions": ["delivery", "pickup"], "location": {"address1": "4006 E Tremont Ave", "address2": "", "address3": "", "city": "Bronx", "zip_code": "10465", "country": "US", "state": "NY", "display_address": ["4006 E Tremont Ave", "Bronx, NY 10465"]}, "phone": "+17189316700", "display_phone": "(718) 931-6700", "distance": 14433.917101390443}, {"id": "oh6u1GJ3jFJqQDX1oxIJAg", "alias": "new-spicy-village-new-york", "name": "New Spicy Village", "image_url": "https://s3-media4.fl.yelpcdn.com/bphoto/MrK8WeYkxW8fdo9LqopbFg/o.jpg", "is_closed": false, "url": "https://www.yelp.com/biz/new-spicy-village-new-york?adjust_creative=9gNmiWYX8uTbFBeTTvJMdA&utm_campaign=yelp_api_v3&utm_medium=api_v3_business_search&utm_source=9gNmiWYX8uTbFBeTTvJMdA", "review_count": 19, "categories": [{"alias": "noodles", "title": "Noodles"}, {"alias": "chinese", "title": "Chinese"}], "rating": 4.0, "coordinates": {"latitude": 40.71850410903944, "longitude": -73.99170488119125}, "transactions": [], "location": {"address1": "118 Eldridge St", "address2": "", "address3": null, "city": "New York", "zip_code": "10002", "country": "US", "state": "NY", "display_address": ["118 Eldridge St", "New York, NY 10002"]}, "phone": "+16466093048", "display_phone": "(646) 609-3048", "distance": 4891.657861179264}, {"id": "mEi57As_Gwyt1F73V2x__A", "alias": "1392-seafood-bbq-flushing", "name": "1392 Seafood BBQ", "image_url": "https://s3-media1.fl.yelpcdn.com/bphoto/0AMSe3Cz5OOhz5FWBZN3oA/o.jpg", "is_closed": false, "url": "https://www.yelp.com/biz/1392-seafood-bbq-flushing?adjust_creative=9gNmiWYX8uTbFBeTTvJMdA&utm_campaign=yelp_api_v3&utm_medium=api_v3_business_search&utm_source=9gNmiWYX8uTbFBeTTvJMdA", "review_count": 88, "categories": [{"alias": "seafood", "title": "Seafood"}, {"alias": "bbq", "title": "Barbeque"}, {"alias": "chinese", "title": "Chinese"}], "rating": 4.0, "coordinates": {"latitude": 40.759217, "longitude": -73.832547}, "transactions": ["delivery", "pickup"], "price": "$$", "location": {"address1": "39-16 Prince St", "address2": "", "address3": null, "city": "Flushing", "zip_code": "11354", "country": "US", "state": "NY", "display_address": ["39-16 Prince St", "Flushing, NY 11354"]}, "phone": "+17189391392", "display_phone": "(718) 939-1392", "distance": 11566.464604894709}, {"id": "ut9ZIbHxcGc9DT6h213XxQ", "alias": "chowking-jersey-city-2", "name": "Chowking", "image_url": "https://s3-media2.fl.yelpcdn.com/bphoto/6pR30J_QmNH77aY0hp9lqQ/o.jpg", "is_closed": false, "url": "https://www.yelp.com/biz/chowking-jersey-city-2?adjust_creative=9gNmiWYX8uTbFBeTTvJMdA&utm_campaign=yelp_api_v3&utm_medium=api_v3_business_search&utm_source=9gNmiWYX8uTbFBeTTvJMdA", "review_count": 44, "categories": [{"alias": "chinese", "title": "Chinese"}, {"alias": "noodles", "title": "Noodles"}, {"alias": "hotdogs", "title": "Fast Food"}], "rating": 2.0, "coordinates": {"latitude": 40.703987, "longitude": -74.098805}, "transactions": [], "price": "$$", "location": {"address1": "393 Danforth Ave", "address2": "", "address3": null, "city": "Jersey City", "zip_code": "07305", "country": "US", "state": "NJ", "display_address": ["393 Danforth Ave", "Jersey City, NJ 07305"]}, "phone": "+12015541881", "display_phone": "(201) 554-1881", "distance": 12499.193423589633}, {"id": "mhfjsCmwppbb7huUSWLSxw", "alias": "dumpling-house-woodhaven", "name": "Dumpling House", "image_url": "https://s3-media4.fl.yelpcdn.com/bphoto/CnrOkEfXbxar_FnuSKYcQA/o.jpg", "is_closed": false, "url": "https://www.yelp.com/biz/dumpling-house-woodhaven?adjust_creative=9gNmiWYX8uTbFBeTTvJMdA&utm_campaign=yelp_api_v3&utm_medium=api_v3_business_search&utm_source=9gNmiWYX8uTbFBeTTvJMdA", "review_count": 19, "categories": [{"alias": "chinese", "title": "Chinese"}], "rating": 3.5, "coordinates": {"latitude": 40.694114, "longitude": -73.849876}, "transactions": ["delivery", "pickup"], "price": "$$", "location": {"address1": "9512 Jamaica Ave", "address2": "", "address3": "", "city": "Woodhaven", "zip_code": "11421", "country": "US", "state": "NY", "display_address": ["9512 Jamaica Ave", "Woodhaven, NY 11421"]}, "phone": "+17184410054", "display_phone": "(718) 441-0054", "distance": 12411.678249344588}, {"id": "cQRQXI3-B5eGFCi_aj1IyQ", "alias": "golden-city-chinese-restaurant-new-york-2", "name": "Golden City Chinese Restaurant", "image_url": "https://s3-media2.fl.yelpcdn.com/bphoto/vlFnmPB9IdQ9_Q50BJRc-A/o.jpg", "is_closed": false, "url": "https://www.yelp.com/biz/golden-city-chinese-restaurant-new-york-2?adjust_creative=9gNmiWYX8uTbFBeTTvJMdA&utm_campaign=yelp_api_v3&utm_medium=api_v3_business_search&utm_source=9gNmiWYX8uTbFBeTTvJMdA", "review_count": 13, "categories": [{"alias": "chinese", "title": "Chinese"}], "rating": 4.5, "coordinates": {"latitude": 40.8513247, "longitude": -73.9283376}, "transactions": ["delivery", "pickup"], "price": "$", "location": {"address1": "2545 Amsterdam Ave", "address2": "", "address3": "", "city": "New York", "zip_code": "10033", "country": "US", "state": "NY", "display_address": ["2545 Amsterdam Ave", "New York, NY 10033"]}, "phone": "+12127811979", "display_phone": "(212) 781-1979", "distance": 10819.851274199968}, {"id": "cXDdNolqmPviuRWpdOs9kQ", "alias": "sky-dragon-new-york", "name": "Sky Dragon", "image_url": "https://s3-media2.fl.yelpcdn.com/bphoto/sjUoUItmU4Yx9BwKvnTeRA/o.jpg", "is_closed": false, "url": "https://www.yelp.com/biz/sky-dragon-new-york?adjust_creative=9gNmiWYX8uTbFBeTTvJMdA&utm_campaign=yelp_api_v3&utm_medium=api_v3_business_search&utm_source=9gNmiWYX8uTbFBeTTvJMdA", "review_count": 3, "categories": [{"alias": "chinese", "title": "Chinese"}], "rating": 2.5, "coordinates": {"latitude": 40.79310993465737, "longitude": -73.94088741391897}, "transactions": ["delivery", "pickup"], "location": {"address1": "2135 2nd Ave", "address2": "Ste 2", "address3": null, "city": "New York", "zip_code": "10029", "country": "US", "state": "NY", "display_address": ["2135 2nd Ave", "Ste 2", "New York, NY 10029"]}, "phone": "+16466494708", "display_phone": "(646) 649-4708", "distance": 4480.3437927322275}, {"id": "IYVeY3q78hefg6o3IHbFSw", "alias": "noodle-bowl-new-york", "name": "Noodle Bowl", "image_url": "https://s3-media4.fl.yelpcdn.com/bphoto/L89fgDmHTG72WwuSAfvLKw/o.jpg", "is_closed": false, "url": "https://www.yelp.com/biz/noodle-bowl-new-york?adjust_creative=9gNmiWYX8uTbFBeTTvJMdA&utm_campaign=yelp_api_v3&utm_medium=api_v3_business_search&utm_source=9gNmiWYX8uTbFBeTTvJMdA", "review_count": 2, "categories": [{"alias": "chinese", "title": "Chinese"}, {"alias": "noodles", "title": "Noodles"}], "rating": 2.0, "coordinates": {"latitude": 40.8290427, "longitude": -73.9280077}, "transactions": [], "location": {"address1": "17-43 E 161st St", "address2": "", "address3": "New Yankees Stadium", "city": "New York", "zip_code": "10451", "country": "US", "state": "NY", "display_address": ["17-43 E 161st St", "New Yankees Stadium", "New York, NY 10451"]}, "phone": "", "display_phone": "", "distance": 8489.143967703687}, {"id": "-3A-kTdW-P32hoOMQeBl-A", "alias": "six-happiness-restaurant-bronx", "name": "Six Happiness Restaurant", "image_url": "https://s3-media3.fl.yelpcdn.com/bphoto/ghJg68GGh0wYctnoUASEdw/o.jpg", "is_closed": false, "url": "https://www.yelp.com/biz/six-happiness-restaurant-bronx?adjust_creative=9gNmiWYX8uTbFBeTTvJMdA&utm_campaign=yelp_api_v3&utm_medium=api_v3_business_search&utm_source=9gNmiWYX8uTbFBeTTvJMdA", "review_count": 29, "categories": [{"alias": "newamerican", "title": "American (New)"}, {"alias": "chinese", "title": "Chinese"}], "rating": 4.0, "coordinates": {"latitude": 40.84057, "longitude": -73.8295}, "transactions": ["delivery"], "price": "$$", "location": {"address1": "1378 Crosby Ave", "address2": "", "address3": "", "city": "Bronx", "zip_code": "10461", "country": "US", "state": "NY", "display_address": ["1378 Crosby Ave", "Bronx, NY 10461"]}, "phone": "+17186788888", "display_phone": "(718) 678-8888", "distance": 14867.72744564696}, {"id": "6Jjz97KPJ0jtmmIBCjReEw", "alias": "hou-yi-hot-pot-new-york", "name": "Hou Yi Hot Pot", "image_url": "https://s3-media4.fl.yelpcdn.com/bphoto/FoarlGiZDU6FrrUqY8-Owg/o.jpg", "is_closed": false, "url": "https://www.yelp.com/biz/hou-yi-hot-pot-new-york?adjust_creative=9gNmiWYX8uTbFBeTTvJMdA&utm_campaign=yelp_api_v3&utm_medium=api_v3_business_search&utm_source=9gNmiWYX8uTbFBeTTvJMdA", "review_count": 509, "categories": [{"alias": "hotpot", "title": "Hot Pot"}], "rating": 4.0, "coordinates": {"latitude": 40.7161793, "longitude": -73.9925896}, "transactions": [], "price": "$$$", "location": {"address1": "92 Hester St", "address2": "", "address3": "", "city": "New York", "zip_code": "10002", "country": "US", "state": "NY", "display_address": ["92 Hester St", "New York, NY 10002"]}, "phone": "+12129663420", "display_phone": "(212) 966-3420", "distance": 5159.158268996748}, {"id": "VaDTMmv1Yq7A4xBhd1Mb_Q", "alias": "sanyuu-west-new-york", "name": "Sanyuu West", "image_url": "https://s3-media3.fl.yelpcdn.com/bphoto/CP_ayxaA6UgqqAmlFoHZUA/o.jpg", "is_closed": false, "url": "https://www.yelp.com/biz/sanyuu-west-new-york?adjust_creative=9gNmiWYX8uTbFBeTTvJMdA&utm_campaign=yelp_api_v3&utm_medium=api_v3_business_search&utm_source=9gNmiWYX8uTbFBeTTvJMdA", "review_count": 63, "categories": [{"alias": "sushi", "title": "Sushi Bars"}, {"alias": "asianfusion", "title": "Asian Fusion"}, {"alias": "japanese", "title": "Japanese"}], "rating": 4.5, "coordinates": {"latitude": 40.74156, "longitude": -73.99932}, "transactions": [], "price": "$$$$", "location": {"address1": "228 W 18th St", "address2": null, "address3": "", "city": "New York", "zip_code": "10011", "country": "US", "state": "NY", "display_address": ["228 W 18th St", "New York, NY 10011"]}, "phone": "+13477256580", "display_phone": "(347) 725-6580", "distance": 3188.0076291578926}, {"id": "QDApjjZAPxFvvbll86NMTA", "alias": "hak-box-new-york-2", "name": "Hak Box", "image_url": "https://s3-media4.fl.yelpcdn.com/bphoto/FSmNgbfJdqNp_s1C96cK7g/o.jpg", "is_closed": false, "url": "https://www.yelp.com/biz/hak-box-new-york-2?adjust_creative=9gNmiWYX8uTbFBeTTvJMdA&utm_campaign=yelp_api_v3&utm_medium=api_v3_business_search&utm_source=9gNmiWYX8uTbFBeTTvJMdA", "review_count": 101, "categories": [{"alias": "dimsum", "title": "Dim Sum"}, {"alias": "cantonese", "title": "Cantonese"}], "rating": 4.5, "coordinates": {"latitude": 40.714, "longitude": -73.99439}, "transactions": ["delivery", "pickup"], "price": "$", "location": {"address1": "88 E Broadway", "address2": "Unit 106", "address3": "Located Outside on Forsyth Street", "city": "New York", "zip_code": "10002", "country": "US", "state": "NY", "display_address": ["88 E Broadway", "Unit 106", "Located Outside on Forsyth Street", "New York, NY 10002"]}, "phone": "+16465900535", "display_phone": "(646) 590-0535", "distance": 5450.901100515279}, {"id": "wFjW3d0PDr2Lb_54RmnB6Q", "alias": "tlk-by-tigerlily-kitchen-new-york-2", "name": "TLK by Tigerlily Kitchen", "image_url": "https://s3-media3.fl.yelpcdn.com/bphoto/5WPH9I1p0xsWF4eroq9dcQ/o.jpg", "is_closed": false, "url": "https://www.yelp.com/biz/tlk-by-tigerlily-kitchen-new-york-2?adjust_creative=9gNmiWYX8uTbFBeTTvJMdA&utm_campaign=yelp_api_v3&utm_medium=api_v3_business_search&utm_source=9gNmiWYX8uTbFBeTTvJMdA", "review_count": 59, "categories": [{"alias": "gluten_free", "title": "Gluten-Free"}, {"alias": "panasian", "title": "Pan Asian"}, {"alias": "cocktailbars", "title": "Cocktail Bars"}], "rating": 4.5, "coordinates": {"latitude": 40.73116944194413, "longitude": -73.98908630204441}, "transactions": ["delivery", "pickup"], "location": {"address1": "58 3rd Ave", "address2": null, "address3": "", "city": "New York", "zip_code": "10003", "country": "US", "state": "NY", "display_address": ["58 3rd Ave", "New York, NY 10003"]}, "phone": "+19293738992", "display_phone": "(929) 373-8992", "distance": 3521.2601265438548}, {"id": "6qYic55Ho8xEL_iWxlrGSg", "alias": "zous-restaurant-crown-heights", "name": "Zou's Restaurant", "image_url": "https://s3-media3.fl.yelpcdn.com/bphoto/AYnAd_3Lc7I1ysDuedJAyA/o.jpg", "is_closed": false, "url": "https://www.yelp.com/biz/zous-restaurant-crown-heights?adjust_creative=9gNmiWYX8uTbFBeTTvJMdA&utm_campaign=yelp_api_v3&utm_medium=api_v3_business_search&utm_source=9gNmiWYX8uTbFBeTTvJMdA", "review_count": 2, "categories": [{"alias": "diyfood", "title": "Do-It-Yourself Food"}, {"alias": "chinese", "title": "Chinese"}], "rating": 4.5, "coordinates": {"latitude": 40.670791, "longitude": -73.930656}, "transactions": [], "location": {"address1": "233 Utica Ave", "address2": "", "address3": "", "city": "Crown Heights", "zip_code": "11213", "country": "US", "state": "NY", "display_address": ["233 Utica Ave", "Crown Heights, NY 11213"]}, "phone": "+17188778599", "display_phone": "(718) 877-8599", "distance": 10356.686274593518}, {"id": "tW-m7SgUtmMffH8YtqwpeQ", "alias": "istambayan-jersey-city", "name": "Istambayan", "image_url": "https://s3-media3.fl.yelpcdn.com/bphoto/iOfLNIbFW6FGAUoBJvFxMQ/o.jpg", "is_closed": false, "url": "https://www.yelp.com/biz/istambayan-jersey-city?adjust_creative=9gNmiWYX8uTbFBeTTvJMdA&utm_campaign=yelp_api_v3&utm_medium=api_v3_business_search&utm_source=9gNmiWYX8uTbFBeTTvJMdA", "review_count": 2, "categories": [{"alias": "chinese", "title": "Chinese"}, {"alias": "filipino", "title": "Filipino"}, {"alias": "seafood", "title": "Seafood"}], "rating": 5.0, "coordinates": {"latitude": 40.7111445, "longitude": -74.0928989}, "transactions": [], "location": {"address1": "226 W Side Ave", "address2": null, "address3": null, "city": "Jersey City", "zip_code": "07305", "country": "US", "state": "NJ", "display_address": ["226 W Side Ave", "Jersey City, NJ 07305"]}, "phone": "+12012679716", "display_phone": "(201) 267-9716", "distance": 11683.04044611522}, {"id": "1E7lCNaRAM1Da0vkt5rcvw", "alias": "thai-mission-maspeth", "name": "Thai Mission", "image_url": "https://s3-media3.fl.yelpcdn.com/bphoto/maBM3OS3-i2arUemaK9hfA/o.jpg", "is_closed": false, "url": "https://www.yelp.com/biz/thai-mission-maspeth?adjust_creative=9gNmiWYX8uTbFBeTTvJMdA&utm_campaign=yelp_api_v3&utm_medium=api_v3_business_search&utm_source=9gNmiWYX8uTbFBeTTvJMdA", "review_count": 96, "categories": [{"alias": "thai", "title": "Thai"}, {"alias": "asianfusion", "title": "Asian Fusion"}, {"alias": "bars", "title": "Bars"}], "rating": 4.5, "coordinates": {"latitude": 40.72779, "longitude": -73.89279}, "transactions": ["delivery", "pickup"], "location": {"address1": "70-11 Grand Ave", "address2": null, "address3": "", "city": "Maspeth", "zip_code": "11378", "country": "US", "state": "NY", "display_address": ["70-11 Grand Ave", "Maspeth, NY 11378"]}, "phone": "+19293280328", "display_phone": "(929) 328-0328", "distance": 7349.716488525766}, {"id": "vFmBN7U25QAIpTjK_EFmfA", "alias": "xiun-wei-restaurant-bronx", "name": "Xiun Wei Restaurant", "image_url": "https://s3-media1.fl.yelpcdn.com/bphoto/ETSgmHB0aAuFlWVYWsZsQg/o.jpg", "is_closed": false, "url": "https://www.yelp.com/biz/xiun-wei-restaurant-bronx?adjust_creative=9gNmiWYX8uTbFBeTTvJMdA&utm_campaign=yelp_api_v3&utm_medium=api_v3_business_search&utm_source=9gNmiWYX8uTbFBeTTvJMdA", "review_count": 3, "categories": [{"alias": "chinese", "title": "Chinese"}], "rating": 4.5, "coordinates": {"latitude": 40.84025025958728, "longitude": -73.84211967285627}, "transactions": ["delivery"], "location": {"address1": "124 Westchester Square", "address2": "Store 3", "address3": null, "city": "Bronx", "zip_code": "10461", "country": "US", "state": "NY", "display_address": ["124 Westchester Square", "Store 3", "Bronx, NY 10461"]}, "phone": "+17188636888", "display_phone": "(718) 863-6888", "distance": 14013.258176806496}, {"id": "RFgVkZHcWKD19vHFESuVLw", "alias": "ruyi-seafood-restaurant-elmhurst", "name": "RuYi Seafood Restaurant", "image_url": "https://s3-media1.fl.yelpcdn.com/bphoto/XdVosUtjb-86tKED9n0dww/o.jpg", "is_closed": false, "url": "https://www.yelp.com/biz/ruyi-seafood-restaurant-elmhurst?adjust_creative=9gNmiWYX8uTbFBeTTvJMdA&utm_campaign=yelp_api_v3&utm_medium=api_v3_business_search&utm_source=9gNmiWYX8uTbFBeTTvJMdA", "review_count": 19, "categories": [{"alias": "seafood", "title": "Seafood"}, {"alias": "chinese", "title": "Chinese"}], "rating": 3.0, "coordinates": {"latitude": 40.74021, "longitude": -73.87925}, "transactions": ["delivery", "pickup"], "price": "$", "location": {"address1": "83-34 Broadway", "address2": "", "address3": "", "city": "Elmhurst", "zip_code": "11373", "country": "US", "state": "NY", "display_address": ["83-34 Broadway", "Elmhurst, NY 11373"]}, "phone": "+17186393366", "display_phone": "(718) 639-3366", "distance": 7890.007893414344}, {"id": "00J0yKkOuOxMhqt-Dg9daw", "alias": "panda-express-new-york-20", "name": "Panda Express", "image_url": "https://s3-media1.fl.yelpcdn.com/bphoto/FWNSGRNfb5onKy9AMo9AYg/o.jpg", "is_closed": false, "url": "https://www.yelp.com/biz/panda-express-new-york-20?adjust_creative=9gNmiWYX8uTbFBeTTvJMdA&utm_campaign=yelp_api_v3&utm_medium=api_v3_business_search&utm_source=9gNmiWYX8uTbFBeTTvJMdA", "review_count": 86, "categories": [{"alias": "chinese", "title": "Chinese"}, {"alias": "hotdogs", "title": "Fast Food"}], "rating": 3.0, "coordinates": {"latitude": 40.7501065718521, "longitude": -73.9948594942689}, "transactions": ["delivery", "pickup"], "price": "$", "location": {"address1": "414 Eighth Avenue", "address2": "", "address3": null, "city": "New York", "zip_code": "10001", "country": "US", "state": "NY", "display_address": ["414 Eighth Avenue", "New York, NY 10001"]}, "phone": "+19176393302", "display_phone": "(917) 639-3302", "distance": 2356.464557472945}, {"id": "5Af-b4fp6Pq8jpTYRPpNIQ", "alias": "shun-feng-kitchen-brooklyn", "name": "Shun Feng Kitchen", "image_url": "https://s3-media2.fl.yelpcdn.com/bphoto/aiuU-qRL0k02Lh8MrrUqNA/o.jpg", "is_closed": false, "url": "https://www.yelp.com/biz/shun-feng-kitchen-brooklyn?adjust_creative=9gNmiWYX8uTbFBeTTvJMdA&utm_campaign=yelp_api_v3&utm_medium=api_v3_business_search&utm_source=9gNmiWYX8uTbFBeTTvJMdA", "review_count": 4, "categories": [{"alias": "chinese", "title": "Chinese"}], "rating": 3.0, "coordinates": {"latitude": 40.66348, "longitude": -73.88873}, "transactions": ["delivery"], "price": "$", "location": {"address1": "524 New Lots Ave", "address2": null, "address3": null, "city": "Brooklyn", "zip_code": "11207", "country": "US", "state": "NY", "display_address": ["524 New Lots Ave", "Brooklyn, NY 11207"]}, "phone": "+17182723888", "display_phone": "(718) 272-3888", "distance": 12633.493940472263}, {"id": "MwmXUth8tZBJ0cqg_ouzog", "alias": "lucky-star-chinese-restaurant-bronx", "name": "Lucky Star Chinese Restaurant", "image_url": "https://s3-media3.fl.yelpcdn.com/bphoto/LX7PokFmKVa7cLNXtw5J_A/o.jpg", "is_closed": false, "url": "https://www.yelp.com/biz/lucky-star-chinese-restaurant-bronx?adjust_creative=9gNmiWYX8uTbFBeTTvJMdA&utm_campaign=yelp_api_v3&utm_medium=api_v3_business_search&utm_source=9gNmiWYX8uTbFBeTTvJMdA", "review_count": 39, "categories": [{"alias": "chinese", "title": "Chinese"}], "rating": 3.5, "coordinates": {"latitude": 40.832484, "longitude": -73.859553}, "transactions": ["delivery", "pickup"], "price": "$", "location": {"address1": "1924 Cross Bronx Expy", "address2": "", "address3": "", "city": "Bronx", "zip_code": "10472", "country": "US", "state": "NY", "display_address": ["1924 Cross Bronx Expy", "Bronx, NY 10472"]}, "phone": "+17188633900", "display_phone": "(718) 863-3900", "distance": 12342.775274513797}, {"id": "lnI9toC-uAhBIbtHDMxvcA", "alias": "indika-house-brooklyn", "name": "Indika House", "image_url": "https://s3-media3.fl.yelpcdn.com/bphoto/hFD0a5SaICalC1Z_ROBXCw/o.jpg", "is_closed": false, "url": "https://www.yelp.com/biz/indika-house-brooklyn?adjust_creative=9gNmiWYX8uTbFBeTTvJMdA&utm_campaign=yelp_api_v3&utm_medium=api_v3_business_search&utm_source=9gNmiWYX8uTbFBeTTvJMdA", "review_count": 118, "categories": [{"alias": "indpak", "title": "Indian"}, {"alias": "asianfusion", "title": "Asian Fusion"}], "rating": 4.5, "coordinates": {"latitude": 40.69716, "longitude": -73.9353}, "transactions": ["delivery", "pickup"], "price": "$$", "location": {"address1": "943 Broadway", "address2": null, "address3": "", "city": "Brooklyn", "zip_code": "11206", "country": "US", "state": "NY", "display_address": ["943 Broadway", "Brooklyn, NY 11206"]}, "phone": "+17184843600", "display_phone": "(718) 484-3600", "distance": 7476.539597522628}, {"id": "k8vE6g59i4JrAmXd6K1g5w", "alias": "friendship-foods-bbq-flushing", "name": "Friendship Foods BBQ", "image_url": "https://s3-media4.fl.yelpcdn.com/bphoto/HigGxoO2tGqtFEsgeN2bnQ/o.jpg", "is_closed": false, "url": "https://www.yelp.com/biz/friendship-foods-bbq-flushing?adjust_creative=9gNmiWYX8uTbFBeTTvJMdA&utm_campaign=yelp_api_v3&utm_medium=api_v3_business_search&utm_source=9gNmiWYX8uTbFBeTTvJMdA", "review_count": 335, "categories": [{"alias": "bbq", "title": "Barbeque"}, {"alias": "hotpot", "title": "Hot Pot"}], "rating": 4.0, "coordinates": {"latitude": 40.76071, "longitude": -73.82759}, "transactions": ["delivery", "pickup"], "price": "$$", "location": {"address1": "136-76 39th Ave", "address2": "Lower floor", "address3": null, "city": "Flushing", "zip_code": "11354", "country": "US", "state": "NY", "display_address": ["136-76 39th Ave", "Lower floor", "Flushing, NY 11354"]}, "phone": "+19175637856", "display_phone": "(917) 563-7856", "distance": 11952.881290203379}, {"id": "SW1yjGhC9kuePjUSesJmnQ", "alias": "wei-zhi-jia-us-queens", "name": "Wei Zhi Jia Us", "image_url": "", "is_closed": false, "url": "https://www.yelp.com/biz/wei-zhi-jia-us-queens?adjust_creative=9gNmiWYX8uTbFBeTTvJMdA&utm_campaign=yelp_api_v3&utm_medium=api_v3_business_search&utm_source=9gNmiWYX8uTbFBeTTvJMdA", "review_count": 1, "categories": [{"alias": "chinese", "title": "Chinese"}], "rating": 4.0, "coordinates": {"latitude": 40.71477, "longitude": -73.91317}, "transactions": [], "location": {"address1": "54-02 Flushing Ave", "address2": null, "address3": "", "city": "Queens", "zip_code": "11378", "country": "US", "state": "NY", "display_address": ["54-02 Flushing Ave", "Queens, NY 11378"]}, "phone": "+17184560066", "display_phone": "(718) 456-0066", "distance": 6843.468730493344}, {"id": "_6nI_J5Kzj12oHMfjR3A4A", "alias": "u-like-chinese-take-out-new-york", "name": "U Like Chinese Take Out", "image_url": "https://s3-media2.fl.yelpcdn.com/bphoto/L_9xGFKR8xhQKHegDhfWOA/o.jpg", "is_closed": false, "url": "https://www.yelp.com/biz/u-like-chinese-take-out-new-york?adjust_creative=9gNmiWYX8uTbFBeTTvJMdA&utm_campaign=yelp_api_v3&utm_medium=api_v3_business_search&utm_source=9gNmiWYX8uTbFBeTTvJMdA", "review_count": 89, "categories": [{"alias": "chinese", "title": "Chinese"}], "rating": 3.0, "coordinates": {"latitude": 40.8674342, "longitude": -73.9215025}, "transactions": ["delivery", "pickup"], "price": "$", "location": {"address1": "4926 Broadway", "address2": "", "address3": "", "city": "New York", "zip_code": "10034", "country": "US", "state": "NY", "display_address": ["4926 Broadway", "New York, NY 10034"]}, "phone": "+12125693333", "display_phone": "(212) 569-3333", "distance": 12689.905963169485}, {"id": "u1aeWjvebECChpm5IbUUkA", "alias": "teri-teri-japanese-restaurant-union-city", "name": "Teri Teri Japanese Restaurant", "image_url": "https://s3-media3.fl.yelpcdn.com/bphoto/uDP5FxxbciPY89o0X6CT2w/o.jpg", "is_closed": false, "url": "https://www.yelp.com/biz/teri-teri-japanese-restaurant-union-city?adjust_creative=9gNmiWYX8uTbFBeTTvJMdA&utm_campaign=yelp_api_v3&utm_medium=api_v3_business_search&utm_source=9gNmiWYX8uTbFBeTTvJMdA", "review_count": 56, "categories": [{"alias": "japanese", "title": "Japanese"}, {"alias": "sushi", "title": "Sushi Bars"}, {"alias": "asianfusion", "title": "Asian Fusion"}], "rating": 3.0, "coordinates": {"latitude": 40.7734299632411, "longitude": -74.0283109992743}, "transactions": ["delivery", "pickup"], "price": "$$", "location": {"address1": "3415 Bergenline Ave", "address2": "", "address3": "", "city": "Union City", "zip_code": "07087", "country": "US", "state": "NJ", "display_address": ["3415 Bergenline Ave", "Union City, NJ 07087"]}, "phone": "+12015529375", "display_phone": "(201) 552-9375", "distance": 5194.39764143563}, {"id": "LktxVJKPev11aC5SeqlLTA", "alias": "daxi-sichuan-\u5927\u559c-flushing", "name": "Daxi Sichuan \u5927\u559c", "image_url": "https://s3-media1.fl.yelpcdn.com/bphoto/jSKDtalrLAG5QH7BpcZXCA/o.jpg", "is_closed": false, "url": "https://www.yelp.com/biz/daxi-sichuan-%E5%A4%A7%E5%96%9C-flushing?adjust_creative=9gNmiWYX8uTbFBeTTvJMdA&utm_campaign=yelp_api_v3&utm_medium=api_v3_business_search&utm_source=9gNmiWYX8uTbFBeTTvJMdA", "review_count": 330, "categories": [{"alias": "szechuan", "title": "Szechuan"}], "rating": 4.0, "coordinates": {"latitude": 40.75933, "longitude": -73.8291799}, "transactions": ["delivery"], "price": "$$$", "location": {"address1": "136-20 Roosevelt Ave", "address2": "Ste 2R", "address3": null, "city": "Flushing", "zip_code": "11354", "country": "US", "state": "NY", "display_address": ["136-20 Roosevelt Ave", "Ste 2R", "Flushing, NY 11354"]}, "phone": "+17186219999", "display_phone": "(718) 621-9999", "distance": 11828.62107663432}, {"id": "2VQDEQuK3xLFNktPBIpmuQ", "alias": "new-aroma-chinese-restaurant-new-york", "name": "New Aroma Chinese Restaurant", "image_url": "https://s3-media2.fl.yelpcdn.com/bphoto/9-oe4px6s3yMb-ozCM3H-Q/o.jpg", "is_closed": false, "url": "https://www.yelp.com/biz/new-aroma-chinese-restaurant-new-york?adjust_creative=9gNmiWYX8uTbFBeTTvJMdA&utm_campaign=yelp_api_v3&utm_medium=api_v3_business_search&utm_source=9gNmiWYX8uTbFBeTTvJMdA", "review_count": 30, "categories": [{"alias": "chinese", "title": "Chinese"}], "rating": 3.5, "coordinates": {"latitude": 40.8132171630859, "longitude": -73.9557037353516}, "transactions": ["delivery"], "price": "$", "location": {"address1": "465 W 125th St", "address2": "", "address3": "", "city": "New York", "zip_code": "10027", "country": "US", "state": "NY", "display_address": ["465 W 125th St", "New York, NY 10027"]}, "phone": "+12129328706", "display_phone": "(212) 932-8706", "distance": 6120.997313097659}, {"id": "zPK48x2wvTmJTQ_13bbeRQ", "alias": "hong-kong-cafe-brooklyn", "name": "Hong Kong Cafe", "image_url": "https://s3-media3.fl.yelpcdn.com/bphoto/1VHgxZ-Ve0JPx-6FLeuOUg/o.jpg", "is_closed": false, "url": "https://www.yelp.com/biz/hong-kong-cafe-brooklyn?adjust_creative=9gNmiWYX8uTbFBeTTvJMdA&utm_campaign=yelp_api_v3&utm_medium=api_v3_business_search&utm_source=9gNmiWYX8uTbFBeTTvJMdA", "review_count": 51, "categories": [{"alias": "chinese", "title": "Chinese"}], "rating": 4.0, "coordinates": {"latitude": 40.687267, "longitude": -73.95667}, "transactions": ["delivery", "pickup"], "price": "$", "location": {"address1": "357 Franklin Ave", "address2": "", "address3": "", "city": "Brooklyn", "zip_code": "11238", "country": "US", "state": "NY", "display_address": ["357 Franklin Ave", "Brooklyn, NY 11238"]}, "phone": "+17187833838", "display_phone": "(718) 783-3838", "distance": 8069.3705531172145}, {"id": "6qK0MyhsXYLgMSPWZdleGA", "alias": "dai-hachi-sushi-new-york-2", "name": "Dai Hachi Sushi", "image_url": "https://s3-media2.fl.yelpcdn.com/bphoto/YSOTa7ffCMGnDHbQVrtrNg/o.jpg", "is_closed": false, "url": "https://www.yelp.com/biz/dai-hachi-sushi-new-york-2?adjust_creative=9gNmiWYX8uTbFBeTTvJMdA&utm_campaign=yelp_api_v3&utm_medium=api_v3_business_search&utm_source=9gNmiWYX8uTbFBeTTvJMdA", "review_count": 231, "categories": [{"alias": "japanese", "title": "Japanese"}, {"alias": "sushi", "title": "Sushi Bars"}, {"alias": "noodles", "title": "Noodles"}], "rating": 4.0, "coordinates": {"latitude": 40.75886, "longitude": -73.96539}, "transactions": ["delivery", "pickup"], "price": "$$", "location": {"address1": "1074 2nd Ave", "address2": "", "address3": "", "city": "New York", "zip_code": "10022", "country": "US", "state": "NY", "display_address": ["1074 2nd Ave", "New York, NY 10022"]}, "phone": "+19177939130", "display_phone": "(917) 793-9130", "distance": 360.43331365058}, {"id": "OXTcpNk9ZXuOxPnjpcSs7w", "alias": "pearl-garden-whitestone", "name": "Pearl Garden", "image_url": "https://s3-media1.fl.yelpcdn.com/bphoto/CdQR6D83UxQ4FPyi-MceUQ/o.jpg", "is_closed": false, "url": "https://www.yelp.com/biz/pearl-garden-whitestone?adjust_creative=9gNmiWYX8uTbFBeTTvJMdA&utm_campaign=yelp_api_v3&utm_medium=api_v3_business_search&utm_source=9gNmiWYX8uTbFBeTTvJMdA", "review_count": 149, "categories": [{"alias": "chinese", "title": "Chinese"}, {"alias": "taiwanese", "title": "Taiwanese"}], "rating": 4.5, "coordinates": {"latitude": 40.786695, "longitude": -73.8219}, "transactions": ["delivery"], "price": "$", "location": {"address1": "14508 14th Ave", "address2": "", "address3": "", "city": "Whitestone", "zip_code": "11357", "country": "US", "state": "NY", "display_address": ["14508 14th Ave", "Whitestone, NY 11357"]}, "phone": "+17187677854", "display_phone": "(718) 767-7854", "distance": 12805.139874441142}, {"id": "E_V_pCjtbvdniE8ECOMg3Q", "alias": "great-wall-chinese-restaurant-east-elmhurst", "name": "Great Wall Chinese Restaurant", "image_url": "https://s3-media4.fl.yelpcdn.com/bphoto/7nsFlgCcM0I1YiBWpKhmyQ/o.jpg", "is_closed": false, "url": "https://www.yelp.com/biz/great-wall-chinese-restaurant-east-elmhurst?adjust_creative=9gNmiWYX8uTbFBeTTvJMdA&utm_campaign=yelp_api_v3&utm_medium=api_v3_business_search&utm_source=9gNmiWYX8uTbFBeTTvJMdA", "review_count": 38, "categories": [{"alias": "chinese", "title": "Chinese"}], "rating": 3.5, "coordinates": {"latitude": 40.7638765, "longitude": -73.8816184}, "transactions": ["delivery", "pickup"], "price": "$", "location": {"address1": "87-12 Astoria Blvd", "address2": "", "address3": "", "city": "East Elmhurst", "zip_code": "11369", "country": "US", "state": "NY", "display_address": ["87-12 Astoria Blvd", "East Elmhurst, NY 11369"]}, "phone": "+17184786433", "display_phone": "(718) 478-6433", "distance": 7411.2273214173965}, {"id": "KUW8hx5kinOT_XJj3ttCDQ", "alias": "go-noodle-nine-moon-new-york", "name": "Go Noodle Nine Moon", "image_url": "https://s3-media2.fl.yelpcdn.com/bphoto/-MLTieBHNAmi9CVNyHeeSg/o.jpg", "is_closed": false, "url": "https://www.yelp.com/biz/go-noodle-nine-moon-new-york?adjust_creative=9gNmiWYX8uTbFBeTTvJMdA&utm_campaign=yelp_api_v3&utm_medium=api_v3_business_search&utm_source=9gNmiWYX8uTbFBeTTvJMdA", "review_count": 71, "categories": [{"alias": "chinese", "title": "Chinese"}, {"alias": "noodles", "title": "Noodles"}, {"alias": "soup", "title": "Soup"}], "rating": 3.5, "coordinates": {"latitude": 40.75932, "longitude": -73.96254}, "transactions": ["delivery", "pickup"], "price": "$", "location": {"address1": "1069 1st Ave", "address2": "", "address3": "", "city": "New York", "zip_code": "10022", "country": "US", "state": "NY", "display_address": ["1069 1st Ave", "New York, NY 10022"]}, "phone": "+12128886366", "display_phone": "(212) 888-6366", "distance": 595.8515776215432}, {"id": "tfMPbnQqJ1P1RIab-o6gtg", "alias": "kum-kau-brooklyn", "name": "Kum Kau", "image_url": "https://s3-media3.fl.yelpcdn.com/bphoto/xnlCeIGQnJgDsq1wJDJwcg/o.jpg", "is_closed": false, "url": "https://www.yelp.com/biz/kum-kau-brooklyn?adjust_creative=9gNmiWYX8uTbFBeTTvJMdA&utm_campaign=yelp_api_v3&utm_medium=api_v3_business_search&utm_source=9gNmiWYX8uTbFBeTTvJMdA", "review_count": 283, "categories": [{"alias": "chinese", "title": "Chinese"}], "rating": 3.0, "coordinates": {"latitude": 40.693573, "longitude": -73.966702}, "transactions": ["pickup"], "price": "$$", "location": {"address1": "465 Myrtle Ave", "address2": "", "address3": "", "city": "Brooklyn", "zip_code": "11205", "country": "US", "state": "NY", "display_address": ["465 Myrtle Ave", "Brooklyn, NY 11205"]}, "phone": "+17186381850", "display_phone": "(718) 638-1850", "distance": 7298.582380970681}, {"id": "6whhXAV-C9L9oM9yAV6cbg", "alias": "dragon-yuan-bronx", "name": "Dragon Yuan", "image_url": "https://s3-media2.fl.yelpcdn.com/bphoto/FTLknsXhOJYHcoI5n6EJpw/o.jpg", "is_closed": false, "url": "https://www.yelp.com/biz/dragon-yuan-bronx?adjust_creative=9gNmiWYX8uTbFBeTTvJMdA&utm_campaign=yelp_api_v3&utm_medium=api_v3_business_search&utm_source=9gNmiWYX8uTbFBeTTvJMdA", "review_count": 3, "categories": [{"alias": "chinese", "title": "Chinese"}], "rating": 2.5, "coordinates": {"latitude": 40.8168999, "longitude": -73.92282}, "transactions": ["delivery", "pickup"], "location": {"address1": "526 Morris Ave", "address2": "", "address3": "", "city": "Bronx", "zip_code": "10451", "country": "US", "state": "NY", "display_address": ["526 Morris Ave", "Bronx, NY 10451"]}, "phone": "+17189938898", "display_phone": "(718) 993-8898", "distance": 7531.841163615424}, {"id": "C3cKsJ1SoYYCkM0D0K2DpA", "alias": "new-dragon-new-york", "name": "New Dragon", "image_url": "https://s3-media1.fl.yelpcdn.com/bphoto/Oo4b4gBxLZ0YsPjjT9aZ5Q/o.jpg", "is_closed": false, "url": "https://www.yelp.com/biz/new-dragon-new-york?adjust_creative=9gNmiWYX8uTbFBeTTvJMdA&utm_campaign=yelp_api_v3&utm_medium=api_v3_business_search&utm_source=9gNmiWYX8uTbFBeTTvJMdA", "review_count": 18, "categories": [{"alias": "chinese", "title": "Chinese"}], "rating": 2.5, "coordinates": {"latitude": 40.8020401, "longitude": -73.9344788}, "transactions": ["delivery", "pickup"], "price": "$", "location": {"address1": "2413 2nd Ave", "address2": "", "address3": "", "city": "New York", "zip_code": "10035", "country": "US", "state": "NY", "display_address": ["2413 2nd Ave", "New York, NY 10035"]}, "phone": "+12124271039", "display_phone": "(212) 427-1039", "distance": 5609.654380954781}, {"id": "oEtZCrpEeQDYou3edW9hkw", "alias": "chens-kitchen-hoboken", "name": "Chen's Kitchen", "image_url": "https://s3-media1.fl.yelpcdn.com/bphoto/mOTChC-3zjE5FBWZUnlHAQ/o.jpg", "is_closed": false, "url": "https://www.yelp.com/biz/chens-kitchen-hoboken?adjust_creative=9gNmiWYX8uTbFBeTTvJMdA&utm_campaign=yelp_api_v3&utm_medium=api_v3_business_search&utm_source=9gNmiWYX8uTbFBeTTvJMdA", "review_count": 24, "categories": [{"alias": "chinese", "title": "Chinese"}], "rating": 4.0, "coordinates": {"latitude": 40.74183, "longitude": -74.03993}, "transactions": ["delivery", "pickup"], "price": "$", "location": {"address1": "301 Jackson St", "address2": null, "address3": null, "city": "Hoboken", "zip_code": "07030", "country": "US", "state": "NJ", "display_address": ["301 Jackson St", "Hoboken, NJ 07030"]}, "phone": "+12016560949", "display_phone": "(201) 656-0949", "distance": 6224.0500681172}, {"id": "s3I5FZ-4Awiyph58ijD8Xg", "alias": "oriental-chinese-restaurant-new-york", "name": "Oriental Chinese Restaurant", "image_url": "https://s3-media3.fl.yelpcdn.com/bphoto/NrIW4gMBJxQskwu1TFo09g/o.jpg", "is_closed": false, "url": "https://www.yelp.com/biz/oriental-chinese-restaurant-new-york?adjust_creative=9gNmiWYX8uTbFBeTTvJMdA&utm_campaign=yelp_api_v3&utm_medium=api_v3_business_search&utm_source=9gNmiWYX8uTbFBeTTvJMdA", "review_count": 13, "categories": [{"alias": "chinese", "title": "Chinese"}], "rating": 2.5, "coordinates": {"latitude": 40.8337324320757, "longitude": -73.9447835513302}, "transactions": ["delivery"], "price": "$", "location": {"address1": "3774 Broadway", "address2": "", "address3": null, "city": "New York", "zip_code": "10032", "country": "US", "state": "NY", "display_address": ["3774 Broadway", "New York, NY 10032"]}, "phone": "+12122814136", "display_phone": "(212) 281-4136", "distance": 8549.038921924315}, {"id": "ZpifrJsBsz7RUT1_Tyu9nQ", "alias": "hot-space-brooklyn", "name": "Hot Space", "image_url": "https://s3-media4.fl.yelpcdn.com/bphoto/Lb0-vnfQGsUnueSugxvx5A/o.jpg", "is_closed": false, "url": "https://www.yelp.com/biz/hot-space-brooklyn?adjust_creative=9gNmiWYX8uTbFBeTTvJMdA&utm_campaign=yelp_api_v3&utm_medium=api_v3_business_search&utm_source=9gNmiWYX8uTbFBeTTvJMdA", "review_count": 167, "categories": [{"alias": "szechuan", "title": "Szechuan"}, {"alias": "seafood", "title": "Seafood"}], "rating": 4.5, "coordinates": {"latitude": 40.64068, "longitude": -74.00476}, "transactions": ["delivery"], "price": "$$", "location": {"address1": "774 51st St", "address2": null, "address3": "", "city": "Brooklyn", "zip_code": "11220", "country": "US", "state": "NY", "display_address": ["774 51st St", "Brooklyn, NY 11220"]}, "phone": "+17189808801", "display_phone": "(718) 980-8801", "distance": 13501.360879459451}, {"id": "VrUqSxFaaFcN7T01pCCMwQ", "alias": "wing-gong-i-kitchen-new-york", "name": "Wing Gong I Kitchen", "image_url": "https://s3-media2.fl.yelpcdn.com/bphoto/qNn2oq6cTWgYya7HRzyr_w/o.jpg", "is_closed": false, "url": "https://www.yelp.com/biz/wing-gong-i-kitchen-new-york?adjust_creative=9gNmiWYX8uTbFBeTTvJMdA&utm_campaign=yelp_api_v3&utm_medium=api_v3_business_search&utm_source=9gNmiWYX8uTbFBeTTvJMdA", "review_count": 4, "categories": [{"alias": "chinese", "title": "Chinese"}], "rating": 4.0, "coordinates": {"latitude": 40.791313, "longitude": -73.939239}, "transactions": ["delivery", "pickup"], "price": "$", "location": {"address1": "2109 1st Ave", "address2": "", "address3": "", "city": "New York", "zip_code": "10029", "country": "US", "state": "NY", "display_address": ["2109 1st Ave", "New York, NY 10029"]}, "phone": "+12124101661", "display_phone": "(212) 410-1661", "distance": 4394.130840299404}, {"id": "sR79scq9kaMd7npNn3D7xg", "alias": "xi-ne-du-new-york", "name": "Xi Ne Du", "image_url": "https://s3-media1.fl.yelpcdn.com/bphoto/fGU2Xb_U9xGlALtopVSasQ/o.jpg", "is_closed": false, "url": "https://www.yelp.com/biz/xi-ne-du-new-york?adjust_creative=9gNmiWYX8uTbFBeTTvJMdA&utm_campaign=yelp_api_v3&utm_medium=api_v3_business_search&utm_source=9gNmiWYX8uTbFBeTTvJMdA", "review_count": 2, "categories": [{"alias": "cantonese", "title": "Cantonese"}], "rating": 3.5, "coordinates": {"latitude": 40.71511490806518, "longitude": -73.99724766612053}, "transactions": [], "location": {"address1": "43 Bayard St", "address2": "", "address3": null, "city": "New York", "zip_code": "10013", "country": "US", "state": "NY", "display_address": ["43 Bayard St", "New York, NY 10013"]}, "phone": "", "display_phone": "", "distance": 5425.7492098700395}, {"id": "0ng8qzjd2ExoXJ4CuDwyWw", "alias": "lucky-star-bronx-4", "name": "Lucky Star", "image_url": "https://s3-media3.fl.yelpcdn.com/bphoto/UOFD1aOCWp82uAtTzr26yg/o.jpg", "is_closed": false, "url": "https://www.yelp.com/biz/lucky-star-bronx-4?adjust_creative=9gNmiWYX8uTbFBeTTvJMdA&utm_campaign=yelp_api_v3&utm_medium=api_v3_business_search&utm_source=9gNmiWYX8uTbFBeTTvJMdA", "review_count": 3, "categories": [{"alias": "chinese", "title": "Chinese"}], "rating": 4.0, "coordinates": {"latitude": 40.816918, "longitude": -73.896069}, "transactions": ["delivery", "pickup"], "location": {"address1": "807 Southern Blvd", "address2": null, "address3": null, "city": "Bronx", "zip_code": "10459", "country": "US", "state": "NY", "display_address": ["807 Southern Blvd", "Bronx, NY 10459"]}, "phone": "+17183280737", "display_phone": "(718) 328-0737", "distance": 8919.379162379442}, {"id": "_usWsAYSKKV2q8xw-3ajrA", "alias": "nom-wah-tea-parlor-new-york", "name": "Nom Wah Tea Parlor", "image_url": "https://s3-media3.fl.yelpcdn.com/bphoto/YB6AU_Hk-8s-_voJH5_tqA/o.jpg", "is_closed": false, "url": "https://www.yelp.com/biz/nom-wah-tea-parlor-new-york?adjust_creative=9gNmiWYX8uTbFBeTTvJMdA&utm_campaign=yelp_api_v3&utm_medium=api_v3_business_search&utm_source=9gNmiWYX8uTbFBeTTvJMdA", "review_count": 2309, "categories": [{"alias": "dimsum", "title": "Dim Sum"}], "rating": 3.5, "coordinates": {"latitude": 40.714490521829, "longitude": -73.998153857324}, "transactions": ["delivery", "pickup"], "price": "$$", "location": {"address1": "13 Doyers St", "address2": "", "address3": "", "city": "New York", "zip_code": "10013", "country": "US", "state": "NY", "display_address": ["13 Doyers St", "New York, NY 10013"]}, "phone": "+12129626047", "display_phone": "(212) 962-6047", "distance": 5521.393418827977}, {"id": "7DbDmJhQtE2yZvVzaan57w", "alias": "golden-china-east-new-york", "name": "Golden China", "image_url": "https://s3-media2.fl.yelpcdn.com/bphoto/cuA0zJDoSK5bCxM4wsHCBg/o.jpg", "is_closed": false, "url": "https://www.yelp.com/biz/golden-china-east-new-york?adjust_creative=9gNmiWYX8uTbFBeTTvJMdA&utm_campaign=yelp_api_v3&utm_medium=api_v3_business_search&utm_source=9gNmiWYX8uTbFBeTTvJMdA", "review_count": 6, "categories": [{"alias": "chinese", "title": "Chinese"}], "rating": 3.5, "coordinates": {"latitude": 40.6715889, "longitude": -73.8814392}, "transactions": [], "price": "$", "location": {"address1": "1013 Sutter Ave", "address2": "", "address3": "", "city": "East New York", "zip_code": "11208", "country": "US", "state": "NY", "display_address": ["1013 Sutter Ave", "East New York, NY 11208"]}, "phone": "", "display_phone": "", "distance": 12248.701208768816}, {"id": "hH0b746a_ZnkSm6049GBrQ", "alias": "new-great-wall-new-rochelle", "name": "New Great Wall", "image_url": "https://s3-media2.fl.yelpcdn.com/bphoto/xx69Gg-buMc6aAs2SlYhfg/o.jpg", "is_closed": false, "url": "https://www.yelp.com/biz/new-great-wall-new-rochelle?adjust_creative=9gNmiWYX8uTbFBeTTvJMdA&utm_campaign=yelp_api_v3&utm_medium=api_v3_business_search&utm_source=9gNmiWYX8uTbFBeTTvJMdA", "review_count": 12, "categories": [{"alias": "chinese", "title": "Chinese"}], "rating": 3.0, "coordinates": {"latitude": 40.9143324, "longitude": -73.7735195}, "transactions": ["delivery"], "price": "$$", "location": {"address1": "7 Huguenot St", "address2": "", "address3": "", "city": "New Rochelle", "zip_code": "10801", "country": "US", "state": "NY", "display_address": ["7 Huguenot St", "New Rochelle, NY 10801"]}, "phone": "+19146378768", "display_phone": "(914) 637-8768", "distance": 23869.246041207516}, {"id": "7q2yOt0RsQLfwpa95Er10w", "alias": "dumpling-den-fort-lee-2", "name": "Dumpling Den", "image_url": "https://s3-media2.fl.yelpcdn.com/bphoto/piLkpbB-VTCqWF3CRtl7MQ/o.jpg", "is_closed": false, "url": "https://www.yelp.com/biz/dumpling-den-fort-lee-2?adjust_creative=9gNmiWYX8uTbFBeTTvJMdA&utm_campaign=yelp_api_v3&utm_medium=api_v3_business_search&utm_source=9gNmiWYX8uTbFBeTTvJMdA", "review_count": 238, "categories": [{"alias": "shanghainese", "title": "Shanghainese"}, {"alias": "noodles", "title": "Noodles"}, {"alias": "soup", "title": "Soup"}], "rating": 4.0, "coordinates": {"latitude": 40.8520616, "longitude": -73.9720264}, "transactions": ["delivery", "pickup"], "price": "$$", "location": {"address1": "249 Main St", "address2": "", "address3": null, "city": "Fort Lee", "zip_code": "07024", "country": "US", "state": "NJ", "display_address": ["249 Main St", "Fort Lee, NJ 07024"]}, "phone": "+12014820905", "display_phone": "(201) 482-0905", "distance": 10325.575738270214}, {"id": "YIYetgfNE34G8JhQu98XQw", "alias": "ozen-new-york-3", "name": "Ozen", "image_url": "https://s3-media1.fl.yelpcdn.com/bphoto/vLjo213qoXjMF3iRK82WvQ/o.jpg", "is_closed": false, "url": "https://www.yelp.com/biz/ozen-new-york-3?adjust_creative=9gNmiWYX8uTbFBeTTvJMdA&utm_campaign=yelp_api_v3&utm_medium=api_v3_business_search&utm_source=9gNmiWYX8uTbFBeTTvJMdA", "review_count": 210, "categories": [{"alias": "asianfusion", "title": "Asian Fusion"}, {"alias": "sushi", "title": "Sushi Bars"}], "rating": 3.0, "coordinates": {"latitude": 40.7948819801249, "longitude": -73.9700052707462}, "transactions": ["delivery", "pickup"], "price": "$$", "location": {"address1": "760 Amsterdam Ave", "address2": "", "address3": "", "city": "New York", "zip_code": "10025", "country": "US", "state": "NY", "display_address": ["760 Amsterdam Ave", "New York, NY 10025"]}, "phone": "+12126780300", "display_phone": "(212) 678-0300", "distance": 3970.629376773403}], "total": 3300, "region": {"center": {"longitude": -73.96957397460938, "latitude": 40.75917470627005}}}