{"businesses": [{"id": "hR3NQG3HB1I6cC88ydbrdw", "alias": "ming-wong-restaurant-new-york-2", "name": "Ming Wong Restaurant", "image_url": "https://s3-media2.fl.yelpcdn.com/bphoto/MESsx3Sn38ld_ROP_Cz4OQ/o.jpg", "is_closed": false, "url": "https://www.yelp.com/biz/ming-wong-restaurant-new-york-2?adjust_creative=9gNmiWYX8uTbFBeTTvJMdA&utm_campaign=yelp_api_v3&utm_medium=api_v3_business_search&utm_source=9gNmiWYX8uTbFBeTTvJMdA", "review_count": 65, "categories": [{"alias": "chinese", "title": "Chinese"}], "rating": 4.0, "coordinates": {"latitude": 40.71601, "longitude": -73.99838}, "transactions": ["pickup", "delivery"], "price": "$$", "location": {"address1": "61 Mott St", "address2": "", "address3": null, "city": "New York", "zip_code": "10013", "country": "US", "state": "NY", "display_address": ["61 Mott St", "New York, NY 10013"]}, "phone": "+16463705005", "display_phone": "(646) 370-5005", "distance": 5377.876170706494}, {"id": "WRPJeH3goSpj5ke3Pkrnfw", "alias": "burp-bowl-cafe-new-york-6", "name": "Burp Bowl Cafe", "image_url": "https://s3-media2.fl.yelpcdn.com/bphoto/2gSqg3jiowGbSY-y9uCU_g/o.jpg", "is_closed": false, "url": "https://www.yelp.com/biz/burp-bowl-cafe-new-york-6?adjust_creative=9gNmiWYX8uTbFBeTTvJMdA&utm_campaign=yelp_api_v3&utm_medium=api_v3_business_search&utm_source=9gNmiWYX8uTbFBeTTvJMdA", "review_count": 285, "categories": [{"alias": "chinese", "title": "Chinese"}, {"alias": "noodles", "title": "Noodles"}, {"alias": "soup", "title": "Soup"}], "rating": 4.5, "coordinates": {"latitude": 40.74183, "longitude": -73.98271}, "transactions": ["pickup", "delivery"], "price": "$$", "location": {"address1": "134 E 27th St", "address2": null, "address3": "", "city": "New York", "zip_code": "10010", "country": "US", "state": "NY", "display_address": ["134 E 27th St", "New York, NY 10010"]}, "phone": "+19292616643", "display_phone": "(929) 261-6643", "distance": 2221.9539823744567}, {"id": "HDoJIH-qW9FqJ5WB-bKTqA", "alias": "mighty-bowl-new-york-9", "name": "MIGHTY Bowl", "image_url": "https://s3-media2.fl.yelpcdn.com/bphoto/ULfPg6yatxMSS-CPZThbAA/o.jpg", "is_closed": false, "url": "https://www.yelp.com/biz/mighty-bowl-new-york-9?adjust_creative=9gNmiWYX8uTbFBeTTvJMdA&utm_campaign=yelp_api_v3&utm_medium=api_v3_business_search&utm_source=9gNmiWYX8uTbFBeTTvJMdA", "review_count": 145, "categories": [{"alias": "asianfusion", "title": "Asian Fusion"}, {"alias": "poke", "title": "Poke"}], "rating": 4.5, "coordinates": {"latitude": 40.7738, "longitude": -73.95945}, "transactions": ["pickup", "delivery"], "price": "$$", "location": {"address1": "1109 Lexington Ave", "address2": null, "address3": "", "city": "New York", "zip_code": "10075", "country": "US", "state": "NY", "display_address": ["1109 Lexington Ave", "New York, NY 10075"]}, "phone": "+16466929065", "display_phone": "(646) 692-9065", "distance": 1835.9666657142402}, {"id": "Q1TpfbuPwKPFrNFyu-u2_g", "alias": "han-dynasty-brooklyn-2", "name": "Han Dynasty", "image_url": "https://s3-media3.fl.yelpcdn.com/bphoto/vxbMumdu8Q1e3iCxJ2qZfQ/o.jpg", "is_closed": false, "url": "https://www.yelp.com/biz/han-dynasty-brooklyn-2?adjust_creative=9gNmiWYX8uTbFBeTTvJMdA&utm_campaign=yelp_api_v3&utm_medium=api_v3_business_search&utm_source=9gNmiWYX8uTbFBeTTvJMdA", "review_count": 391, "categories": [{"alias": "szechuan", "title": "Szechuan"}, {"alias": "cocktailbars", "title": "Cocktail Bars"}], "rating": 3.5, "coordinates": {"latitude": 40.6911319610036, "longitude": -73.9825977757573}, "transactions": ["pickup", "delivery"], "price": "$$", "location": {"address1": "1 Dekalb Ave", "address2": "", "address3": null, "city": "Brooklyn", "zip_code": "11201", "country": "US", "state": "NY", "display_address": ["1 Dekalb Ave", "Brooklyn, NY 11201"]}, "phone": "+17188580588", "display_phone": "(718) 858-0588", "distance": 7645.18514530939}, {"id": "wo7-TKh4B37RTBjPNtkp7w", "alias": "chengdu1-jersey-city", "name": "Chengdu1", "image_url": "https://s3-media4.fl.yelpcdn.com/bphoto/BpSwIeMWcG_C6nRFpx5TDA/o.jpg", "is_closed": false, "url": "https://www.yelp.com/biz/chengdu1-jersey-city?adjust_creative=9gNmiWYX8uTbFBeTTvJMdA&utm_campaign=yelp_api_v3&utm_medium=api_v3_business_search&utm_source=9gNmiWYX8uTbFBeTTvJMdA", "review_count": 124, "categories": [{"alias": "szechuan", "title": "Szechuan"}], "rating": 3.5, "coordinates": {"latitude": 40.7323552298113, "longitude": -74.039612951068}, "transactions": ["pickup", "delivery"], "price": "$$", "location": {"address1": "166 15th St", "address2": "", "address3": null, "city": "Jersey City", "zip_code": "07310", "country": "US", "state": "NJ", "display_address": ["166 15th St", "Jersey City, NJ 07310"]}, "phone": "+12014599988", "display_phone": "(201) 459-9988", "distance": 6611.097444846531}, {"id": "EN9_LsFpY44Hkzcnu0jfIg", "alias": "dynasty-dim-sum-new-york-2", "name": "Dynasty Dim Sum", "image_url": "https://s3-media2.fl.yelpcdn.com/bphoto/ncQ_1otARmpBeqtLz2L8gw/o.jpg", "is_closed": false, "url": "https://www.yelp.com/biz/dynasty-dim-sum-new-york-2?adjust_creative=9gNmiWYX8uTbFBeTTvJMdA&utm_campaign=yelp_api_v3&utm_medium=api_v3_business_search&utm_source=9gNmiWYX8uTbFBeTTvJMdA", "review_count": 194, "categories": [{"alias": "dimsum", "title": "Dim Sum"}], "rating": 4.0, "coordinates": {"latitude": 40.74148, "longitude": -73.98087}, "transactions": ["pickup", "delivery"], "price": "$$", "location": {"address1": "381 3rd Ave", "address2": null, "address3": "", "city": "New York", "zip_code": "10016", "country": "US", "state": "NY", "display_address": ["381 3rd Ave", "New York, NY 10016"]}, "phone": "+19172658775", "display_phone": "(917) 265-8775", "distance": 2186.1507865108106}, {"id": "Va_mnsEvBghHXvc7uZIWJQ", "alias": "spice-symphony-new-york", "name": "Spice Symphony", "image_url": "https://s3-media1.fl.yelpcdn.com/bphoto/8WJ_wbFgsIvySxSruesmEg/o.jpg", "is_closed": false, "url": "https://www.yelp.com/biz/spice-symphony-new-york?adjust_creative=9gNmiWYX8uTbFBeTTvJMdA&utm_campaign=yelp_api_v3&utm_medium=api_v3_business_search&utm_source=9gNmiWYX8uTbFBeTTvJMdA", "review_count": 667, "categories": [{"alias": "indpak", "title": "Indian"}, {"alias": "vegetarian", "title": "Vegetarian"}, {"alias": "chinese", "title": "Chinese"}], "rating": 4.0, "coordinates": {"latitude": 40.744722, "longitude": -73.981202}, "transactions": ["pickup", "delivery"], "price": "$$", "location": {"address1": "182 Lexington Ave", "address2": null, "address3": "", "city": "New York", "zip_code": "10016", "country": "US", "state": "NY", "display_address": ["182 Lexington Ave", "New York, NY 10016"]}, "phone": "+12125457742", "display_phone": "(212) 545-7742", "distance": 1882.033667752332}, {"id": "ebug8VzizRlgdK2fYRi-6A", "alias": "chai-new-york-7", "name": "Chai", "image_url": "https://s3-media4.fl.yelpcdn.com/bphoto/0orKOVa-8x8AKE9yvn5jIQ/o.jpg", "is_closed": false, "url": "https://www.yelp.com/biz/chai-new-york-7?adjust_creative=9gNmiWYX8uTbFBeTTvJMdA&utm_campaign=yelp_api_v3&utm_medium=api_v3_business_search&utm_source=9gNmiWYX8uTbFBeTTvJMdA", "review_count": 83, "categories": [{"alias": "dimsum", "title": "Dim Sum"}, {"alias": "seafood", "title": "Seafood"}, {"alias": "soup", "title": "Soup"}], "rating": 4.0, "coordinates": {"latitude": 40.7607, "longitude": -73.98982}, "transactions": ["pickup", "delivery"], "price": "$$$", "location": {"address1": "353 W 46th St", "address2": "", "address3": null, "city": "New York", "zip_code": "10036", "country": "US", "state": "NY", "display_address": ["353 W 46th St", "New York, NY 10036"]}, "phone": "+16466698299", "display_phone": "(646) 669-8299", "distance": 1709.740893241951}, {"id": "3ESDUFulPVoMJdsqPQGm0A", "alias": "golden-city-chinese-restaurant-new-york", "name": "Golden City Chinese Restaurant", "image_url": "https://s3-media1.fl.yelpcdn.com/bphoto/al_jJgOhICNMBowjKYil2g/o.jpg", "is_closed": false, "url": "https://www.yelp.com/biz/golden-city-chinese-restaurant-new-york?adjust_creative=9gNmiWYX8uTbFBeTTvJMdA&utm_campaign=yelp_api_v3&utm_medium=api_v3_business_search&utm_source=9gNmiWYX8uTbFBeTTvJMdA", "review_count": 94, "categories": [{"alias": "chinese", "title": "Chinese"}], "rating": 3.5, "coordinates": {"latitude": 40.753277148143, "longitude": -73.996643608314}, "transactions": ["delivery"], "price": "$", "location": {"address1": "423 9th Ave", "address2": "", "address3": "", "city": "New York", "zip_code": "10001", "country": "US", "state": "NY", "display_address": ["423 9th Ave", "New York, NY 10001"]}, "phone": "+12127364004", "display_phone": "(212) 736-4004", "distance": 2372.491049090795}, {"id": "-2FAuHbWsc_rxuSaeYAhCw", "alias": "green-garden-village-new-york-3", "name": "Green Garden Village", "image_url": "https://s3-media4.fl.yelpcdn.com/bphoto/OEJOTt6_x521xM1LOVKa9Q/o.jpg", "is_closed": false, "url": "https://www.yelp.com/biz/green-garden-village-new-york-3?adjust_creative=9gNmiWYX8uTbFBeTTvJMdA&utm_campaign=yelp_api_v3&utm_medium=api_v3_business_search&utm_source=9gNmiWYX8uTbFBeTTvJMdA", "review_count": 88, "categories": [{"alias": "noodles", "title": "Noodles"}, {"alias": "soup", "title": "Soup"}, {"alias": "cantonese", "title": "Cantonese"}], "rating": 4.5, "coordinates": {"latitude": 40.7190136, "longitude": -73.9959638}, "transactions": ["delivery"], "price": "$$", "location": {"address1": "216 Grand St", "address2": null, "address3": "", "city": "New York", "zip_code": "10013", "country": "US", "state": "NY", "display_address": ["216 Grand St", "New York, NY 10013"]}, "phone": "+16469129136", "display_phone": "(646) 912-9136", "distance": 4985.206762044903}, {"id": "r6r-XK_wL02FQdAgaauTxg", "alias": "kame-new-york-2", "name": "Kame", "image_url": "https://s3-media1.fl.yelpcdn.com/bphoto/QE8CzBkSpCDOTv2L9ag5MQ/o.jpg", "is_closed": false, "url": "https://www.yelp.com/biz/kame-new-york-2?adjust_creative=9gNmiWYX8uTbFBeTTvJMdA&utm_campaign=yelp_api_v3&utm_medium=api_v3_business_search&utm_source=9gNmiWYX8uTbFBeTTvJMdA", "review_count": 711, "categories": [{"alias": "ramen", "title": "Ramen"}, {"alias": "noodles", "title": "Noodles"}, {"alias": "salad", "title": "Salad"}], "rating": 4.5, "coordinates": {"latitude": 40.7474881059799, "longitude": -73.996648862958}, "transactions": ["pickup", "delivery"], "price": "$$", "location": {"address1": "330 8th Ave", "address2": null, "address3": null, "city": "New York", "zip_code": "10001", "country": "US", "state": "NY", "display_address": ["330 8th Ave", "New York, NY 10001"]}, "phone": "+19173918587", "display_phone": "(917) 391-8587", "distance": 2624.845286101084}, {"id": "Sj2StOWkhHIPE6_sS5RMCQ", "alias": "evergreen-on-38-new-york", "name": "Evergreen On 38", "image_url": "https://s3-media4.fl.yelpcdn.com/bphoto/GVL1vTRxdGJOgR8SM4meSA/o.jpg", "is_closed": false, "url": "https://www.yelp.com/biz/evergreen-on-38-new-york?adjust_creative=9gNmiWYX8uTbFBeTTvJMdA&utm_campaign=yelp_api_v3&utm_medium=api_v3_business_search&utm_source=9gNmiWYX8uTbFBeTTvJMdA", "review_count": 297, "categories": [{"alias": "shanghainese", "title": "Shanghainese"}, {"alias": "dimsum", "title": "Dim Sum"}], "rating": 3.5, "coordinates": {"latitude": 40.75041, "longitude": -73.98199}, "transactions": ["pickup", "delivery"], "price": "$$", "location": {"address1": "10 E 38th St", "address2": "", "address3": "", "city": "New York", "zip_code": "10016", "country": "US", "state": "NY", "display_address": ["10 E 38th St", "New York, NY 10016"]}, "phone": "+12124481191", "display_phone": "(212) 448-1191", "distance": 1427.8374812423733}, {"id": "Pr-q47vsmM4aoc2t_Sfk8w", "alias": "momofuku-noodle-bar-uptown-new-york", "name": "Momofuku Noodle Bar - Uptown", "image_url": "https://s3-media4.fl.yelpcdn.com/bphoto/h08ukV9YwJXhQBT2kvCCIg/o.jpg", "is_closed": false, "url": "https://www.yelp.com/biz/momofuku-noodle-bar-uptown-new-york?adjust_creative=9gNmiWYX8uTbFBeTTvJMdA&utm_campaign=yelp_api_v3&utm_medium=api_v3_business_search&utm_source=9gNmiWYX8uTbFBeTTvJMdA", "review_count": 515, "categories": [{"alias": "newamerican", "title": "American (New)"}, {"alias": "noodles", "title": "Noodles"}, {"alias": "ramen", "title": "Ramen"}], "rating": 4.0, "coordinates": {"latitude": 40.76802583631109, "longitude": -73.9829243}, "transactions": [], "price": "$$", "location": {"address1": "10 Columbus Cir", "address2": "Third Floor", "address3": null, "city": "New York", "zip_code": "10019", "country": "US", "state": "NY", "display_address": ["10 Columbus Cir", "Third Floor", "New York, NY 10019"]}, "phone": "", "display_phone": "", "distance": 1494.271067117931}, {"id": "R7EGjHWw0tNheY6-ahH8fQ", "alias": "tuome-new-york-2", "name": "Tuome", "image_url": "https://s3-media3.fl.yelpcdn.com/bphoto/4WtBFfLVrgLsjgkMVUy_jw/o.jpg", "is_closed": false, "url": "https://www.yelp.com/biz/tuome-new-york-2?adjust_creative=9gNmiWYX8uTbFBeTTvJMdA&utm_campaign=yelp_api_v3&utm_medium=api_v3_business_search&utm_source=9gNmiWYX8uTbFBeTTvJMdA", "review_count": 647, "categories": [{"alias": "newamerican", "title": "American (New)"}, {"alias": "asianfusion", "title": "Asian Fusion"}], "rating": 4.5, "coordinates": {"latitude": 40.72412482724, "longitude": -73.9828906263924}, "transactions": ["delivery"], "price": "$$$", "location": {"address1": "536 E 5th St", "address2": "", "address3": null, "city": "New York", "zip_code": "10009", "country": "US", "state": "NY", "display_address": ["536 E 5th St", "New York, NY 10009"]}, "phone": "+16468337811", "display_phone": "(646) 833-7811", "distance": 4055.6266689010827}, {"id": "HduEOz0RSK91GDr8EoxELw", "alias": "shun-lee-98th-st-new-york-2", "name": "Shun Lee - 98th ST", "image_url": "https://s3-media3.fl.yelpcdn.com/bphoto/s3r86zRCy5BGP0xRvtPUNQ/o.jpg", "is_closed": false, "url": "https://www.yelp.com/biz/shun-lee-98th-st-new-york-2?adjust_creative=9gNmiWYX8uTbFBeTTvJMdA&utm_campaign=yelp_api_v3&utm_medium=api_v3_business_search&utm_source=9gNmiWYX8uTbFBeTTvJMdA", "review_count": 5, "categories": [{"alias": "dimsum", "title": "Dim Sum"}], "rating": 5.0, "coordinates": {"latitude": 40.79576833206957, "longitude": -73.97059000000002}, "transactions": ["pickup", "delivery", "restaurant_reservation"], "location": {"address1": "2596 Broadway", "address2": null, "address3": "", "city": "New York", "zip_code": "10025", "country": "US", "state": "NY", "display_address": ["2596 Broadway", "New York, NY 10025"]}, "phone": "+12122221216", "display_phone": "(212) 222-1216", "distance": 4069.9202951342986}, {"id": "zYoL-o9YJpGTwJ-Gmj8AFA", "alias": "jue-lan-club-new-york-3", "name": "Jue Lan Club", "image_url": "https://s3-media1.fl.yelpcdn.com/bphoto/1jL3bNkn14dJ1CTwE8EL_g/o.jpg", "is_closed": false, "url": "https://www.yelp.com/biz/jue-lan-club-new-york-3?adjust_creative=9gNmiWYX8uTbFBeTTvJMdA&utm_campaign=yelp_api_v3&utm_medium=api_v3_business_search&utm_source=9gNmiWYX8uTbFBeTTvJMdA", "review_count": 733, "categories": [{"alias": "chinese", "title": "Chinese"}], "rating": 3.5, "coordinates": {"latitude": 40.7409694, "longitude": -73.9934031}, "transactions": ["pickup", "delivery"], "price": "$$$", "location": {"address1": "49 W 20th St", "address2": null, "address3": "", "city": "New York", "zip_code": "10011", "country": "US", "state": "NY", "display_address": ["49 W 20th St", "New York, NY 10011"]}, "phone": "+16465247409", "display_phone": "(646) 524-7409", "distance": 2850.8213171197795}, {"id": "Dqp5Itsj9dN0Ewz8Gm853g", "alias": "philippe-downtown-new-york", "name": "Philippe Downtown", "image_url": "https://s3-media3.fl.yelpcdn.com/bphoto/W2nfbiGTVnA06yJ-jItZWQ/o.jpg", "is_closed": false, "url": "https://www.yelp.com/biz/philippe-downtown-new-york?adjust_creative=9gNmiWYX8uTbFBeTTvJMdA&utm_campaign=yelp_api_v3&utm_medium=api_v3_business_search&utm_source=9gNmiWYX8uTbFBeTTvJMdA", "review_count": 163, "categories": [{"alias": "chinese", "title": "Chinese"}], "rating": 3.5, "coordinates": {"latitude": 40.74213, "longitude": -74.0038}, "transactions": ["delivery"], "price": "$$$", "location": {"address1": "355 W 16th St", "address2": "", "address3": null, "city": "New York", "zip_code": "10011", "country": "US", "state": "NY", "display_address": ["355 W 16th St", "New York, NY 10011"]}, "phone": "+12128859400", "display_phone": "(212) 885-9400", "distance": 3415.379803799594}, {"id": "cGSLzPA_SCWrN3cyT86Nhw", "alias": "dun-huang-upper-west-new-york-6", "name": "Dun Huang - Upper West", "image_url": "https://s3-media4.fl.yelpcdn.com/bphoto/CWu7p7zUscFut7RNAiKsMA/o.jpg", "is_closed": false, "url": "https://www.yelp.com/biz/dun-huang-upper-west-new-york-6?adjust_creative=9gNmiWYX8uTbFBeTTvJMdA&utm_campaign=yelp_api_v3&utm_medium=api_v3_business_search&utm_source=9gNmiWYX8uTbFBeTTvJMdA", "review_count": 93, "categories": [{"alias": "chinese", "title": "Chinese"}, {"alias": "noodles", "title": "Noodles"}], "rating": 3.5, "coordinates": {"latitude": 40.81106, "longitude": -73.95818}, "transactions": ["pickup", "delivery"], "price": "$$", "location": {"address1": "1268 Amsterdam Ave", "address2": null, "address3": "", "city": "New York", "zip_code": "10027", "country": "US", "state": "NY", "display_address": ["1268 Amsterdam Ave", "New York, NY 10027"]}, "phone": "+16464764549", "display_phone": "(646) 476-4549", "distance": 5855.235127532362}, {"id": "gDCK63W5_8-tdCCWr92rbw", "alias": "shan-brooklyn-5", "name": "Shan", "image_url": "https://s3-media2.fl.yelpcdn.com/bphoto/Y8NbwQjsmqFb5MbiwGr0tw/o.jpg", "is_closed": false, "url": "https://www.yelp.com/biz/shan-brooklyn-5?adjust_creative=9gNmiWYX8uTbFBeTTvJMdA&utm_campaign=yelp_api_v3&utm_medium=api_v3_business_search&utm_source=9gNmiWYX8uTbFBeTTvJMdA", "review_count": 56, "categories": [{"alias": "cocktailbars", "title": "Cocktail Bars"}, {"alias": "szechuan", "title": "Szechuan"}, {"alias": "noodles", "title": "Noodles"}], "rating": 4.5, "coordinates": {"latitude": 40.68524, "longitude": -73.99133}, "transactions": [], "location": {"address1": "191 Smith St", "address2": null, "address3": "", "city": "Brooklyn", "zip_code": "11201", "country": "US", "state": "NY", "display_address": ["191 Smith St", "Brooklyn, NY 11201"]}, "phone": "+13472944660", "display_phone": "(347) 294-4660", "distance": 8424.523443438682}, {"id": "i6CpYdmMYoz712bRWTWVgQ", "alias": "piggyback-by-pig-and-khao-new-york", "name": "Piggyback by Pig and Khao", "image_url": "https://s3-media2.fl.yelpcdn.com/bphoto/rkNJcnKVxlmpKwJ8Z5lGoA/o.jpg", "is_closed": false, "url": "https://www.yelp.com/biz/piggyback-by-pig-and-khao-new-york?adjust_creative=9gNmiWYX8uTbFBeTTvJMdA&utm_campaign=yelp_api_v3&utm_medium=api_v3_business_search&utm_source=9gNmiWYX8uTbFBeTTvJMdA", "review_count": 93, "categories": [{"alias": "cocktailbars", "title": "Cocktail Bars"}, {"alias": "panasian", "title": "Pan Asian"}], "rating": 4.0, "coordinates": {"latitude": 40.747961, "longitude": -73.99163}, "transactions": ["pickup", "delivery"], "location": {"address1": "140 W 30th St", "address2": "", "address3": null, "city": "New York", "zip_code": "10001", "country": "US", "state": "NY", "display_address": ["140 W 30th St", "New York, NY 10001"]}, "phone": "+12122390570", "display_phone": "(212) 239-0570", "distance": 2237.4860940337294}, {"id": "2J3--ZI6CcoYLWSYYVdt7Q", "alias": "milu-new-york-2", "name": "Milu", "image_url": "https://s3-media3.fl.yelpcdn.com/bphoto/Eh-C-wTKUI7MdPhan_S36A/o.jpg", "is_closed": false, "url": "https://www.yelp.com/biz/milu-new-york-2?adjust_creative=9gNmiWYX8uTbFBeTTvJMdA&utm_campaign=yelp_api_v3&utm_medium=api_v3_business_search&utm_source=9gNmiWYX8uTbFBeTTvJMdA", "review_count": 186, "categories": [{"alias": "chinese", "title": "Chinese"}], "rating": 4.5, "coordinates": {"latitude": 40.741084, "longitude": -73.985324}, "transactions": ["pickup", "delivery"], "price": "$$", "location": {"address1": "333 Park Ave S", "address2": null, "address3": "", "city": "New York", "zip_code": "10010", "country": "US", "state": "NY", "display_address": ["333 Park Ave S", "New York, NY 10010"]}, "phone": "+12123776403", "display_phone": "(212) 377-6403", "distance": 2408.255944028754}, {"id": "qH8PVeddtVs9cKN2pwgdkQ", "alias": "hwa-yuan-new-york-2", "name": "Hwa Yuan", "image_url": "https://s3-media2.fl.yelpcdn.com/bphoto/FUlrT0L-7WXks3aqekdAhQ/o.jpg", "is_closed": false, "url": "https://www.yelp.com/biz/hwa-yuan-new-york-2?adjust_creative=9gNmiWYX8uTbFBeTTvJMdA&utm_campaign=yelp_api_v3&utm_medium=api_v3_business_search&utm_source=9gNmiWYX8uTbFBeTTvJMdA", "review_count": 449, "categories": [{"alias": "chinese", "title": "Chinese"}], "rating": 4.0, "coordinates": {"latitude": 40.7137, "longitude": -73.99598}, "transactions": ["pickup", "delivery", "restaurant_reservation"], "price": "$$$", "location": {"address1": "42 E Broadway", "address2": "", "address3": null, "city": "New York", "zip_code": "10002", "country": "US", "state": "NY", "display_address": ["42 E Broadway", "New York, NY 10002"]}, "phone": "+12129666002", "display_phone": "(212) 966-6002", "distance": 5519.443763239338}, {"id": "pb_cHcy8D8UC-jQ-Q524ug", "alias": "som-bo-new-york-2", "name": "Som Bo", "image_url": "https://s3-media2.fl.yelpcdn.com/bphoto/usAdZvJQKR90DnlJszwM5w/o.jpg", "is_closed": false, "url": "https://www.yelp.com/biz/som-bo-new-york-2?adjust_creative=9gNmiWYX8uTbFBeTTvJMdA&utm_campaign=yelp_api_v3&utm_medium=api_v3_business_search&utm_source=9gNmiWYX8uTbFBeTTvJMdA", "review_count": 267, "categories": [{"alias": "asianfusion", "title": "Asian Fusion"}, {"alias": "korean", "title": "Korean"}, {"alias": "chinese", "title": "Chinese"}], "rating": 4.0, "coordinates": {"latitude": 40.74192, "longitude": -74.00136}, "transactions": ["pickup", "delivery"], "price": "$$", "location": {"address1": "143 8th Ave", "address2": null, "address3": "", "city": "New York", "zip_code": "10011", "country": "US", "state": "NY", "display_address": ["143 8th Ave", "New York, NY 10011"]}, "phone": "+19172617947", "display_phone": "(917) 261-7947", "distance": 3293.550016153124}, {"id": "X4hEgOBOLTYFhlWO-gAFxQ", "alias": "tipsy-shanghai-new-york-2", "name": "Tipsy Shanghai", "image_url": "https://s3-media4.fl.yelpcdn.com/bphoto/J52xsgu55D3pEOwK1vhPCg/o.jpg", "is_closed": false, "url": "https://www.yelp.com/biz/tipsy-shanghai-new-york-2?adjust_creative=9gNmiWYX8uTbFBeTTvJMdA&utm_campaign=yelp_api_v3&utm_medium=api_v3_business_search&utm_source=9gNmiWYX8uTbFBeTTvJMdA", "review_count": 355, "categories": [{"alias": "shanghainese", "title": "Shanghainese"}, {"alias": "asianfusion", "title": "Asian Fusion"}, {"alias": "noodles", "title": "Noodles"}], "rating": 4.0, "coordinates": {"latitude": 40.72929, "longitude": -73.99882}, "transactions": ["pickup", "delivery"], "price": "$$", "location": {"address1": "228 Thompson St", "address2": null, "address3": "", "city": "New York", "zip_code": "10012", "country": "US", "state": "NY", "display_address": ["228 Thompson St", "New York, NY 10012"]}, "phone": "+12127630877", "display_phone": "(212) 763-0877", "distance": 4137.9014835544895}, {"id": "w3wKbjuNCZnYoPOr-FCk5w", "alias": "new-moon-new-york", "name": "New Moon", "image_url": "https://s3-media3.fl.yelpcdn.com/bphoto/9t-DzSFbxWmJvRxL2b5aNg/o.jpg", "is_closed": false, "url": "https://www.yelp.com/biz/new-moon-new-york?adjust_creative=9gNmiWYX8uTbFBeTTvJMdA&utm_campaign=yelp_api_v3&utm_medium=api_v3_business_search&utm_source=9gNmiWYX8uTbFBeTTvJMdA", "review_count": 203, "categories": [{"alias": "chinese", "title": "Chinese"}], "rating": 3.5, "coordinates": {"latitude": 40.742569, "longitude": -73.977856}, "transactions": ["pickup", "delivery"], "price": "$$", "location": {"address1": "547 2nd Ave", "address2": "", "address3": null, "city": "New York", "zip_code": "10016", "country": "US", "state": "NY", "display_address": ["547 2nd Ave", "New York, NY 10016"]}, "phone": "+12127792828", "display_phone": "(212) 779-2828", "distance": 1972.6222864170047}, {"id": "kBZggrnSP1kcUMnsnfkTaQ", "alias": "nan-xiang-xiao-long-bao-flushing-flushing", "name": "Nan Xiang Xiao Long Bao - Flushing", "image_url": "https://s3-media2.fl.yelpcdn.com/bphoto/_swf0c4gtBCd1Yu9ExJABA/o.jpg", "is_closed": false, "url": "https://www.yelp.com/biz/nan-xiang-xiao-long-bao-flushing-flushing?adjust_creative=9gNmiWYX8uTbFBeTTvJMdA&utm_campaign=yelp_api_v3&utm_medium=api_v3_business_search&utm_source=9gNmiWYX8uTbFBeTTvJMdA", "review_count": 4402, "categories": [{"alias": "shanghainese", "title": "Shanghainese"}, {"alias": "gourmet", "title": "Specialty Food"}, {"alias": "noodles", "title": "Noodles"}], "rating": 4.0, "coordinates": {"latitude": 40.75924, "longitude": -73.8326}, "transactions": ["pickup", "delivery"], "price": "$$", "location": {"address1": "39-16 Prince St", "address2": "Ste 104", "address3": "", "city": "Flushing", "zip_code": "11354", "country": "US", "state": "NY", "display_address": ["39-16 Prince St", "Ste 104", "Flushing, NY 11354"]}, "phone": "+17183213838", "display_phone": "(718) 321-3838", "distance": 11566.464604894709}, {"id": "Ej-hrhc8HFWfijN4X5akOg", "alias": "dim-sum-palace-new-york-11", "name": "Dim Sum Palace", "image_url": "https://s3-media1.fl.yelpcdn.com/bphoto/S2cgXEC5jPPUX_mX6B0zcQ/o.jpg", "is_closed": false, "url": "https://www.yelp.com/biz/dim-sum-palace-new-york-11?adjust_creative=9gNmiWYX8uTbFBeTTvJMdA&utm_campaign=yelp_api_v3&utm_medium=api_v3_business_search&utm_source=9gNmiWYX8uTbFBeTTvJMdA", "review_count": 213, "categories": [{"alias": "dimsum", "title": "Dim Sum"}, {"alias": "cantonese", "title": "Cantonese"}, {"alias": "seafood", "title": "Seafood"}], "rating": 4.0, "coordinates": {"latitude": 40.7486498128575, "longitude": -73.98684828079797}, "transactions": ["pickup", "delivery"], "price": "$$", "location": {"address1": "33 W 33rd St", "address2": null, "address3": "", "city": "New York", "zip_code": "10001", "country": "US", "state": "NY", "display_address": ["33 W 33rd St", "New York, NY 10001"]}, "phone": "+16466493607", "display_phone": "(646) 649-3607", "distance": 1867.302582435975}, {"id": "g_5V15Xp1OvB1QXuGMstYA", "alias": "chef-yu-new-york", "name": "Chef Yu", "image_url": "https://s3-media3.fl.yelpcdn.com/bphoto/0JSxojz-jWYAW6RpZsZt2A/o.jpg", "is_closed": false, "url": "https://www.yelp.com/biz/chef-yu-new-york?adjust_creative=9gNmiWYX8uTbFBeTTvJMdA&utm_campaign=yelp_api_v3&utm_medium=api_v3_business_search&utm_source=9gNmiWYX8uTbFBeTTvJMdA", "review_count": 635, "categories": [{"alias": "szechuan", "title": "Szechuan"}, {"alias": "cantonese", "title": "Cantonese"}, {"alias": "noodles", "title": "Noodles"}], "rating": 3.0, "coordinates": {"latitude": 40.75352133489135, "longitude": -73.99226032843487}, "transactions": ["pickup", "delivery"], "price": "$$", "location": {"address1": "520 8th Ave", "address2": "GFL", "address3": "", "city": "New York", "zip_code": "10018", "country": "US", "state": "NY", "display_address": ["520 8th Ave", "GFL", "New York, NY 10018"]}, "phone": "+12127366150", "display_phone": "(212) 736-6150", "distance": 2011.6000950959208}, {"id": "rBUTVjRs5CcEMe3dfVRZJQ", "alias": "ho-foods-new-york-3", "name": "Ho Foods", "image_url": "https://s3-media1.fl.yelpcdn.com/bphoto/sGQ67c6ozMsF5geooa8jBw/o.jpg", "is_closed": false, "url": "https://www.yelp.com/biz/ho-foods-new-york-3?adjust_creative=9gNmiWYX8uTbFBeTTvJMdA&utm_campaign=yelp_api_v3&utm_medium=api_v3_business_search&utm_source=9gNmiWYX8uTbFBeTTvJMdA", "review_count": 402, "categories": [{"alias": "taiwanese", "title": "Taiwanese"}, {"alias": "chinese", "title": "Chinese"}, {"alias": "breakfast_brunch", "title": "Breakfast & Brunch"}], "rating": 4.0, "coordinates": {"latitude": 40.72634, "longitude": -73.98478}, "transactions": ["delivery"], "price": "$$", "location": {"address1": "110 E 7th St", "address2": "", "address3": null, "city": "New York", "zip_code": "10009", "country": "US", "state": "NY", "display_address": ["110 E 7th St", "New York, NY 10009"]}, "phone": "+13477880682", "display_phone": "(347) 788-0682", "distance": 3868.0374332296738}, {"id": "Bb0h5Rs8ugSM2CjulRhfBw", "alias": "spicy-moon-east-village-new-york", "name": "Spicy Moon East Village", "image_url": "https://s3-media2.fl.yelpcdn.com/bphoto/BNxPGEKGydefcGPyg_Z68g/o.jpg", "is_closed": false, "url": "https://www.yelp.com/biz/spicy-moon-east-village-new-york?adjust_creative=9gNmiWYX8uTbFBeTTvJMdA&utm_campaign=yelp_api_v3&utm_medium=api_v3_business_search&utm_source=9gNmiWYX8uTbFBeTTvJMdA", "review_count": 616, "categories": [{"alias": "szechuan", "title": "Szechuan"}, {"alias": "vegetarian", "title": "Vegetarian"}, {"alias": "vegan", "title": "Vegan"}], "rating": 4.5, "coordinates": {"latitude": 40.72674, "longitude": -73.98722}, "transactions": ["pickup", "delivery"], "price": "$$", "location": {"address1": "328 E 6th St", "address2": "", "address3": null, "city": "New York", "zip_code": "10003", "country": "US", "state": "NY", "display_address": ["328 E 6th St", "New York, NY 10003"]}, "phone": "+16464298471", "display_phone": "(646) 429-8471", "distance": 3905.286463924614}, {"id": "mDajKjZjRN4tVGEJFOgF9w", "alias": "wok-88-new-york", "name": "Wok 88", "image_url": "https://s3-media4.fl.yelpcdn.com/bphoto/SumNJREe8S18LQbBC6x1sA/o.jpg", "is_closed": false, "url": "https://www.yelp.com/biz/wok-88-new-york?adjust_creative=9gNmiWYX8uTbFBeTTvJMdA&utm_campaign=yelp_api_v3&utm_medium=api_v3_business_search&utm_source=9gNmiWYX8uTbFBeTTvJMdA", "review_count": 334, "categories": [{"alias": "chinese", "title": "Chinese"}], "rating": 3.5, "coordinates": {"latitude": 40.78042, "longitude": -73.95322}, "transactions": ["delivery"], "price": "$$", "location": {"address1": "1570 3rd Ave", "address2": "", "address3": "", "city": "New York", "zip_code": "10128", "country": "US", "state": "NY", "display_address": ["1570 3rd Ave", "New York, NY 10128"]}, "phone": "+12128288688", "display_phone": "(212) 828-8688", "distance": 2733.813200041371}, {"id": "Lp8vAE5nHSt5zbu-lSGK8A", "alias": "hop-lee-restaurant-new-york", "name": "Hop Lee Restaurant", "image_url": "https://s3-media4.fl.yelpcdn.com/bphoto/wNKuRCT088Aqs5_HZ8j6Rg/o.jpg", "is_closed": false, "url": "https://www.yelp.com/biz/hop-lee-restaurant-new-york?adjust_creative=9gNmiWYX8uTbFBeTTvJMdA&utm_campaign=yelp_api_v3&utm_medium=api_v3_business_search&utm_source=9gNmiWYX8uTbFBeTTvJMdA", "review_count": 357, "categories": [{"alias": "chinese", "title": "Chinese"}, {"alias": "seafood", "title": "Seafood"}, {"alias": "noodles", "title": "Noodles"}], "rating": 4.0, "coordinates": {"latitude": 40.71426, "longitude": -73.99849}, "transactions": ["pickup", "delivery"], "price": "$$", "location": {"address1": "16 Mott St", "address2": "", "address3": "", "city": "New York", "zip_code": "10013", "country": "US", "state": "NY", "display_address": ["16 Mott St", "New York, NY 10013"]}, "phone": "+12129626475", "display_phone": "(212) 962-6475", "distance": 5559.780143825405}, {"id": "gcEMZjjqy5Ucnv_5Pv-q1g", "alias": "tasty-hand-pulled-noodles-ii-new-york", "name": "Tasty Hand Pulled Noodles II", "image_url": "https://s3-media4.fl.yelpcdn.com/bphoto/3nutnGLpt7Y9OBJlazJwiQ/o.jpg", "is_closed": false, "url": "https://www.yelp.com/biz/tasty-hand-pulled-noodles-ii-new-york?adjust_creative=9gNmiWYX8uTbFBeTTvJMdA&utm_campaign=yelp_api_v3&utm_medium=api_v3_business_search&utm_source=9gNmiWYX8uTbFBeTTvJMdA", "review_count": 386, "categories": [{"alias": "chinese", "title": "Chinese"}, {"alias": "noodles", "title": "Noodles"}], "rating": 4.0, "coordinates": {"latitude": 40.760537, "longitude": -73.990782}, "transactions": ["pickup", "delivery"], "price": "$$", "location": {"address1": "648 9th Ave", "address2": "", "address3": "", "city": "New York", "zip_code": "10036", "country": "US", "state": "NY", "display_address": ["648 9th Ave", "New York, NY 10036"]}, "phone": "+19173882351", "display_phone": "(917) 388-2351", "distance": 1792.6532753311192}, {"id": "RkcQl4uEJWblWf4xX8ssqQ", "alias": "wa-jeal-sichuan-chili-house-new-york", "name": "Wa Jeal Sichuan Chili House", "image_url": "https://s3-media1.fl.yelpcdn.com/bphoto/ZEFX7vhAzZ_wfPclb9rxjA/o.jpg", "is_closed": false, "url": "https://www.yelp.com/biz/wa-jeal-sichuan-chili-house-new-york?adjust_creative=9gNmiWYX8uTbFBeTTvJMdA&utm_campaign=yelp_api_v3&utm_medium=api_v3_business_search&utm_source=9gNmiWYX8uTbFBeTTvJMdA", "review_count": 440, "categories": [{"alias": "chinese", "title": "Chinese"}, {"alias": "bars", "title": "Bars"}, {"alias": "seafood", "title": "Seafood"}], "rating": 3.5, "coordinates": {"latitude": 40.77536, "longitude": -73.95317}, "transactions": ["pickup", "delivery"], "price": "$$", "location": {"address1": "1588 2nd Ave", "address2": null, "address3": "", "city": "New York", "zip_code": "10028", "country": "US", "state": "NY", "display_address": ["1588 2nd Ave", "New York, NY 10028"]}, "phone": "+12123963339", "display_phone": "(212) 396-3339", "distance": 2269.2662196658957}, {"id": "Kqb7MjTPNkjPMoFRd-rWpw", "alias": "m\u00e1l\u00e0-project-new-york", "name": "M\u00e1L\u00e0 Project", "image_url": "https://s3-media2.fl.yelpcdn.com/bphoto/LTMWMDPLX1OV7j4vgCOvHg/o.jpg", "is_closed": false, "url": "https://www.yelp.com/biz/m%C3%A1l%C3%A0-project-new-york?adjust_creative=9gNmiWYX8uTbFBeTTvJMdA&utm_campaign=yelp_api_v3&utm_medium=api_v3_business_search&utm_source=9gNmiWYX8uTbFBeTTvJMdA", "review_count": 864, "categories": [{"alias": "szechuan", "title": "Szechuan"}, {"alias": "hotpot", "title": "Hot Pot"}], "rating": 4.0, "coordinates": {"latitude": 40.72713, "longitude": -73.98542}, "transactions": ["pickup", "delivery"], "price": "$$", "location": {"address1": "122 1st Ave", "address2": "", "address3": "", "city": "New York", "zip_code": "10009", "country": "US", "state": "NY", "display_address": ["122 1st Ave", "New York, NY 10009"]}, "phone": "+12126021005", "display_phone": "(212) 602-1005", "distance": 3806.0756368748857}, {"id": "kwq1W0opBnOYKoUXWYyQ5g", "alias": "momokawa-new-york-2", "name": "Momokawa", "image_url": "https://s3-media4.fl.yelpcdn.com/bphoto/rb4YDl2LkDrYKfsAoiwYvA/o.jpg", "is_closed": false, "url": "https://www.yelp.com/biz/momokawa-new-york-2?adjust_creative=9gNmiWYX8uTbFBeTTvJMdA&utm_campaign=yelp_api_v3&utm_medium=api_v3_business_search&utm_source=9gNmiWYX8uTbFBeTTvJMdA", "review_count": 223, "categories": [{"alias": "japanese", "title": "Japanese"}, {"alias": "sushi", "title": "Sushi Bars"}, {"alias": "hotpot", "title": "Hot Pot"}], "rating": 4.0, "coordinates": {"latitude": 40.77047, "longitude": -73.9537}, "transactions": ["pickup", "delivery"], "price": "$$$", "location": {"address1": "1466 1st Ave", "address2": "", "address3": null, "city": "New York", "zip_code": "10075", "country": "US", "state": "NY", "display_address": ["1466 1st Ave", "New York, NY 10075"]}, "phone": "+12122560403", "display_phone": "(212) 256-0403", "distance": 1833.9036422605964}, {"id": "smxIke5NSkMIExa6jLVw-g", "alias": "joes-steam-rice-roll-new-york-5", "name": "Joe's Steam Rice Roll", "image_url": "https://s3-media3.fl.yelpcdn.com/bphoto/S6GC_23adnqRUbWxn25Xtw/o.jpg", "is_closed": false, "url": "https://www.yelp.com/biz/joes-steam-rice-roll-new-york-5?adjust_creative=9gNmiWYX8uTbFBeTTvJMdA&utm_campaign=yelp_api_v3&utm_medium=api_v3_business_search&utm_source=9gNmiWYX8uTbFBeTTvJMdA", "review_count": 174, "categories": [{"alias": "cantonese", "title": "Cantonese"}], "rating": 4.5, "coordinates": {"latitude": 40.78411, "longitude": -73.977964}, "transactions": ["pickup", "delivery"], "price": "$", "location": {"address1": "422 Amsterdam Ave", "address2": null, "address3": null, "city": "New York", "zip_code": "10024", "country": "US", "state": "NY", "display_address": ["422 Amsterdam Ave", "New York, NY 10024"]}, "phone": "+19173883781", "display_phone": "(917) 388-3781", "distance": 2860.501195913484}, {"id": "BbODF2tZuw4xW_RFwMzwRg", "alias": "jiangnan-chinese-cuisine-new-york-4", "name": "Jiangnan Chinese Cuisine", "image_url": "https://s3-media2.fl.yelpcdn.com/bphoto/9XCj_Dp0poZp39seMRo6UQ/o.jpg", "is_closed": false, "url": "https://www.yelp.com/biz/jiangnan-chinese-cuisine-new-york-4?adjust_creative=9gNmiWYX8uTbFBeTTvJMdA&utm_campaign=yelp_api_v3&utm_medium=api_v3_business_search&utm_source=9gNmiWYX8uTbFBeTTvJMdA", "review_count": 66, "categories": [{"alias": "chinese", "title": "Chinese"}], "rating": 3.5, "coordinates": {"latitude": 40.7084231394503, "longitude": -74.0140241895666}, "transactions": ["pickup", "delivery"], "price": "$$", "location": {"address1": "103 Washington St", "address2": "Fl 2", "address3": null, "city": "New York", "zip_code": "10006", "country": "US", "state": "NY", "display_address": ["103 Washington St", "Fl 2", "New York, NY 10006"]}, "phone": "+12129622096", "display_phone": "(212) 962-2096", "distance": 6773.038871994683}, {"id": "4DInnPhOyvXFbYpUdO0SMQ", "alias": "antidote-brooklyn-2", "name": "Antidote", "image_url": "https://s3-media1.fl.yelpcdn.com/bphoto/BLX5aFrPlJShwvee1vh7ug/o.jpg", "is_closed": false, "url": "https://www.yelp.com/biz/antidote-brooklyn-2?adjust_creative=9gNmiWYX8uTbFBeTTvJMdA&utm_campaign=yelp_api_v3&utm_medium=api_v3_business_search&utm_source=9gNmiWYX8uTbFBeTTvJMdA", "review_count": 306, "categories": [{"alias": "cocktailbars", "title": "Cocktail Bars"}, {"alias": "dimsum", "title": "Dim Sum"}, {"alias": "szechuan", "title": "Szechuan"}], "rating": 4.5, "coordinates": {"latitude": 40.714253413118925, "longitude": -73.96544806659222}, "transactions": ["pickup", "delivery"], "price": "$$", "location": {"address1": "66 S 2nd St", "address2": "", "address3": null, "city": "Brooklyn", "zip_code": "11249", "country": "US", "state": "NY", "display_address": ["66 S 2nd St", "Brooklyn, NY 11249"]}, "phone": "+17187822585", "display_phone": "(718) 782-2585", "distance": 5007.09610101463}, {"id": "GJZnf3B-ADjlCV1NXsHvGQ", "alias": "tangs-garden-new-york-2", "name": "Tang's Garden", "image_url": "https://s3-media2.fl.yelpcdn.com/bphoto/x85im0EIqPTxhO_wAyM5Ww/o.jpg", "is_closed": false, "url": "https://www.yelp.com/biz/tangs-garden-new-york-2?adjust_creative=9gNmiWYX8uTbFBeTTvJMdA&utm_campaign=yelp_api_v3&utm_medium=api_v3_business_search&utm_source=9gNmiWYX8uTbFBeTTvJMdA", "review_count": 110, "categories": [{"alias": "chinese", "title": "Chinese"}, {"alias": "chicken_wings", "title": "Chicken Wings"}], "rating": 3.0, "coordinates": {"latitude": 40.7722574, "longitude": -73.9589547}, "transactions": ["pickup", "delivery"], "price": "$$", "location": {"address1": "1328 3rd Ave", "address2": "", "address3": "", "city": "New York", "zip_code": "10021", "country": "US", "state": "NY", "display_address": ["1328 3rd Ave", "New York, NY 10021"]}, "phone": "+12122492102", "display_phone": "(212) 249-2102", "distance": 1709.321991582272}, {"id": "GAFqRBlqZpLK2vYbiqzYhA", "alias": "peppercorn-station-new-york", "name": "Peppercorn Station", "image_url": "https://s3-media2.fl.yelpcdn.com/bphoto/EtwCwW1vfuSSpNyqSYO0hQ/o.jpg", "is_closed": false, "url": "https://www.yelp.com/biz/peppercorn-station-new-york?adjust_creative=9gNmiWYX8uTbFBeTTvJMdA&utm_campaign=yelp_api_v3&utm_medium=api_v3_business_search&utm_source=9gNmiWYX8uTbFBeTTvJMdA", "review_count": 72, "categories": [{"alias": "szechuan", "title": "Szechuan"}], "rating": 4.5, "coordinates": {"latitude": 40.75266, "longitude": -73.98512}, "transactions": ["pickup", "delivery"], "price": "$$", "location": {"address1": "66 W 39th St", "address2": null, "address3": null, "city": "New York", "zip_code": "10018", "country": "US", "state": "NY", "display_address": ["66 W 39th St", "New York, NY 10018"]}, "phone": "+16464905444", "display_phone": "(646) 490-5444", "distance": 1502.6236510175893}, {"id": "Dqu-5RxNbbpBsL1Ssht9Ng", "alias": "hunan-slurp-new-york-2", "name": "Hunan Slurp", "image_url": "https://s3-media4.fl.yelpcdn.com/bphoto/HCHuAeI5enoCO_thlegG9A/o.jpg", "is_closed": false, "url": "https://www.yelp.com/biz/hunan-slurp-new-york-2?adjust_creative=9gNmiWYX8uTbFBeTTvJMdA&utm_campaign=yelp_api_v3&utm_medium=api_v3_business_search&utm_source=9gNmiWYX8uTbFBeTTvJMdA", "review_count": 256, "categories": [{"alias": "noodles", "title": "Noodles"}, {"alias": "chinese", "title": "Chinese"}], "rating": 4.0, "coordinates": {"latitude": 40.72669, "longitude": -73.98563}, "transactions": ["pickup", "delivery"], "price": "$$$", "location": {"address1": "112 1st Ave", "address2": "", "address3": null, "city": "New York", "zip_code": "10009", "country": "US", "state": "NY", "display_address": ["112 1st Ave", "New York, NY 10009"]}, "phone": "+16465859585", "display_phone": "(646) 585-9585", "distance": 3857.0901499436304}, {"id": "wyjtGsW5NeVDknGQWnIPAQ", "alias": "wagamama-midtown-new-york", "name": "wagamama - midtown", "image_url": "https://s3-media3.fl.yelpcdn.com/bphoto/iFzD-xg302rBxgbY6k9XuQ/o.jpg", "is_closed": false, "url": "https://www.yelp.com/biz/wagamama-midtown-new-york?adjust_creative=9gNmiWYX8uTbFBeTTvJMdA&utm_campaign=yelp_api_v3&utm_medium=api_v3_business_search&utm_source=9gNmiWYX8uTbFBeTTvJMdA", "review_count": 267, "categories": [{"alias": "asianfusion", "title": "Asian Fusion"}], "rating": 4.5, "coordinates": {"latitude": 40.76316041296893, "longitude": -73.97885444091449}, "transactions": ["pickup", "delivery"], "price": "$$", "location": {"address1": "100 W 55th St", "address2": null, "address3": "", "city": "New York", "zip_code": "10019", "country": "US", "state": "NY", "display_address": ["100 W 55th St", "New York, NY 10019"]}, "phone": "+13329006111", "display_phone": "(332) 900-6111", "distance": 898.5336646887932}, {"id": "bnDfFdiCcPzhuNWUJORvLQ", "alias": "noodle-village-new-york-7", "name": "Noodle Village", "image_url": "https://s3-media4.fl.yelpcdn.com/bphoto/TwBJ_7nfanDH2CNQ-NQxQA/o.jpg", "is_closed": false, "url": "https://www.yelp.com/biz/noodle-village-new-york-7?adjust_creative=9gNmiWYX8uTbFBeTTvJMdA&utm_campaign=yelp_api_v3&utm_medium=api_v3_business_search&utm_source=9gNmiWYX8uTbFBeTTvJMdA", "review_count": 1342, "categories": [{"alias": "chinese", "title": "Chinese"}, {"alias": "noodles", "title": "Noodles"}], "rating": 4.0, "coordinates": {"latitude": 40.714167, "longitude": -73.998803}, "transactions": ["pickup", "delivery"], "price": "$$", "location": {"address1": "13 Mott St", "address2": "", "address3": "", "city": "New York", "zip_code": "10013", "country": "US", "state": "NY", "display_address": ["13 Mott St", "New York, NY 10013"]}, "phone": "+12122330788", "display_phone": "(212) 233-0788", "distance": 5577.721872100028}, {"id": "Bwj7nzWphGV6FaZ_ygTSOg", "alias": "happy-hot-hunan-new-york", "name": "Happy Hot Hunan", "image_url": "https://s3-media2.fl.yelpcdn.com/bphoto/UAarbRSHHx4MN5wbNEOT0g/o.jpg", "is_closed": false, "url": "https://www.yelp.com/biz/happy-hot-hunan-new-york?adjust_creative=9gNmiWYX8uTbFBeTTvJMdA&utm_campaign=yelp_api_v3&utm_medium=api_v3_business_search&utm_source=9gNmiWYX8uTbFBeTTvJMdA", "review_count": 185, "categories": [{"alias": "chinese", "title": "Chinese"}], "rating": 3.5, "coordinates": {"latitude": 40.80133, "longitude": -73.96466}, "transactions": ["pickup", "delivery"], "price": "$$", "location": {"address1": "969 Amsterdam Ave", "address2": "", "address3": "", "city": "New York", "zip_code": "10025", "country": "US", "state": "NY", "display_address": ["969 Amsterdam Ave", "New York, NY 10025"]}, "phone": "+12125311788", "display_phone": "(212) 531-1788", "distance": 4708.173655435013}, {"id": "lgS9lE0Y9FhzT68zCj5QCw", "alias": "hunan-bistro-new-york", "name": "Hunan Bistro", "image_url": "https://s3-media2.fl.yelpcdn.com/bphoto/Uqmypotc4RZna7VQcW-tpA/o.jpg", "is_closed": false, "url": "https://www.yelp.com/biz/hunan-bistro-new-york?adjust_creative=9gNmiWYX8uTbFBeTTvJMdA&utm_campaign=yelp_api_v3&utm_medium=api_v3_business_search&utm_source=9gNmiWYX8uTbFBeTTvJMdA", "review_count": 250, "categories": [{"alias": "chinese", "title": "Chinese"}], "rating": 3.5, "coordinates": {"latitude": 40.73234, "longitude": -73.9881}, "transactions": ["pickup", "delivery"], "price": "$$", "location": {"address1": "96 3rd Ave", "address2": null, "address3": "", "city": "New York", "zip_code": "10003", "country": "US", "state": "NY", "display_address": ["96 3rd Ave", "New York, NY 10003"]}, "phone": "+12123889855", "display_phone": "(212) 388-9855", "distance": 3367.776262265518}, {"id": "2wVirrAVg3ltAFHoHeXHMQ", "alias": "dim-sum-palace-new-york-9", "name": "Dim Sum Palace", "image_url": "https://s3-media2.fl.yelpcdn.com/bphoto/eSaOLayWbkTQ9r3fq1evzg/o.jpg", "is_closed": false, "url": "https://www.yelp.com/biz/dim-sum-palace-new-york-9?adjust_creative=9gNmiWYX8uTbFBeTTvJMdA&utm_campaign=yelp_api_v3&utm_medium=api_v3_business_search&utm_source=9gNmiWYX8uTbFBeTTvJMdA", "review_count": 355, "categories": [{"alias": "dimsum", "title": "Dim Sum"}, {"alias": "cantonese", "title": "Cantonese"}, {"alias": "desserts", "title": "Desserts"}], "rating": 4.5, "coordinates": {"latitude": 40.7259, "longitude": -73.98986}, "transactions": ["pickup", "delivery"], "price": "$$", "location": {"address1": "59 2nd Ave", "address2": null, "address3": "", "city": "New York", "zip_code": "10003", "country": "US", "state": "NY", "display_address": ["59 2nd Ave", "New York, NY 10003"]}, "phone": "+16464768846", "display_phone": "(646) 476-8846", "distance": 4075.5543356750118}, {"id": "wzmeaMTm5cZ1JCjep7iQeA", "alias": "zls-bbq-new-york", "name": "ZLS BBQ", "image_url": "https://s3-media3.fl.yelpcdn.com/bphoto/9zfg3VKbXszlB4VRJcm4Ag/o.jpg", "is_closed": false, "url": "https://www.yelp.com/biz/zls-bbq-new-york?adjust_creative=9gNmiWYX8uTbFBeTTvJMdA&utm_campaign=yelp_api_v3&utm_medium=api_v3_business_search&utm_source=9gNmiWYX8uTbFBeTTvJMdA", "review_count": 34, "categories": [{"alias": "bbq", "title": "Barbeque"}, {"alias": "chinese", "title": "Chinese"}], "rating": 4.0, "coordinates": {"latitude": 40.738626, "longitude": -73.981944}, "transactions": ["pickup", "delivery"], "location": {"address1": "219 E 23rd St", "address2": "", "address3": null, "city": "New York", "zip_code": "10010", "country": "US", "state": "NY", "display_address": ["219 E 23rd St", "New York, NY 10010"]}, "phone": "+16467819595", "display_phone": "(646) 781-9595", "distance": 2511.9202238009498}, {"id": "Puyzn1gagH9TsJz7EBJs3g", "alias": "baji-baji-new-york", "name": "Baji Baji", "image_url": "https://s3-media3.fl.yelpcdn.com/bphoto/x6skz4gZQVq5ei9kUwPUJg/o.jpg", "is_closed": false, "url": "https://www.yelp.com/biz/baji-baji-new-york?adjust_creative=9gNmiWYX8uTbFBeTTvJMdA&utm_campaign=yelp_api_v3&utm_medium=api_v3_business_search&utm_source=9gNmiWYX8uTbFBeTTvJMdA", "review_count": 58, "categories": [{"alias": "chinese", "title": "Chinese"}], "rating": 4.5, "coordinates": {"latitude": 40.72821421354205, "longitude": -73.98516918819301}, "transactions": ["pickup", "delivery"], "location": {"address1": "145 1st Ave", "address2": null, "address3": "", "city": "New York", "zip_code": "10003", "country": "US", "state": "NY", "display_address": ["145 1st Ave", "New York, NY 10003"]}, "phone": "+12127773888", "display_phone": "(212) 777-3888", "distance": 3684.8258782910225}, {"id": "cG9yhk_wkMm7XwR2HcHmrQ", "alias": "hidden-leaf-new-york", "name": "Hidden Leaf", "image_url": "https://s3-media3.fl.yelpcdn.com/bphoto/3jT-QRzci7YwcUt72UmqQw/o.jpg", "is_closed": false, "url": "https://www.yelp.com/biz/hidden-leaf-new-york?adjust_creative=9gNmiWYX8uTbFBeTTvJMdA&utm_campaign=yelp_api_v3&utm_medium=api_v3_business_search&utm_source=9gNmiWYX8uTbFBeTTvJMdA", "review_count": 49, "categories": [{"alias": "bars", "title": "Bars"}, {"alias": "dimsum", "title": "Dim Sum"}], "rating": 4.5, "coordinates": {"latitude": 40.7523775, "longitude": -73.99826159999999}, "transactions": ["pickup", "delivery"], "location": {"address1": "75 Manhattan West Plaza", "address2": "", "address3": "One Manhattan West Plaza", "city": "New York", "zip_code": "10001", "country": "US", "state": "NY", "display_address": ["75 Manhattan West Plaza", "One Manhattan West Plaza", "New York, NY 10001"]}, "phone": "+19179052782", "display_phone": "(917) 905-2782", "distance": 2531.8057058937234}], "total": 3300, "region": {"center": {"longitude": -73.96957397460938, "latitude": 40.75917470627005}}}