{"businesses": [{"id": "SYFLyQAFRFoDURRWafeLKA", "alias": "lin-and-daughters-new-york", "name": "Lin & Daughters", "image_url": "https://s3-media2.fl.yelpcdn.com/bphoto/z4TryJeUGgSce80sB587cw/o.jpg", "is_closed": false, "url": "https://www.yelp.com/biz/lin-and-daughters-new-york?adjust_creative=9gNmiWYX8uTbFBeTTvJMdA&utm_campaign=yelp_api_v3&utm_medium=api_v3_business_search&utm_source=9gNmiWYX8uTbFBeTTvJMdA", "review_count": 16, "categories": [{"alias": "chinese", "title": "Chinese"}, {"alias": "noodles", "title": "Noodles"}, {"alias": "bubbletea", "title": "Bubble Tea"}], "rating": 5.0, "coordinates": {"latitude": 40.73253, "longitude": -74.00167}, "transactions": ["pickup", "delivery"], "location": {"address1": "181 West 4th St", "address2": null, "address3": "", "city": "New York", "zip_code": "10014", "country": "US", "state": "NY", "display_address": ["181 West 4th St", "New York, NY 10014"]}, "phone": "+19176450229", "display_phone": "(917) 645-0229", "distance": 4011.758065322791}, {"id": "2fZhuDglZd7ezwTACqIs-w", "alias": "vanessa-s-dumpling-house-new-york-2", "name": "Vanessa\u2019s Dumpling House", "image_url": "https://s3-media1.fl.yelpcdn.com/bphoto/Hn8t7VUl6Z6C9fFwLPz8lA/o.jpg", "is_closed": false, "url": "https://www.yelp.com/biz/vanessa-s-dumpling-house-new-york-2?adjust_creative=9gNmiWYX8uTbFBeTTvJMdA&utm_campaign=yelp_api_v3&utm_medium=api_v3_business_search&utm_source=9gNmiWYX8uTbFBeTTvJMdA", "review_count": 25, "categories": [{"alias": "chinese", "title": "Chinese"}], "rating": 4.0, "coordinates": {"latitude": 40.77689383926089, "longitude": -73.95270970510296}, "transactions": ["pickup", "delivery"], "location": {"address1": "1623 2nd Ave", "address2": "", "address3": null, "city": "New York", "zip_code": "10028", "country": "US", "state": "NY", "display_address": ["1623 2nd Ave", "New York, NY 10028"]}, "phone": "+19173882695", "display_phone": "(917) 388-2695", "distance": 2428.784913518594}, {"id": "7Fv8r-NFhIqlzrFwoAuWqg", "alias": "china-guan-bing-new-york", "name": "China Guan Bing", "image_url": "https://s3-media3.fl.yelpcdn.com/bphoto/QZFv1LPLDKjdl9ZSVupNiw/o.jpg", "is_closed": false, "url": "https://www.yelp.com/biz/china-guan-bing-new-york?adjust_creative=9gNmiWYX8uTbFBeTTvJMdA&utm_campaign=yelp_api_v3&utm_medium=api_v3_business_search&utm_source=9gNmiWYX8uTbFBeTTvJMdA", "review_count": 18, "categories": [{"alias": "chinese", "title": "Chinese"}, {"alias": "foodtrucks", "title": "Food Trucks"}], "rating": 4.0, "coordinates": {"latitude": 40.74801947981109, "longitude": -73.93922123101494}, "transactions": [], "location": {"address1": "2748 Jackson Ave", "address2": null, "address3": "", "city": "New York", "zip_code": "11101", "country": "US", "state": "NY", "display_address": ["2748 Jackson Ave", "New York, NY 11101"]}, "phone": "+19294905345", "display_phone": "(929) 490-5345", "distance": 2841.704930213218}, {"id": "9U5tPyF6QEiVntlyTemxKA", "alias": "house-of-joy-new-york", "name": "House of Joy", "image_url": "https://s3-media4.fl.yelpcdn.com/bphoto/B3zS6dwpVYSKPQITTvpJNQ/o.jpg", "is_closed": false, "url": "https://www.yelp.com/biz/house-of-joy-new-york?adjust_creative=9gNmiWYX8uTbFBeTTvJMdA&utm_campaign=yelp_api_v3&utm_medium=api_v3_business_search&utm_source=9gNmiWYX8uTbFBeTTvJMdA", "review_count": 214, "categories": [{"alias": "dimsum", "title": "Dim Sum"}], "rating": 4.0, "coordinates": {"latitude": 40.71510354400104, "longitude": -73.998459}, "transactions": ["pickup", "delivery"], "price": "$$", "location": {"address1": "28 Pell St", "address2": null, "address3": "", "city": "New York", "zip_code": "10013", "country": "US", "state": "NY", "display_address": ["28 Pell St", "New York, NY 10013"]}, "phone": "+12122858688", "display_phone": "(212) 285-8688", "distance": 5471.515205633648}, {"id": "rkeH5HJIuX7ZcOaYNum9xA", "alias": "wus-wonton-king-new-york", "name": "Wu's Wonton King", "image_url": "https://s3-media2.fl.yelpcdn.com/bphoto/ZboE822VzRl9_T47n_y_pg/o.jpg", "is_closed": false, "url": "https://www.yelp.com/biz/wus-wonton-king-new-york?adjust_creative=9gNmiWYX8uTbFBeTTvJMdA&utm_campaign=yelp_api_v3&utm_medium=api_v3_business_search&utm_source=9gNmiWYX8uTbFBeTTvJMdA", "review_count": 457, "categories": [{"alias": "cantonese", "title": "Cantonese"}, {"alias": "seafood", "title": "Seafood"}, {"alias": "dimsum", "title": "Dim Sum"}], "rating": 4.0, "coordinates": {"latitude": 40.7139415501646, "longitude": -73.9899386554248}, "transactions": ["delivery"], "price": "$$", "location": {"address1": "165 E Broadway", "address2": "", "address3": "", "city": "New York", "zip_code": "10002", "country": "US", "state": "NY", "display_address": ["165 E Broadway", "New York, NY 10002"]}, "phone": "+12124771111", "display_phone": "(212) 477-1111", "distance": 5314.302562374677}, {"id": "u0qfikB-ppp6UwoNKqxlRw", "alias": "flame-new-york-3", "name": "Flame", "image_url": "https://s3-media2.fl.yelpcdn.com/bphoto/zXXTDdj7SpxvSZLGAvwsOA/o.jpg", "is_closed": false, "url": "https://www.yelp.com/biz/flame-new-york-3?adjust_creative=9gNmiWYX8uTbFBeTTvJMdA&utm_campaign=yelp_api_v3&utm_medium=api_v3_business_search&utm_source=9gNmiWYX8uTbFBeTTvJMdA", "review_count": 505, "categories": [{"alias": "sushi", "title": "Sushi Bars"}, {"alias": "japanese", "title": "Japanese"}, {"alias": "asianfusion", "title": "Asian Fusion"}], "rating": 4.0, "coordinates": {"latitude": 40.78396, "longitude": -73.97444}, "transactions": ["pickup", "delivery", "restaurant_reservation"], "price": "$$", "location": {"address1": "100 W 82nd St", "address2": null, "address3": "", "city": "New York", "zip_code": "10024", "country": "US", "state": "NY", "display_address": ["100 W 82nd St", "New York, NY 10024"]}, "phone": "+16468700301", "display_phone": "(646) 870-0301", "distance": 2788.8332013229606}, {"id": "S3ZAZrpakAUs8sVUb6ving", "alias": "little-kirin-new-york", "name": "Little Kirin", "image_url": "https://s3-media3.fl.yelpcdn.com/bphoto/JdCxrcA578-JskUIbop8gA/o.jpg", "is_closed": false, "url": "https://www.yelp.com/biz/little-kirin-new-york?adjust_creative=9gNmiWYX8uTbFBeTTvJMdA&utm_campaign=yelp_api_v3&utm_medium=api_v3_business_search&utm_source=9gNmiWYX8uTbFBeTTvJMdA", "review_count": 123, "categories": [{"alias": "comfortfood", "title": "Comfort Food"}, {"alias": "sandwiches", "title": "Sandwiches"}, {"alias": "asianfusion", "title": "Asian Fusion"}], "rating": 5.0, "coordinates": {"latitude": 40.72782, "longitude": -73.98551}, "transactions": ["pickup", "delivery"], "price": "$$", "location": {"address1": "81 St Marks Pl", "address2": null, "address3": "", "city": "New York", "zip_code": "10003", "country": "US", "state": "NY", "display_address": ["81 St Marks Pl", "New York, NY 10003"]}, "phone": "+16463989733", "display_phone": "(646) 398-9733", "distance": 3729.3578722169623}, {"id": "NXg-oNpx0GYNiErdHb8L5A", "alias": "awesum-dimsum-new-york-2", "name": "Awesum Dimsum", "image_url": "https://s3-media4.fl.yelpcdn.com/bphoto/bNwfMcj0foVk74jYBOWAdg/o.jpg", "is_closed": false, "url": "https://www.yelp.com/biz/awesum-dimsum-new-york-2?adjust_creative=9gNmiWYX8uTbFBeTTvJMdA&utm_campaign=yelp_api_v3&utm_medium=api_v3_business_search&utm_source=9gNmiWYX8uTbFBeTTvJMdA", "review_count": 577, "categories": [{"alias": "dimsum", "title": "Dim Sum"}, {"alias": "cantonese", "title": "Cantonese"}], "rating": 4.5, "coordinates": {"latitude": 40.7388534, "longitude": -73.98367370212858}, "transactions": ["pickup", "delivery"], "price": "$$", "location": {"address1": "160 E 23rd St", "address2": null, "address3": "", "city": "New York", "zip_code": "10010", "country": "US", "state": "NY", "display_address": ["160 E 23rd St", "New York, NY 10010"]}, "phone": "+16469983313", "display_phone": "(646) 998-3313", "distance": 2552.768371016583}, {"id": "tS4aiWBYgzlqKX898jr3_w", "alias": "shun-wang-elmhurst", "name": "Shun Wang", "image_url": "https://s3-media3.fl.yelpcdn.com/bphoto/2eFD_NWnBm99fmP3idOVKA/o.jpg", "is_closed": false, "url": "https://www.yelp.com/biz/shun-wang-elmhurst?adjust_creative=9gNmiWYX8uTbFBeTTvJMdA&utm_campaign=yelp_api_v3&utm_medium=api_v3_business_search&utm_source=9gNmiWYX8uTbFBeTTvJMdA", "review_count": 199, "categories": [{"alias": "bbq", "title": "Barbeque"}, {"alias": "cantonese", "title": "Cantonese"}], "rating": 4.0, "coordinates": {"latitude": 40.7431373596191, "longitude": -73.8830413818359}, "transactions": ["delivery"], "price": "$", "location": {"address1": "81-25 Broadway", "address2": "", "address3": "", "city": "Elmhurst", "zip_code": "11373", "country": "US", "state": "NY", "display_address": ["81-25 Broadway", "Elmhurst, NY 11373"]}, "phone": "+17187793330", "display_phone": "(718) 779-3330", "distance": 7504.110221673775}, {"id": "oTkzgr7hzOAdlP99Auj3GQ", "alias": "momosan-ramen-and-sake-new-york-new-york", "name": "Momosan Ramen & Sake - New York", "image_url": "https://s3-media3.fl.yelpcdn.com/bphoto/y1zFJ01-X-A9vaCmH1if7g/o.jpg", "is_closed": false, "url": "https://www.yelp.com/biz/momosan-ramen-and-sake-new-york-new-york?adjust_creative=9gNmiWYX8uTbFBeTTvJMdA&utm_campaign=yelp_api_v3&utm_medium=api_v3_business_search&utm_source=9gNmiWYX8uTbFBeTTvJMdA", "review_count": 1799, "categories": [{"alias": "ramen", "title": "Ramen"}, {"alias": "asianfusion", "title": "Asian Fusion"}], "rating": 4.0, "coordinates": {"latitude": 40.74993, "longitude": -73.97746}, "transactions": ["pickup", "delivery"], "price": "$$", "location": {"address1": "342 Lexington Ave", "address2": "", "address3": "", "city": "New York", "zip_code": "10016", "country": "US", "state": "NY", "display_address": ["342 Lexington Ave", "New York, NY 10016"]}, "phone": "+16462015529", "display_phone": "(646) 201-5529", "distance": 1224.7837342614102}, {"id": "U74_3F7r3tMhd6dmTmDBxQ", "alias": "macao-trading-company-new-york", "name": "Macao Trading Company", "image_url": "https://s3-media2.fl.yelpcdn.com/bphoto/EY5hMnXAFZpZcISNvOEymQ/o.jpg", "is_closed": false, "url": "https://www.yelp.com/biz/macao-trading-company-new-york?adjust_creative=9gNmiWYX8uTbFBeTTvJMdA&utm_campaign=yelp_api_v3&utm_medium=api_v3_business_search&utm_source=9gNmiWYX8uTbFBeTTvJMdA", "review_count": 840, "categories": [{"alias": "asianfusion", "title": "Asian Fusion"}, {"alias": "portuguese", "title": "Portuguese"}, {"alias": "chinese", "title": "Chinese"}], "rating": 4.0, "coordinates": {"latitude": 40.719623, "longitude": -74.003904}, "transactions": ["pickup", "delivery"], "price": "$$$", "location": {"address1": "311 Church St", "address2": "", "address3": "", "city": "New York", "zip_code": "10013", "country": "US", "state": "NY", "display_address": ["311 Church St", "New York, NY 10013"]}, "phone": "+12124318642", "display_phone": "(212) 431-8642", "distance": 5263.485448410985}, {"id": "SFleMiroXTeWnXfonRic-w", "alias": "fast-wok-bronx", "name": "Fast Wok", "image_url": "https://s3-media4.fl.yelpcdn.com/bphoto/lMi_iHmeUh8Icy9CyySSGQ/o.jpg", "is_closed": false, "url": "https://www.yelp.com/biz/fast-wok-bronx?adjust_creative=9gNmiWYX8uTbFBeTTvJMdA&utm_campaign=yelp_api_v3&utm_medium=api_v3_business_search&utm_source=9gNmiWYX8uTbFBeTTvJMdA", "review_count": 8, "categories": [{"alias": "chinese", "title": "Chinese"}], "rating": 4.0, "coordinates": {"latitude": 40.808, "longitude": -73.9187199}, "transactions": [], "location": {"address1": "260 Brook Ave", "address2": "", "address3": "", "city": "Bronx", "zip_code": "10454", "country": "US", "state": "NY", "display_address": ["260 Brook Ave", "Bronx, NY 10454"]}, "phone": "+17182921801", "display_phone": "(718) 292-1801", "distance": 6917.970012517536}, {"id": "inp9N7bo9zqQSa8h8UBhqg", "alias": "empire-szechuan-new-york-4", "name": "Empire Szechuan", "image_url": "https://s3-media2.fl.yelpcdn.com/bphoto/QrFOHIS37s-T476L0Uy42A/o.jpg", "is_closed": false, "url": "https://www.yelp.com/biz/empire-szechuan-new-york-4?adjust_creative=9gNmiWYX8uTbFBeTTvJMdA&utm_campaign=yelp_api_v3&utm_medium=api_v3_business_search&utm_source=9gNmiWYX8uTbFBeTTvJMdA", "review_count": 281, "categories": [{"alias": "chinese", "title": "Chinese"}, {"alias": "japanese", "title": "Japanese"}], "rating": 2.5, "coordinates": {"latitude": 40.77519480003534, "longitude": -73.98020523638911}, "transactions": ["pickup", "delivery"], "price": "$$", "location": {"address1": "193 Columbus Ave", "address2": "", "address3": "", "city": "New York", "zip_code": "10023", "country": "US", "state": "NY", "display_address": ["193 Columbus Ave", "New York, NY 10023"]}, "phone": "+12124968778", "display_phone": "(212) 496-8778", "distance": 1993.6912669148921}, {"id": "7hh2eP4HVkyjtpcqeITk3Q", "alias": "ollies-noodle-shop-and-grille-new-york", "name": "Ollie's Noodle Shop & Grille", "image_url": "https://s3-media2.fl.yelpcdn.com/bphoto/Vm90aq-JR9it2Lj-gqyDIg/o.jpg", "is_closed": false, "url": "https://www.yelp.com/biz/ollies-noodle-shop-and-grille-new-york?adjust_creative=9gNmiWYX8uTbFBeTTvJMdA&utm_campaign=yelp_api_v3&utm_medium=api_v3_business_search&utm_source=9gNmiWYX8uTbFBeTTvJMdA", "review_count": 213, "categories": [{"alias": "cantonese", "title": "Cantonese"}, {"alias": "noodles", "title": "Noodles"}, {"alias": "szechuan", "title": "Szechuan"}], "rating": 3.0, "coordinates": {"latitude": 40.79942, "longitude": -73.96868}, "transactions": ["pickup", "delivery"], "price": "$$", "location": {"address1": "2705 Broadway", "address2": "", "address3": "", "city": "New York", "zip_code": "10025", "country": "US", "state": "NY", "display_address": ["2705 Broadway", "New York, NY 10025"]}, "phone": "+12129323300", "display_phone": "(212) 932-3300", "distance": 4478.484500427203}, {"id": "ItZ8CzZAGXGjB8_9HxDIXg", "alias": "grand-sichuan-eastern-new-york-3", "name": "Grand Sichuan Eastern", "image_url": "https://s3-media3.fl.yelpcdn.com/bphoto/KACjAF8WC8iAXP897eKNvw/o.jpg", "is_closed": false, "url": "https://www.yelp.com/biz/grand-sichuan-eastern-new-york-3?adjust_creative=9gNmiWYX8uTbFBeTTvJMdA&utm_campaign=yelp_api_v3&utm_medium=api_v3_business_search&utm_source=9gNmiWYX8uTbFBeTTvJMdA", "review_count": 141, "categories": [{"alias": "szechuan", "title": "Szechuan"}], "rating": 3.0, "coordinates": {"latitude": 40.74256, "longitude": -74.00026}, "transactions": ["pickup", "delivery"], "price": "$$", "location": {"address1": "172 8th Ave", "address2": "", "address3": "", "city": "New York", "zip_code": "10011", "country": "US", "state": "NY", "display_address": ["172 8th Ave", "New York, NY 10011"]}, "phone": "+12122431688", "display_phone": "(212) 243-1688", "distance": 3174.5692765837894}, {"id": "SyvC0s3y0ZrtnLbwnvw7tw", "alias": "tim-ho-wan-new-york-2", "name": "Tim Ho Wan", "image_url": "https://s3-media1.fl.yelpcdn.com/bphoto/5xVz5brk00-GnfO9XcThBg/o.jpg", "is_closed": false, "url": "https://www.yelp.com/biz/tim-ho-wan-new-york-2?adjust_creative=9gNmiWYX8uTbFBeTTvJMdA&utm_campaign=yelp_api_v3&utm_medium=api_v3_business_search&utm_source=9gNmiWYX8uTbFBeTTvJMdA", "review_count": 1856, "categories": [{"alias": "dimsum", "title": "Dim Sum"}, {"alias": "cantonese", "title": "Cantonese"}], "rating": 3.5, "coordinates": {"latitude": 40.731338, "longitude": -73.990145}, "transactions": ["pickup", "delivery"], "price": "$$", "location": {"address1": "85 4th Ave", "address2": "", "address3": null, "city": "New York", "zip_code": "10003", "country": "US", "state": "NY", "display_address": ["85 4th Ave", "New York, NY 10003"]}, "phone": "+12122282800", "display_phone": "(212) 228-2800", "distance": 3547.4007950322257}, {"id": "riEXluKIJm3Behd9WA5Y5w", "alias": "han-dynasty-new-york-9", "name": "Han Dynasty", "image_url": "https://s3-media2.fl.yelpcdn.com/bphoto/DnJlRcLiQhRb57f0gd_zpw/o.jpg", "is_closed": false, "url": "https://www.yelp.com/biz/han-dynasty-new-york-9?adjust_creative=9gNmiWYX8uTbFBeTTvJMdA&utm_campaign=yelp_api_v3&utm_medium=api_v3_business_search&utm_source=9gNmiWYX8uTbFBeTTvJMdA", "review_count": 11, "categories": [{"alias": "fooddeliveryservices", "title": "Food Delivery Services"}, {"alias": "szechuan", "title": "Szechuan"}], "rating": 3.5, "coordinates": {"latitude": 40.75505, "longitude": -73.99216}, "transactions": ["pickup", "delivery"], "location": {"address1": "307 W 38th St", "address2": "", "address3": "Kitchen United", "city": "New York", "zip_code": "10018", "country": "US", "state": "NY", "display_address": ["307 W 38th St", "Kitchen United", "New York, NY 10018"]}, "phone": "+16463705170", "display_phone": "(646) 370-5170", "distance": 1968.0058884619314}, {"id": "QGFeEEwA5b19L_hSsmocPw", "alias": "jia-queens", "name": "Jia", "image_url": "https://s3-media2.fl.yelpcdn.com/bphoto/zkOWs9DCIQo4P9HR9Q6x3g/o.jpg", "is_closed": false, "url": "https://www.yelp.com/biz/jia-queens?adjust_creative=9gNmiWYX8uTbFBeTTvJMdA&utm_campaign=yelp_api_v3&utm_medium=api_v3_business_search&utm_source=9gNmiWYX8uTbFBeTTvJMdA", "review_count": 3, "categories": [{"alias": "dimsum", "title": "Dim Sum"}], "rating": 4.5, "coordinates": {"latitude": 40.7486281, "longitude": -73.9385852}, "transactions": [], "location": {"address1": "28-17 Jackson Ave", "address2": "", "address3": null, "city": "Queens", "zip_code": "11101", "country": "US", "state": "NY", "display_address": ["28-17 Jackson Ave", "Queens, NY 11101"]}, "phone": "+19295107040", "display_phone": "(929) 510-7040", "distance": 2834.9476318841434}, {"id": "TwxP5xU_xyzlf7SVzCnpuA", "alias": "proong-noodle-bar-new-york-6", "name": "Proong Noodle Bar", "image_url": "https://s3-media1.fl.yelpcdn.com/bphoto/xmu_8x3Kxdg1amJqQg4Lyg/o.jpg", "is_closed": false, "url": "https://www.yelp.com/biz/proong-noodle-bar-new-york-6?adjust_creative=9gNmiWYX8uTbFBeTTvJMdA&utm_campaign=yelp_api_v3&utm_medium=api_v3_business_search&utm_source=9gNmiWYX8uTbFBeTTvJMdA", "review_count": 193, "categories": [{"alias": "noodles", "title": "Noodles"}, {"alias": "ramen", "title": "Ramen"}, {"alias": "vegan", "title": "Vegan"}], "rating": 4.5, "coordinates": {"latitude": 40.73528, "longitude": -73.98003}, "transactions": ["pickup", "delivery"], "price": "$$", "location": {"address1": "347 1st Ave", "address2": "", "address3": null, "city": "New York", "zip_code": "10010", "country": "US", "state": "NY", "display_address": ["347 1st Ave", "New York, NY 10010"]}, "phone": "+12124751564", "display_phone": "(212) 475-1564", "distance": 2798.821959592878}, {"id": "pBIvJHn65iqlUh1L2tN-qg", "alias": "tao-downtown-restaurant-new-york-city", "name": "TAO Downtown Restaurant", "image_url": "https://s3-media3.fl.yelpcdn.com/bphoto/JWFPhO1Lhb9IvPSo7eIWOA/o.jpg", "is_closed": false, "url": "https://www.yelp.com/biz/tao-downtown-restaurant-new-york-city?adjust_creative=9gNmiWYX8uTbFBeTTvJMdA&utm_campaign=yelp_api_v3&utm_medium=api_v3_business_search&utm_source=9gNmiWYX8uTbFBeTTvJMdA", "review_count": 1666, "categories": [{"alias": "panasian", "title": "Pan Asian"}], "rating": 3.5, "coordinates": {"latitude": 40.742543316070794, "longitude": -74.00384559819703}, "transactions": ["pickup", "delivery"], "price": "$$$", "location": {"address1": "92 9th Ave", "address2": "", "address3": "", "city": "New York City", "zip_code": "10011", "country": "US", "state": "NY", "display_address": ["92 9th Ave", "New York City, NY 10011"]}, "phone": "+12128882724", "display_phone": "(212) 888-2724", "distance": 3428.44817387804}, {"id": "2tR7d61tBGNlGaJRYvrN0Q", "alias": "dumplings-and-things-sunnyside-2", "name": "Dumplings & Things", "image_url": "https://s3-media4.fl.yelpcdn.com/bphoto/GFOHKRqsdMSbAsC0UXvU4Q/o.jpg", "is_closed": false, "url": "https://www.yelp.com/biz/dumplings-and-things-sunnyside-2?adjust_creative=9gNmiWYX8uTbFBeTTvJMdA&utm_campaign=yelp_api_v3&utm_medium=api_v3_business_search&utm_source=9gNmiWYX8uTbFBeTTvJMdA", "review_count": 193, "categories": [{"alias": "chinese", "title": "Chinese"}], "rating": 3.5, "coordinates": {"latitude": 40.7425888323281, "longitude": -73.9189697784327}, "transactions": ["pickup", "delivery"], "price": "$", "location": {"address1": "45-26 46th St", "address2": "", "address3": "", "city": "Sunnyside", "zip_code": "11104", "country": "US", "state": "NY", "display_address": ["45-26 46th St", "Sunnyside, NY 11104"]}, "phone": "+17183922337", "display_phone": "(718) 392-2337", "distance": 4644.561194530539}, {"id": "_WXa2M3gz2Mi0ys3s88nDw", "alias": "la-salle-dumpling-room-new-york", "name": "La Salle Dumpling Room", "image_url": "https://s3-media4.fl.yelpcdn.com/bphoto/KCcxSG9InNbUjZ1CesdY0g/o.jpg", "is_closed": false, "url": "https://www.yelp.com/biz/la-salle-dumpling-room-new-york?adjust_creative=9gNmiWYX8uTbFBeTTvJMdA&utm_campaign=yelp_api_v3&utm_medium=api_v3_business_search&utm_source=9gNmiWYX8uTbFBeTTvJMdA", "review_count": 319, "categories": [{"alias": "asianfusion", "title": "Asian Fusion"}, {"alias": "chinese", "title": "Chinese"}], "rating": 4.0, "coordinates": {"latitude": 40.81403, "longitude": -73.95983}, "transactions": ["pickup", "delivery"], "price": "$$", "location": {"address1": "3141 Broadway", "address2": null, "address3": "", "city": "New York", "zip_code": "10027", "country": "US", "state": "NY", "display_address": ["3141 Broadway", "New York, NY 10027"]}, "phone": "+12129610300", "display_phone": "(212) 961-0300", "distance": 6157.611174006095}, {"id": "8cyRl5HIQzbkYD7orq223g", "alias": "shi-long-island-city", "name": "SHI", "image_url": "https://s3-media3.fl.yelpcdn.com/bphoto/Xezo8P0ZsHvg82IZVC0BDg/o.jpg", "is_closed": false, "url": "https://www.yelp.com/biz/shi-long-island-city?adjust_creative=9gNmiWYX8uTbFBeTTvJMdA&utm_campaign=yelp_api_v3&utm_medium=api_v3_business_search&utm_source=9gNmiWYX8uTbFBeTTvJMdA", "review_count": 910, "categories": [{"alias": "asianfusion", "title": "Asian Fusion"}, {"alias": "sushi", "title": "Sushi Bars"}, {"alias": "japanese", "title": "Japanese"}], "rating": 3.5, "coordinates": {"latitude": 40.74599336793073, "longitude": -73.957094}, "transactions": ["pickup", "delivery"], "price": "$$", "location": {"address1": "4720 Center Blvd", "address2": "", "address3": "", "city": "Long Island City", "zip_code": "11109", "country": "US", "state": "NY", "display_address": ["4720 Center Blvd", "Long Island City, NY 11109"]}, "phone": "+13472422450", "display_phone": "(347) 242-2450", "distance": 1803.7094628268676}, {"id": "bDsXyYwzk4I9_7l51D_gaA", "alias": "cafe-everghreen-new-york", "name": "Cafe Evergreen", "image_url": "https://s3-media1.fl.yelpcdn.com/bphoto/FRD4y6DQ8G_KAR4XbQd8Dw/o.jpg", "is_closed": false, "url": "https://www.yelp.com/biz/cafe-everghreen-new-york?adjust_creative=9gNmiWYX8uTbFBeTTvJMdA&utm_campaign=yelp_api_v3&utm_medium=api_v3_business_search&utm_source=9gNmiWYX8uTbFBeTTvJMdA", "review_count": 212, "categories": [{"alias": "chinese", "title": "Chinese"}, {"alias": "lounges", "title": "Lounges"}], "rating": 3.5, "coordinates": {"latitude": 40.76891, "longitude": -73.9556}, "transactions": ["pickup", "delivery"], "price": "$$", "location": {"address1": "1367 1st Ave", "address2": "", "address3": "", "city": "New York", "zip_code": "10021", "country": "US", "state": "NY", "display_address": ["1367 1st Ave", "New York, NY 10021"]}, "phone": "+12127443266", "display_phone": "(212) 744-3266", "distance": 1599.147817660626}, {"id": "O1fUmxt3kbV-rnyjBtzAfw", "alias": "thep-thai-restaurant-new-york-5", "name": "THEP Thai Restaurant", "image_url": "https://s3-media3.fl.yelpcdn.com/bphoto/WymEpZCm4CPRTeVHXVyzXQ/o.jpg", "is_closed": false, "url": "https://www.yelp.com/biz/thep-thai-restaurant-new-york-5?adjust_creative=9gNmiWYX8uTbFBeTTvJMdA&utm_campaign=yelp_api_v3&utm_medium=api_v3_business_search&utm_source=9gNmiWYX8uTbFBeTTvJMdA", "review_count": 2511, "categories": [{"alias": "thai", "title": "Thai"}, {"alias": "noodles", "title": "Noodles"}, {"alias": "asianfusion", "title": "Asian Fusion"}], "rating": 4.5, "coordinates": {"latitude": 40.77078, "longitude": -73.95727}, "transactions": ["pickup", "delivery"], "price": "$$", "location": {"address1": "1439 2nd Ave", "address2": "", "address3": null, "city": "New York", "zip_code": "10021", "country": "US", "state": "NY", "display_address": ["1439 2nd Ave", "New York, NY 10021"]}, "phone": "+12128999995", "display_phone": "(212) 899-9995", "distance": 1654.2836884246487}, {"id": "OXNPuN7KcjP9T5DdilgzdQ", "alias": "hakka-cuisine-new-york", "name": "Hakka Cuisine", "image_url": "https://s3-media4.fl.yelpcdn.com/bphoto/reeBU1OSvIu6AFD2hoZ28Q/o.jpg", "is_closed": false, "url": "https://www.yelp.com/biz/hakka-cuisine-new-york?adjust_creative=9gNmiWYX8uTbFBeTTvJMdA&utm_campaign=yelp_api_v3&utm_medium=api_v3_business_search&utm_source=9gNmiWYX8uTbFBeTTvJMdA", "review_count": 23, "categories": [{"alias": "chinese", "title": "Chinese"}, {"alias": "cocktailbars", "title": "Cocktail Bars"}], "rating": 4.0, "coordinates": {"latitude": 40.71398, "longitude": -73.9969}, "transactions": ["pickup", "delivery"], "location": {"address1": "11 Division St", "address2": null, "address3": "", "city": "New York", "zip_code": "10002", "country": "US", "state": "NY", "display_address": ["11 Division St", "New York, NY 10002"]}, "phone": "+12129416888", "display_phone": "(212) 941-6888", "distance": 5532.590124358867}, {"id": "HScFap2SwbUlfC-QXVkxFA", "alias": "xian-famous-foods-new-york-39", "name": "Xi'an Famous Foods", "image_url": "https://s3-media3.fl.yelpcdn.com/bphoto/CyKvNW7VtMAXPecnh9c1lA/o.jpg", "is_closed": false, "url": "https://www.yelp.com/biz/xian-famous-foods-new-york-39?adjust_creative=9gNmiWYX8uTbFBeTTvJMdA&utm_campaign=yelp_api_v3&utm_medium=api_v3_business_search&utm_source=9gNmiWYX8uTbFBeTTvJMdA", "review_count": 1685, "categories": [{"alias": "chinese", "title": "Chinese"}, {"alias": "burgers", "title": "Burgers"}, {"alias": "noodles", "title": "Noodles"}], "rating": 4.0, "coordinates": {"latitude": 40.755136, "longitude": -73.982194}, "transactions": ["delivery"], "price": "$", "location": {"address1": "37 W 43rd", "address2": "", "address3": "", "city": "New York", "zip_code": "10036", "country": "US", "state": "NY", "display_address": ["37 W 43rd", "New York, NY 10036"]}, "phone": "+12127862068", "display_phone": "(212) 786-2068", "distance": 1153.9343929335555}, {"id": "oFBgvlELwMtvqA0gcGr96g", "alias": "yong-kang-street-new-york-2", "name": "Yong Kang Street", "image_url": "https://s3-media3.fl.yelpcdn.com/bphoto/L4ZNN7L6LfU6fLEJyP_1rw/o.jpg", "is_closed": false, "url": "https://www.yelp.com/biz/yong-kang-street-new-york-2?adjust_creative=9gNmiWYX8uTbFBeTTvJMdA&utm_campaign=yelp_api_v3&utm_medium=api_v3_business_search&utm_source=9gNmiWYX8uTbFBeTTvJMdA", "review_count": 88, "categories": [{"alias": "asianfusion", "title": "Asian Fusion"}, {"alias": "poke", "title": "Poke"}, {"alias": "sushi", "title": "Sushi Bars"}], "rating": 3.5, "coordinates": {"latitude": 40.767124, "longitude": -73.983013}, "transactions": ["pickup", "delivery"], "price": "$$", "location": {"address1": "1000 8th Ave", "address2": "", "address3": "", "city": "New York", "zip_code": "10019", "country": "US", "state": "NY", "display_address": ["1000 8th Ave", "New York, NY 10019"]}, "phone": "+12127658777", "display_phone": "(212) 765-8777", "distance": 1436.1002064284246}, {"id": "ePVlFbTzdVQFWie__kdplg", "alias": "main-noodle-house-new-york", "name": "Main Noodle House", "image_url": "https://s3-media2.fl.yelpcdn.com/bphoto/ISaufNuvMcp3hsvDya4rIQ/o.jpg", "is_closed": false, "url": "https://www.yelp.com/biz/main-noodle-house-new-york?adjust_creative=9gNmiWYX8uTbFBeTTvJMdA&utm_campaign=yelp_api_v3&utm_medium=api_v3_business_search&utm_source=9gNmiWYX8uTbFBeTTvJMdA", "review_count": 467, "categories": [{"alias": "chinese", "title": "Chinese"}, {"alias": "noodles", "title": "Noodles"}], "rating": 3.5, "coordinates": {"latitude": 40.752143, "longitude": -73.986396}, "transactions": ["pickup", "delivery"], "price": "$$", "location": {"address1": "1011 6th Ave", "address2": "", "address3": "", "city": "New York", "zip_code": "10018", "country": "US", "state": "NY", "display_address": ["1011 6th Ave", "New York, NY 10018"]}, "phone": "+12128690888", "display_phone": "(212) 869-0888", "distance": 1619.0455633539602}, {"id": "C0uaRMiXCCtjXdQSZhaU_A", "alias": "chinah-jersey-city-2", "name": "Chinah", "image_url": "https://s3-media1.fl.yelpcdn.com/bphoto/pW71TiM8O_xOL1L82v1xpw/o.jpg", "is_closed": false, "url": "https://www.yelp.com/biz/chinah-jersey-city-2?adjust_creative=9gNmiWYX8uTbFBeTTvJMdA&utm_campaign=yelp_api_v3&utm_medium=api_v3_business_search&utm_source=9gNmiWYX8uTbFBeTTvJMdA", "review_count": 82, "categories": [{"alias": "chinese", "title": "Chinese"}, {"alias": "vegetarian", "title": "Vegetarian"}, {"alias": "asianfusion", "title": "Asian Fusion"}], "rating": 4.0, "coordinates": {"latitude": 40.726758791670356, "longitude": -74.03579124603272}, "transactions": ["pickup", "delivery"], "price": "$$", "location": {"address1": "525 Washington Blvd", "address2": "Ste B", "address3": null, "city": "Jersey City", "zip_code": "07310", "country": "US", "state": "NJ", "display_address": ["525 Washington Blvd", "Ste B", "Jersey City, NJ 07310"]}, "phone": "", "display_phone": "", "distance": 6641.727109488413}, {"id": "7DnZWIn1Dcsvq-_pIXXFZQ", "alias": "hortus-nyc-new-york", "name": "Hortus NYC", "image_url": "https://s3-media3.fl.yelpcdn.com/bphoto/BFyIS0Y1BlwL_t9QHuzBJQ/o.jpg", "is_closed": false, "url": "https://www.yelp.com/biz/hortus-nyc-new-york?adjust_creative=9gNmiWYX8uTbFBeTTvJMdA&utm_campaign=yelp_api_v3&utm_medium=api_v3_business_search&utm_source=9gNmiWYX8uTbFBeTTvJMdA", "review_count": 422, "categories": [{"alias": "asianfusion", "title": "Asian Fusion"}, {"alias": "korean", "title": "Korean"}, {"alias": "tapasmallplates", "title": "Tapas/Small Plates"}], "rating": 4.5, "coordinates": {"latitude": 40.745481, "longitude": -73.986518}, "transactions": ["pickup", "delivery"], "price": "$$$", "location": {"address1": "271 5th Ave", "address2": null, "address3": "", "city": "New York", "zip_code": "10016", "country": "US", "state": "NY", "display_address": ["271 5th Ave", "New York, NY 10016"]}, "phone": "+16468583784", "display_phone": "(646) 858-3784", "distance": 2087.0115010329664}, {"id": "vQX7y4Yoknpso033IDATqA", "alias": "wenwen-brooklyn-2", "name": "Wenwen", "image_url": "https://s3-media3.fl.yelpcdn.com/bphoto/zNta2h7QG6zQXEPUAQHgJA/o.jpg", "is_closed": false, "url": "https://www.yelp.com/biz/wenwen-brooklyn-2?adjust_creative=9gNmiWYX8uTbFBeTTvJMdA&utm_campaign=yelp_api_v3&utm_medium=api_v3_business_search&utm_source=9gNmiWYX8uTbFBeTTvJMdA", "review_count": 142, "categories": [{"alias": "taiwanese", "title": "Taiwanese"}], "rating": 4.0, "coordinates": {"latitude": 40.73398, "longitude": -73.95504}, "transactions": [], "location": {"address1": "1025 Manhattan Ave", "address2": "", "address3": null, "city": "Brooklyn", "zip_code": "11222", "country": "US", "state": "NY", "display_address": ["1025 Manhattan Ave", "Brooklyn, NY 11222"]}, "phone": "", "display_phone": "", "distance": 3052.8235508512407}, {"id": "VpInBiE272MaN1Hi0DA-Zw", "alias": "sachi-asian-bistro-new-york", "name": "Sachi Asian Bistro", "image_url": "https://s3-media3.fl.yelpcdn.com/bphoto/CJOWtcBl19CjkQNGRrPW_g/o.jpg", "is_closed": false, "url": "https://www.yelp.com/biz/sachi-asian-bistro-new-york?adjust_creative=9gNmiWYX8uTbFBeTTvJMdA&utm_campaign=yelp_api_v3&utm_medium=api_v3_business_search&utm_source=9gNmiWYX8uTbFBeTTvJMdA", "review_count": 258, "categories": [{"alias": "sushi", "title": "Sushi Bars"}, {"alias": "panasian", "title": "Pan Asian"}], "rating": 4.0, "coordinates": {"latitude": 40.7478, "longitude": -73.97406}, "transactions": ["pickup", "delivery"], "price": "$$", "location": {"address1": "713 2nd Ave", "address2": "", "address3": "", "city": "New York", "zip_code": "10016", "country": "US", "state": "NY", "display_address": ["713 2nd Ave", "New York, NY 10016"]}, "phone": "+12122971883", "display_phone": "(212) 297-1883", "distance": 1335.3079652887534}, {"id": "8ig0yf0003DAp4YOGTlbVg", "alias": "spicy-village-new-york", "name": "Spicy Village", "image_url": "https://s3-media2.fl.yelpcdn.com/bphoto/NBSzFmT74KCxd5O_g6AkkQ/o.jpg", "is_closed": false, "url": "https://www.yelp.com/biz/spicy-village-new-york?adjust_creative=9gNmiWYX8uTbFBeTTvJMdA&utm_campaign=yelp_api_v3&utm_medium=api_v3_business_search&utm_source=9gNmiWYX8uTbFBeTTvJMdA", "review_count": 801, "categories": [{"alias": "chinese", "title": "Chinese"}], "rating": 4.0, "coordinates": {"latitude": 40.71695, "longitude": -73.99327}, "transactions": ["pickup", "delivery"], "price": "$$", "location": {"address1": "68 Forsyth St", "address2": "Ste B", "address3": "", "city": "New York", "zip_code": "10002", "country": "US", "state": "NY", "display_address": ["68 Forsyth St", "Ste B", "New York, NY 10002"]}, "phone": "+12126258299", "display_phone": "(212) 625-8299", "distance": 5095.67575148448}, {"id": "Xf6e3HaP0AgMBxY7dEDkOA", "alias": "99-favor-taste-new-york-new-york", "name": "99 Favor Taste - New York", "image_url": "https://s3-media1.fl.yelpcdn.com/bphoto/MJQEYfTY3pm44XIdeGJtIg/o.jpg", "is_closed": false, "url": "https://www.yelp.com/biz/99-favor-taste-new-york-new-york?adjust_creative=9gNmiWYX8uTbFBeTTvJMdA&utm_campaign=yelp_api_v3&utm_medium=api_v3_business_search&utm_source=9gNmiWYX8uTbFBeTTvJMdA", "review_count": 2102, "categories": [{"alias": "chinese", "title": "Chinese"}, {"alias": "hotpot", "title": "Hot Pot"}, {"alias": "bbq", "title": "Barbeque"}], "rating": 4.0, "coordinates": {"latitude": 40.7176199, "longitude": -73.99249}, "transactions": ["pickup", "delivery"], "price": "$$$", "location": {"address1": "285 Grand St", "address2": "", "address3": "", "city": "New York", "zip_code": "10002", "country": "US", "state": "NY", "display_address": ["285 Grand St", "New York, NY 10002"]}, "phone": "+16466829162", "display_phone": "(646) 682-9162", "distance": 5023.123304376257}, {"id": "NebgteFykeM1gwiVgPcCHw", "alias": "the-handpulled-noodle-new-york", "name": "The Handpulled Noodle", "image_url": "https://s3-media2.fl.yelpcdn.com/bphoto/zk3hE3qrROv4_UAekmmzlQ/o.jpg", "is_closed": false, "url": "https://www.yelp.com/biz/the-handpulled-noodle-new-york?adjust_creative=9gNmiWYX8uTbFBeTTvJMdA&utm_campaign=yelp_api_v3&utm_medium=api_v3_business_search&utm_source=9gNmiWYX8uTbFBeTTvJMdA", "review_count": 1105, "categories": [{"alias": "chinese", "title": "Chinese"}, {"alias": "noodles", "title": "Noodles"}], "rating": 4.0, "coordinates": {"latitude": 40.828384, "longitude": -73.948674}, "transactions": ["pickup", "delivery"], "price": "$$", "location": {"address1": "3600 Broadway", "address2": "Ste 3", "address3": "", "city": "New York", "zip_code": "10031", "country": "US", "state": "NY", "display_address": ["3600 Broadway", "Ste 3", "New York, NY 10031"]}, "phone": "+19172620213", "display_phone": "(917) 262-0213", "distance": 7894.269411229259}, {"id": "ipPhk_Tmp2JYInPWJR-ZgQ", "alias": "dun-huang-queens-2", "name": "Dun Huang", "image_url": "https://s3-media3.fl.yelpcdn.com/bphoto/HKJWWKw6eZKP_B6C0-ZzKQ/o.jpg", "is_closed": false, "url": "https://www.yelp.com/biz/dun-huang-queens-2?adjust_creative=9gNmiWYX8uTbFBeTTvJMdA&utm_campaign=yelp_api_v3&utm_medium=api_v3_business_search&utm_source=9gNmiWYX8uTbFBeTTvJMdA", "review_count": 40, "categories": [{"alias": "chinese", "title": "Chinese"}, {"alias": "noodles", "title": "Noodles"}], "rating": 4.0, "coordinates": {"latitude": 40.748034191355224, "longitude": -73.94037311324054}, "transactions": ["pickup", "delivery"], "location": {"address1": "27-23 Jackson Ave", "address2": "", "address3": null, "city": "Queens", "zip_code": "11101", "country": "US", "state": "NY", "display_address": ["27-23 Jackson Ave", "Queens, NY 11101"]}, "phone": "+13473965873", "display_phone": "(347) 396-5873", "distance": 2753.9991791107054}, {"id": "62Kedrco374IuZ_OFb0BxA", "alias": "3-times-new-york-6", "name": "3 Times", "image_url": "https://s3-media1.fl.yelpcdn.com/bphoto/I-kKW1dlEk444vgCEhTPTQ/o.jpg", "is_closed": false, "url": "https://www.yelp.com/biz/3-times-new-york-6?adjust_creative=9gNmiWYX8uTbFBeTTvJMdA&utm_campaign=yelp_api_v3&utm_medium=api_v3_business_search&utm_source=9gNmiWYX8uTbFBeTTvJMdA", "review_count": 232, "categories": [{"alias": "dimsum", "title": "Dim Sum"}, {"alias": "shanghainese", "title": "Shanghainese"}, {"alias": "noodles", "title": "Noodles"}], "rating": 4.0, "coordinates": {"latitude": 40.73285, "longitude": -73.99104}, "transactions": ["pickup", "delivery"], "price": "$$", "location": {"address1": "818 Broadway", "address2": "", "address3": null, "city": "New York", "zip_code": "10003", "country": "US", "state": "NY", "display_address": ["818 Broadway", "New York, NY 10003"]}, "phone": "+16466093040", "display_phone": "(646) 609-3040", "distance": 3439.8877170423975}, {"id": "DmTz35KvxO20mH-pJxLNpg", "alias": "xian-famous-foods-new-york-40", "name": "Xi'an Famous Foods", "image_url": "https://s3-media1.fl.yelpcdn.com/bphoto/mlx2aSjKjv8uZDO6jyV4tg/o.jpg", "is_closed": false, "url": "https://www.yelp.com/biz/xian-famous-foods-new-york-40?adjust_creative=9gNmiWYX8uTbFBeTTvJMdA&utm_campaign=yelp_api_v3&utm_medium=api_v3_business_search&utm_source=9gNmiWYX8uTbFBeTTvJMdA", "review_count": 120, "categories": [{"alias": "chinese", "title": "Chinese"}, {"alias": "noodles", "title": "Noodles"}, {"alias": "burgers", "title": "Burgers"}], "rating": 4.0, "coordinates": {"latitude": 40.740203, "longitude": -74.001963}, "transactions": ["delivery"], "price": "$$", "location": {"address1": "96 8th Ave", "address2": null, "address3": "", "city": "New York", "zip_code": "10011", "country": "US", "state": "NY", "display_address": ["96 8th Ave", "New York, NY 10011"]}, "phone": "+12127862068", "display_phone": "(212) 786-2068", "distance": 3448.7418142177294}, {"id": "Q99VEcN9r1Qqmvnm5I03tw", "alias": "wau-new-york", "name": "WAU", "image_url": "https://s3-media2.fl.yelpcdn.com/bphoto/RY6MyeyBD6jPjUuAYLjeTA/o.jpg", "is_closed": false, "url": "https://www.yelp.com/biz/wau-new-york?adjust_creative=9gNmiWYX8uTbFBeTTvJMdA&utm_campaign=yelp_api_v3&utm_medium=api_v3_business_search&utm_source=9gNmiWYX8uTbFBeTTvJMdA", "review_count": 154, "categories": [{"alias": "malaysian", "title": "Malaysian"}, {"alias": "thai", "title": "Thai"}, {"alias": "cocktailbars", "title": "Cocktail Bars"}], "rating": 4.0, "coordinates": {"latitude": 40.78448, "longitude": -73.97776}, "transactions": ["pickup", "delivery"], "price": "$$", "location": {"address1": "434 Amsterdam Ave", "address2": null, "address3": null, "city": "New York", "zip_code": "10024", "country": "US", "state": "NY", "display_address": ["434 Amsterdam Ave", "New York, NY 10024"]}, "phone": "+19172615926", "display_phone": "(917) 261-5926", "distance": 2897.334127387087}, {"id": "I_Va7AZSHpEwX75S-3hHLQ", "alias": "noodle-fun-new-york", "name": "Noodle Fun", "image_url": "https://s3-media4.fl.yelpcdn.com/bphoto/S_29eleEzC1vlkRdRNNsaQ/o.jpg", "is_closed": false, "url": "https://www.yelp.com/biz/noodle-fun-new-york?adjust_creative=9gNmiWYX8uTbFBeTTvJMdA&utm_campaign=yelp_api_v3&utm_medium=api_v3_business_search&utm_source=9gNmiWYX8uTbFBeTTvJMdA", "review_count": 164, "categories": [{"alias": "chinese", "title": "Chinese"}, {"alias": "noodles", "title": "Noodles"}], "rating": 4.0, "coordinates": {"latitude": 40.7795333862305, "longitude": -73.9470367431641}, "transactions": ["pickup", "delivery"], "price": "$$", "location": {"address1": "1744 1st Ave", "address2": null, "address3": null, "city": "New York", "zip_code": "10128", "country": "US", "state": "NY", "display_address": ["1744 1st Ave", "New York, NY 10128"]}, "phone": "+12128283881", "display_phone": "(212) 828-3881", "distance": 2953.3980881403654}, {"id": "1YGpTYD8xIuUpK_beMhzSw", "alias": "the-rice-noodle-new-york", "name": "The Rice Noodle", "image_url": "https://s3-media1.fl.yelpcdn.com/bphoto/LCYeNmrHHlzhvfTDi2H69g/o.jpg", "is_closed": false, "url": "https://www.yelp.com/biz/the-rice-noodle-new-york?adjust_creative=9gNmiWYX8uTbFBeTTvJMdA&utm_campaign=yelp_api_v3&utm_medium=api_v3_business_search&utm_source=9gNmiWYX8uTbFBeTTvJMdA", "review_count": 144, "categories": [{"alias": "noodles", "title": "Noodles"}, {"alias": "hotdogs", "title": "Fast Food"}, {"alias": "chinese", "title": "Chinese"}], "rating": 4.0, "coordinates": {"latitude": 40.729087, "longitude": -74.001525}, "transactions": ["pickup", "delivery"], "price": "$", "location": {"address1": "190 Bleecker St", "address2": null, "address3": "", "city": "New York", "zip_code": "10012", "country": "US", "state": "NY", "display_address": ["190 Bleecker St", "New York, NY 10012"]}, "phone": "+16468959908", "display_phone": "(646) 895-9908", "distance": 4301.452805738732}, {"id": "qI_HCkmN5Hl0ekVgFdHbCw", "alias": "beyond-wok-new-york", "name": "Beyond Wok", "image_url": "https://s3-media3.fl.yelpcdn.com/bphoto/hr7W_QAzj5klqmsATejjxQ/o.jpg", "is_closed": false, "url": "https://www.yelp.com/biz/beyond-wok-new-york?adjust_creative=9gNmiWYX8uTbFBeTTvJMdA&utm_campaign=yelp_api_v3&utm_medium=api_v3_business_search&utm_source=9gNmiWYX8uTbFBeTTvJMdA", "review_count": 20, "categories": [{"alias": "szechuan", "title": "Szechuan"}, {"alias": "poke", "title": "Poke"}], "rating": 4.5, "coordinates": {"latitude": 40.73629959165788, "longitude": -73.98898789158095}, "transactions": ["pickup", "delivery"], "location": {"address1": "42 Union Square E", "address2": "", "address3": null, "city": "New York", "zip_code": "10003", "country": "US", "state": "NY", "display_address": ["42 Union Square E", "New York, NY 10003"]}, "phone": "+16468611800", "display_phone": "(646) 861-1800", "distance": 3023.988342609842}, {"id": "yj9vVa08ABH6BBOLHMfJag", "alias": "bund-dumpling-house-astoria-2", "name": "Bund Dumpling House", "image_url": "https://s3-media1.fl.yelpcdn.com/bphoto/_G4GvMZ1GpqwRKNELuIOAg/o.jpg", "is_closed": false, "url": "https://www.yelp.com/biz/bund-dumpling-house-astoria-2?adjust_creative=9gNmiWYX8uTbFBeTTvJMdA&utm_campaign=yelp_api_v3&utm_medium=api_v3_business_search&utm_source=9gNmiWYX8uTbFBeTTvJMdA", "review_count": 305, "categories": [{"alias": "dimsum", "title": "Dim Sum"}, {"alias": "shanghainese", "title": "Shanghainese"}, {"alias": "noodles", "title": "Noodles"}], "rating": 4.0, "coordinates": {"latitude": 40.7631578922095, "longitude": -73.9282292}, "transactions": ["pickup", "delivery"], "price": "$$", "location": {"address1": "25-08 Broadway", "address2": "", "address3": null, "city": "Astoria", "zip_code": "11106", "country": "US", "state": "NY", "display_address": ["25-08 Broadway", "Astoria, NY 11106"]}, "phone": "+17189715465", "display_phone": "(718) 971-5465", "distance": 3510.241268443964}, {"id": "Aux2Mp7bGnF3S6h60ab3iQ", "alias": "yummy-city-new-york", "name": "Yummy City", "image_url": "https://s3-media2.fl.yelpcdn.com/bphoto/UucijZ6irDckyFiEAa-nKA/o.jpg", "is_closed": false, "url": "https://www.yelp.com/biz/yummy-city-new-york?adjust_creative=9gNmiWYX8uTbFBeTTvJMdA&utm_campaign=yelp_api_v3&utm_medium=api_v3_business_search&utm_source=9gNmiWYX8uTbFBeTTvJMdA", "review_count": 56, "categories": [{"alias": "chinese", "title": "Chinese"}], "rating": 4.5, "coordinates": {"latitude": 40.7879244458184, "longitude": -73.948986355818}, "transactions": ["delivery"], "price": "$", "location": {"address1": "1557 Lexington Ave", "address2": "", "address3": "", "city": "New York", "zip_code": "10029", "country": "US", "state": "NY", "display_address": ["1557 Lexington Ave", "New York, NY 10029"]}, "phone": "+12124276808", "display_phone": "(212) 427-6808", "distance": 3636.6391515373116}, {"id": "d8lAkqk2w3Lp9uiI4svu6w", "alias": "thai-chella-new-york-2", "name": "Thai Chella", "image_url": "https://s3-media2.fl.yelpcdn.com/bphoto/Vp6kH5xuIcxQflkoIgBYhQ/o.jpg", "is_closed": false, "url": "https://www.yelp.com/biz/thai-chella-new-york-2?adjust_creative=9gNmiWYX8uTbFBeTTvJMdA&utm_campaign=yelp_api_v3&utm_medium=api_v3_business_search&utm_source=9gNmiWYX8uTbFBeTTvJMdA", "review_count": 111, "categories": [{"alias": "thai", "title": "Thai"}, {"alias": "noodles", "title": "Noodles"}], "rating": 4.0, "coordinates": {"latitude": 40.76256, "longitude": -73.98941}, "transactions": ["pickup", "delivery"], "price": "$$", "location": {"address1": "712 9th Ave", "address2": null, "address3": "", "city": "New York", "zip_code": "10019", "country": "US", "state": "NY", "display_address": ["712 9th Ave", "New York, NY 10019"]}, "phone": "+16468632226", "display_phone": "(646) 863-2226", "distance": 1713.2030771060768}, {"id": "SQT1chaH2EmwYgNvvodGLQ", "alias": "ocean-bay-seafood-restaurant-elmhurst", "name": "Ocean Bay Seafood Restaurant", "image_url": "https://s3-media1.fl.yelpcdn.com/bphoto/rEw837HGO9FyjF2I2u5OvA/o.jpg", "is_closed": false, "url": "https://www.yelp.com/biz/ocean-bay-seafood-restaurant-elmhurst?adjust_creative=9gNmiWYX8uTbFBeTTvJMdA&utm_campaign=yelp_api_v3&utm_medium=api_v3_business_search&utm_source=9gNmiWYX8uTbFBeTTvJMdA", "review_count": 80, "categories": [{"alias": "seafood", "title": "Seafood"}, {"alias": "dimsum", "title": "Dim Sum"}, {"alias": "cantonese", "title": "Cantonese"}], "rating": 3.5, "coordinates": {"latitude": 40.736896, "longitude": -73.880196}, "transactions": ["pickup", "delivery"], "price": "$$", "location": {"address1": "83-02 Queens Blvd", "address2": "", "address3": null, "city": "Elmhurst", "zip_code": "11373", "country": "US", "state": "NY", "display_address": ["83-02 Queens Blvd", "Elmhurst, NY 11373"]}, "phone": "+17188981188", "display_phone": "(718) 898-1188", "distance": 7918.186295905729}, {"id": "v9jVyul3V5cqUkQco-iq8Q", "alias": "p-f-changs-to-go-new-york-8", "name": "P F Chang's To Go", "image_url": "https://s3-media2.fl.yelpcdn.com/bphoto/3QFz8y2eeWYs2AiD5IvpQw/o.jpg", "is_closed": false, "url": "https://www.yelp.com/biz/p-f-changs-to-go-new-york-8?adjust_creative=9gNmiWYX8uTbFBeTTvJMdA&utm_campaign=yelp_api_v3&utm_medium=api_v3_business_search&utm_source=9gNmiWYX8uTbFBeTTvJMdA", "review_count": 1, "categories": [{"alias": "chinese", "title": "Chinese"}, {"alias": "asianfusion", "title": "Asian Fusion"}, {"alias": "japanese", "title": "Japanese"}], "rating": 4.0, "coordinates": {"latitude": 40.76405, "longitude": -73.98499}, "transactions": ["pickup", "delivery"], "location": {"address1": "885 Eighth Ave", "address2": null, "address3": null, "city": "New York", "zip_code": "10019", "country": "US", "state": "NY", "display_address": ["885 Eighth Ave", "New York, NY 10019"]}, "phone": "+13322326707", "display_phone": "(332) 232-6707", "distance": 1417.4508771776707}, {"id": "aije_BqBVVl-6T13QsnRqQ", "alias": "august-gatherings-new-york-2", "name": "August Gatherings", "image_url": "https://s3-media2.fl.yelpcdn.com/bphoto/4WbqpkiNh8ZA8WFZf20wig/o.jpg", "is_closed": false, "url": "https://www.yelp.com/biz/august-gatherings-new-york-2?adjust_creative=9gNmiWYX8uTbFBeTTvJMdA&utm_campaign=yelp_api_v3&utm_medium=api_v3_business_search&utm_source=9gNmiWYX8uTbFBeTTvJMdA", "review_count": 315, "categories": [{"alias": "cantonese", "title": "Cantonese"}], "rating": 3.5, "coordinates": {"latitude": 40.7186556, "longitude": -74.0011004}, "transactions": ["pickup", "delivery"], "price": "$$$", "location": {"address1": "266 Canal St", "address2": "", "address3": "", "city": "New York", "zip_code": "10013", "country": "US", "state": "NY", "display_address": ["266 Canal St", "New York, NY 10013"]}, "phone": "+12122741535", "display_phone": "(212) 274-1535", "distance": 5236.310012749948}, {"id": "Ig5-xwGEXMFssmwIvzxCRQ", "alias": "silky-kitchen-long-island-city", "name": "Silky Kitchen", "image_url": "https://s3-media1.fl.yelpcdn.com/bphoto/G3OIFsjRwo16NyN38JnSvA/o.jpg", "is_closed": false, "url": "https://www.yelp.com/biz/silky-kitchen-long-island-city?adjust_creative=9gNmiWYX8uTbFBeTTvJMdA&utm_campaign=yelp_api_v3&utm_medium=api_v3_business_search&utm_source=9gNmiWYX8uTbFBeTTvJMdA", "review_count": 22, "categories": [{"alias": "noodles", "title": "Noodles"}, {"alias": "chinese", "title": "Chinese"}], "rating": 4.5, "coordinates": {"latitude": 40.752457, "longitude": -73.933734}, "transactions": ["pickup", "delivery"], "price": "$$", "location": {"address1": "30-02 39th Ave", "address2": null, "address3": "", "city": "Long Island City", "zip_code": "11101", "country": "US", "state": "NY", "display_address": ["30-02 39th Ave", "Long Island City, NY 11101"]}, "phone": "", "display_phone": "", "distance": 3108.9801173099704}], "total": 3300, "region": {"center": {"longitude": -73.96957397460938, "latitude": 40.75917470627005}}}