{"businesses": [{"id": "3NYQQckItp9l7GDzALw79w", "alias": "lins-gourmet-new-york", "name": "Lin's Gourmet", "image_url": "https://s3-media4.fl.yelpcdn.com/bphoto/yg6T538JUQ9PDUdy2NIEYw/o.jpg", "is_closed": false, "url": "https://www.yelp.com/biz/lins-gourmet-new-york?adjust_creative=9gNmiWYX8uTbFBeTTvJMdA&utm_campaign=yelp_api_v3&utm_medium=api_v3_business_search&utm_source=9gNmiWYX8uTbFBeTTvJMdA", "review_count": 80, "categories": [{"alias": "chinese", "title": "Chinese"}], "rating": 3.5, "coordinates": {"latitude": 40.759891, "longitude": -73.965187}, "transactions": ["pickup", "delivery"], "price": "$", "location": {"address1": "1097 2nd Ave", "address2": "", "address3": "", "city": "New York", "zip_code": "10022", "country": "US", "state": "NY", "display_address": ["1097 2nd Ave", "New York, NY 10022"]}, "phone": "+12127525586", "display_phone": "(212) 752-5586", "distance": 379.93655676358907}, {"id": "mQQxpyEegblKERyeuxrb5Q", "alias": "vanessas-dumpling-house-new-york-8", "name": "Vanessa's Dumpling House", "image_url": "https://s3-media3.fl.yelpcdn.com/bphoto/JX-Cpm5CoaQZQuBGDitlMg/o.jpg", "is_closed": false, "url": "https://www.yelp.com/biz/vanessas-dumpling-house-new-york-8?adjust_creative=9gNmiWYX8uTbFBeTTvJMdA&utm_campaign=yelp_api_v3&utm_medium=api_v3_business_search&utm_source=9gNmiWYX8uTbFBeTTvJMdA", "review_count": 109, "categories": [{"alias": "chinese", "title": "Chinese"}], "rating": 3.5, "coordinates": {"latitude": 40.785005, "longitude": -73.977188}, "transactions": ["pickup", "delivery"], "location": {"address1": "452 Amsterdam Ave", "address2": null, "address3": null, "city": "New York", "zip_code": "10024", "country": "US", "state": "NY", "display_address": ["452 Amsterdam Ave", "New York, NY 10024"]}, "phone": "+16465592887", "display_phone": "(646) 559-2887", "distance": 2951.7908745463933}, {"id": "ZdLS7gD1ulmCPkqNc9_S3A", "alias": "keming-restaurant-hoboken-2", "name": "Keming Restaurant", "image_url": "https://s3-media4.fl.yelpcdn.com/bphoto/Vbc0-Czx7L46pjV4ACUjwQ/o.jpg", "is_closed": false, "url": "https://www.yelp.com/biz/keming-restaurant-hoboken-2?adjust_creative=9gNmiWYX8uTbFBeTTvJMdA&utm_campaign=yelp_api_v3&utm_medium=api_v3_business_search&utm_source=9gNmiWYX8uTbFBeTTvJMdA", "review_count": 201, "categories": [{"alias": "szechuan", "title": "Szechuan"}], "rating": 4.0, "coordinates": {"latitude": 40.74893, "longitude": -74.02772}, "transactions": ["delivery"], "price": "$$", "location": {"address1": "1006 Washington St", "address2": "", "address3": null, "city": "Hoboken", "zip_code": "07030", "country": "US", "state": "NJ", "display_address": ["1006 Washington St", "Hoboken, NJ 07030"]}, "phone": "+12016566108", "display_phone": "(201) 656-6108", "distance": 5027.107194245637}, {"id": "bacGm8cL-vUPHdR18_M7bw", "alias": "charley-mom-restaurant-new-york", "name": "Charley Mom Restaurant", "image_url": "https://s3-media2.fl.yelpcdn.com/bphoto/h1r2lTkr-oV7hKpKs1sRWg/o.jpg", "is_closed": false, "url": "https://www.yelp.com/biz/charley-mom-restaurant-new-york?adjust_creative=9gNmiWYX8uTbFBeTTvJMdA&utm_campaign=yelp_api_v3&utm_medium=api_v3_business_search&utm_source=9gNmiWYX8uTbFBeTTvJMdA", "review_count": 104, "categories": [{"alias": "chinese", "title": "Chinese"}], "rating": 3.5, "coordinates": {"latitude": 40.7740287780762, "longitude": -73.9481582641602}, "transactions": ["pickup", "delivery"], "price": "$$", "location": {"address1": "1580 York Ave", "address2": "", "address3": "", "city": "New York", "zip_code": "10028", "country": "US", "state": "NY", "display_address": ["1580 York Ave", "New York, NY 10028"]}, "phone": "+12124396363", "display_phone": "(212) 439-6363", "distance": 2446.227225553931}, {"id": "d_TC6Om2EBTzHVm_lCgNtg", "alias": "great-ny-noodle-town-new-york", "name": "Great NY Noodle Town", "image_url": "https://s3-media1.fl.yelpcdn.com/bphoto/kv1kg4t4o1CQMCbiQyn3SQ/o.jpg", "is_closed": false, "url": "https://www.yelp.com/biz/great-ny-noodle-town-new-york?adjust_creative=9gNmiWYX8uTbFBeTTvJMdA&utm_campaign=yelp_api_v3&utm_medium=api_v3_business_search&utm_source=9gNmiWYX8uTbFBeTTvJMdA", "review_count": 1448, "categories": [{"alias": "cantonese", "title": "Cantonese"}, {"alias": "noodles", "title": "Noodles"}], "rating": 3.5, "coordinates": {"latitude": 40.715, "longitude": -73.99706}, "transactions": ["pickup", "delivery"], "price": "$", "location": {"address1": "28 Bowery", "address2": "", "address3": "", "city": "New York", "zip_code": "10013", "country": "US", "state": "NY", "display_address": ["28 Bowery", "New York, NY 10013"]}, "phone": "+12123490923", "display_phone": "(212) 349-0923", "distance": 5430.708009539478}, {"id": "RTFIMX31BPeZzx7kJJ1SCA", "alias": "redfarm-new-york", "name": "RedFarm", "image_url": "https://s3-media1.fl.yelpcdn.com/bphoto/FDrAfYeZrc_SSoY37GBFhA/o.jpg", "is_closed": false, "url": "https://www.yelp.com/biz/redfarm-new-york?adjust_creative=9gNmiWYX8uTbFBeTTvJMdA&utm_campaign=yelp_api_v3&utm_medium=api_v3_business_search&utm_source=9gNmiWYX8uTbFBeTTvJMdA", "review_count": 729, "categories": [{"alias": "dimsum", "title": "Dim Sum"}, {"alias": "asianfusion", "title": "Asian Fusion"}, {"alias": "cantonese", "title": "Cantonese"}], "rating": 3.5, "coordinates": {"latitude": 40.7342, "longitude": -74.00652}, "transactions": ["delivery"], "price": "$$$", "location": {"address1": "529 Hudson St", "address2": "", "address3": "", "city": "New York", "zip_code": "10014", "country": "US", "state": "NY", "display_address": ["529 Hudson St", "New York, NY 10014"]}, "phone": "+12127929700", "display_phone": "(212) 792-9700", "distance": 4170.6212523304575}, {"id": "RoXFN-T1s6moM5smbY_5Gw", "alias": "mee-noodle-shop-new-york-2", "name": "Mee Noodle Shop", "image_url": "https://s3-media3.fl.yelpcdn.com/bphoto/CfzomAMu2kcl1wDsjkXPNA/o.jpg", "is_closed": false, "url": "https://www.yelp.com/biz/mee-noodle-shop-new-york-2?adjust_creative=9gNmiWYX8uTbFBeTTvJMdA&utm_campaign=yelp_api_v3&utm_medium=api_v3_business_search&utm_source=9gNmiWYX8uTbFBeTTvJMdA", "review_count": 562, "categories": [{"alias": "noodles", "title": "Noodles"}, {"alias": "szechuan", "title": "Szechuan"}], "rating": 3.0, "coordinates": {"latitude": 40.7653751, "longitude": -73.9879042}, "transactions": ["pickup", "delivery"], "price": "$$", "location": {"address1": "795 9th Ave", "address2": "", "address3": "", "city": "New York", "zip_code": "10019", "country": "US", "state": "NY", "display_address": ["795 9th Ave", "New York, NY 10019"]}, "phone": "+12127652929", "display_phone": "(212) 765-2929", "distance": 1690.7609138317277}, {"id": "bL2lVltPHfCeCabS51-pxQ", "alias": "east-season-restaurant-new-york", "name": "East Season Restaurant", "image_url": "https://s3-media4.fl.yelpcdn.com/bphoto/uSDJH8uXdGe7UxN-C-G4ag/o.jpg", "is_closed": false, "url": "https://www.yelp.com/biz/east-season-restaurant-new-york?adjust_creative=9gNmiWYX8uTbFBeTTvJMdA&utm_campaign=yelp_api_v3&utm_medium=api_v3_business_search&utm_source=9gNmiWYX8uTbFBeTTvJMdA", "review_count": 7, "categories": [{"alias": "chinese", "title": "Chinese"}], "rating": 4.5, "coordinates": {"latitude": 40.718020814686966, "longitude": -74.00038375556673}, "transactions": [], "location": {"address1": "244 Canal St", "address2": "", "address3": null, "city": "New York", "zip_code": "10013", "country": "US", "state": "NY", "display_address": ["244 Canal St", "New York, NY 10013"]}, "phone": "+19172616266", "display_phone": "(917) 261-6266", "distance": 5261.058864037598}, {"id": "Cyv-tW4BljwWnP16HI_zAg", "alias": "taste-kitchen-new-york", "name": "Taste Kitchen", "image_url": "https://s3-media3.fl.yelpcdn.com/bphoto/a-40RE9kM1X8bTOT-eqXDQ/o.jpg", "is_closed": false, "url": "https://www.yelp.com/biz/taste-kitchen-new-york?adjust_creative=9gNmiWYX8uTbFBeTTvJMdA&utm_campaign=yelp_api_v3&utm_medium=api_v3_business_search&utm_source=9gNmiWYX8uTbFBeTTvJMdA", "review_count": 49, "categories": [{"alias": "chinese", "title": "Chinese"}], "rating": 3.0, "coordinates": {"latitude": 40.75374, "longitude": -73.99342}, "transactions": ["delivery", "pickup"], "price": "$$", "location": {"address1": "316 W 36th St", "address2": null, "address3": "", "city": "New York", "zip_code": "10018", "country": "US", "state": "NY", "display_address": ["316 W 36th St", "New York, NY 10018"]}, "phone": "+16466660531", "display_phone": "(646) 666-0531", "distance": 2099.564704874511}, {"id": "k8GFfCXO2FIIJIo0ICYSRA", "alias": "bao-bao-cafe-new-york-3", "name": "Bao Bao Cafe", "image_url": "https://s3-media1.fl.yelpcdn.com/bphoto/QVYmUIHbP6X_K6lKz-tDbQ/o.jpg", "is_closed": false, "url": "https://www.yelp.com/biz/bao-bao-cafe-new-york-3?adjust_creative=9gNmiWYX8uTbFBeTTvJMdA&utm_campaign=yelp_api_v3&utm_medium=api_v3_business_search&utm_source=9gNmiWYX8uTbFBeTTvJMdA", "review_count": 242, "categories": [{"alias": "noodles", "title": "Noodles"}, {"alias": "chinese", "title": "Chinese"}], "rating": 4.0, "coordinates": {"latitude": 40.70854, "longitude": -74.01367}, "transactions": ["pickup", "delivery"], "price": "$$", "location": {"address1": "106 Greenwich St", "address2": null, "address3": "", "city": "New York", "zip_code": "10006", "country": "US", "state": "NY", "display_address": ["106 Greenwich St", "New York, NY 10006"]}, "phone": "+19172617122", "display_phone": "(917) 261-7122", "distance": 6743.663603488661}, {"id": "L9N9O2u_M9Daby9_myK4Yg", "alias": "mao-s-bao-new-york", "name": "Mao\u2019s Bao", "image_url": "https://s3-media1.fl.yelpcdn.com/bphoto/QJXJAvPqmlOik1PDeauwoA/o.jpg", "is_closed": false, "url": "https://www.yelp.com/biz/mao-s-bao-new-york?adjust_creative=9gNmiWYX8uTbFBeTTvJMdA&utm_campaign=yelp_api_v3&utm_medium=api_v3_business_search&utm_source=9gNmiWYX8uTbFBeTTvJMdA", "review_count": 22, "categories": [{"alias": "shanghainese", "title": "Shanghainese"}], "rating": 3.5, "coordinates": {"latitude": 40.7480714928872, "longitude": -74.004706248683}, "transactions": [], "location": {"address1": "4059 High Line", "address2": "", "address3": null, "city": "New York", "zip_code": "10011", "country": "US", "state": "NY", "display_address": ["4059 High Line", "New York, NY 10011"]}, "phone": "", "display_phone": "", "distance": 3206.502881133527}, {"id": "bGOZTD9O00OkVA1Pkt3OuQ", "alias": "a-a-jing-new-york", "name": "A A Jing", "image_url": "https://s3-media2.fl.yelpcdn.com/bphoto/YuT_8jrEoALPFdCxvkB1Mg/o.jpg", "is_closed": false, "url": "https://www.yelp.com/biz/a-a-jing-new-york?adjust_creative=9gNmiWYX8uTbFBeTTvJMdA&utm_campaign=yelp_api_v3&utm_medium=api_v3_business_search&utm_source=9gNmiWYX8uTbFBeTTvJMdA", "review_count": 300, "categories": [{"alias": "chinese", "title": "Chinese"}, {"alias": "japanese", "title": "Japanese"}, {"alias": "panasian", "title": "Pan Asian"}], "rating": 3.5, "coordinates": {"latitude": 40.762, "longitude": -73.99041}, "transactions": ["pickup", "delivery"], "price": "$$", "location": {"address1": "689 9th Ave", "address2": "", "address3": "", "city": "New York", "zip_code": "10036", "country": "US", "state": "NY", "display_address": ["689 9th Ave", "New York, NY 10036"]}, "phone": "+12122450800", "display_phone": "(212) 245-0800", "distance": 1779.5716603256778}, {"id": "EbX_9tqAJs4gW51gZpOB7g", "alias": "rasa-new-york", "name": "Rasa", "image_url": "https://s3-media4.fl.yelpcdn.com/bphoto/3WhLSoWj5fByW_mH8t59uw/o.jpg", "is_closed": false, "url": "https://www.yelp.com/biz/rasa-new-york?adjust_creative=9gNmiWYX8uTbFBeTTvJMdA&utm_campaign=yelp_api_v3&utm_medium=api_v3_business_search&utm_source=9gNmiWYX8uTbFBeTTvJMdA", "review_count": 834, "categories": [{"alias": "malaysian", "title": "Malaysian"}, {"alias": "thai", "title": "Thai"}, {"alias": "halal", "title": "Halal"}], "rating": 4.0, "coordinates": {"latitude": 40.7327654, "longitude": -73.9975674}, "transactions": ["pickup", "delivery"], "price": "$$", "location": {"address1": "25 W 8th St", "address2": null, "address3": "", "city": "New York", "zip_code": "10011", "country": "US", "state": "NY", "display_address": ["25 W 8th St", "New York, NY 10011"]}, "phone": "+12122541888", "display_phone": "(212) 254-1888", "distance": 3766.264924561013}, {"id": "hNFe8WhCibrqT4sFcZmAgw", "alias": "kong-sihk-tong-\u6e2f\u98df\u5802-new-york", "name": "Kong Sihk Tong \u6e2f\u98df\u5802", "image_url": "https://s3-media2.fl.yelpcdn.com/bphoto/u7C6tdCtVgokzEPn5XSQ5A/o.jpg", "is_closed": false, "url": "https://www.yelp.com/biz/kong-sihk-tong-%E6%B8%AF%E9%A3%9F%E5%A0%82-new-york?adjust_creative=9gNmiWYX8uTbFBeTTvJMdA&utm_campaign=yelp_api_v3&utm_medium=api_v3_business_search&utm_source=9gNmiWYX8uTbFBeTTvJMdA", "review_count": 640, "categories": [{"alias": "chinese", "title": "Chinese"}, {"alias": "hkcafe", "title": "Hong Kong Style Cafe"}], "rating": 4.0, "coordinates": {"latitude": 40.715433714742154, "longitude": -73.9981186386701}, "transactions": ["pickup", "delivery"], "price": "$", "location": {"address1": "65 Bayard St", "address2": "", "address3": null, "city": "New York", "zip_code": "10013", "country": "US", "state": "NY", "display_address": ["65 Bayard St", "New York, NY 10013"]}, "phone": "+16468506140", "display_phone": "(646) 850-6140", "distance": 5425.883864711112}, {"id": "Yb6PQ_4YQpJ0SVZ1tetkbg", "alias": "queens-seafood-restaurant-elmhurst-2", "name": "Queens Seafood Restaurant", "image_url": "https://s3-media2.fl.yelpcdn.com/bphoto/BonQZS94NtL8ziY8pCTohw/o.jpg", "is_closed": false, "url": "https://www.yelp.com/biz/queens-seafood-restaurant-elmhurst-2?adjust_creative=9gNmiWYX8uTbFBeTTvJMdA&utm_campaign=yelp_api_v3&utm_medium=api_v3_business_search&utm_source=9gNmiWYX8uTbFBeTTvJMdA", "review_count": 144, "categories": [{"alias": "seafood", "title": "Seafood"}, {"alias": "cantonese", "title": "Cantonese"}], "rating": 4.0, "coordinates": {"latitude": 40.7415032, "longitude": -73.8825862}, "transactions": [], "price": "$$", "location": {"address1": "8222 45th Ave", "address2": "", "address3": "", "city": "Elmhurst", "zip_code": "11373", "country": "US", "state": "NY", "display_address": ["8222 45th Ave", "Elmhurst, NY 11373"]}, "phone": "+17184783330", "display_phone": "(718) 478-3330", "distance": 7623.3631546089855}, {"id": "BkXb82Y2OIsQ5RpNNQOYmQ", "alias": "china-express-brooklyn-4", "name": "China Express", "image_url": "https://s3-media3.fl.yelpcdn.com/bphoto/6oTE-vhUO0flYTIQoeXjgw/o.jpg", "is_closed": false, "url": "https://www.yelp.com/biz/china-express-brooklyn-4?adjust_creative=9gNmiWYX8uTbFBeTTvJMdA&utm_campaign=yelp_api_v3&utm_medium=api_v3_business_search&utm_source=9gNmiWYX8uTbFBeTTvJMdA", "review_count": 128, "categories": [{"alias": "chinese", "title": "Chinese"}], "rating": 4.0, "coordinates": {"latitude": 40.70606422212563, "longitude": -73.949992}, "transactions": ["pickup", "delivery"], "price": "$", "location": {"address1": "192 Union Ave", "address2": "", "address3": "", "city": "Brooklyn", "zip_code": "11211", "country": "US", "state": "NY", "display_address": ["192 Union Ave", "Brooklyn, NY 11211"]}, "phone": "+17182187919", "display_phone": "(718) 218-7919", "distance": 6131.770268076693}, {"id": "tLg1gQ1tqYCT-5gGsOwHfA", "alias": "hannah-fun-chinese-restaurant-west-new-york", "name": "Hannah Fun Chinese Restaurant", "image_url": "https://s3-media1.fl.yelpcdn.com/bphoto/3t1b1jBP5D9FFdrqnNQs2g/o.jpg", "is_closed": false, "url": "https://www.yelp.com/biz/hannah-fun-chinese-restaurant-west-new-york?adjust_creative=9gNmiWYX8uTbFBeTTvJMdA&utm_campaign=yelp_api_v3&utm_medium=api_v3_business_search&utm_source=9gNmiWYX8uTbFBeTTvJMdA", "review_count": 15, "categories": [{"alias": "chinese", "title": "Chinese"}], "rating": 4.5, "coordinates": {"latitude": 40.79401, "longitude": -74.01282}, "transactions": ["delivery"], "price": "$", "location": {"address1": "6619 Bergenline Ave", "address2": "", "address3": "", "city": "West New York", "zip_code": "07093", "country": "US", "state": "NJ", "display_address": ["6619 Bergenline Ave", "West New York, NJ 07093"]}, "phone": "+12012953222", "display_phone": "(201) 295-3222", "distance": 5312.692381556114}, {"id": "nxTEuWKzkK1tCF4LrhFSUQ", "alias": "pig-and-khao-new-york", "name": "Pig and Khao", "image_url": "https://s3-media3.fl.yelpcdn.com/bphoto/6P2qNEUVFVk26140LmAd8g/o.jpg", "is_closed": false, "url": "https://www.yelp.com/biz/pig-and-khao-new-york?adjust_creative=9gNmiWYX8uTbFBeTTvJMdA&utm_campaign=yelp_api_v3&utm_medium=api_v3_business_search&utm_source=9gNmiWYX8uTbFBeTTvJMdA", "review_count": 1853, "categories": [{"alias": "filipino", "title": "Filipino"}, {"alias": "thai", "title": "Thai"}, {"alias": "panasian", "title": "Pan Asian"}], "rating": 4.0, "coordinates": {"latitude": 40.71926, "longitude": -73.98475}, "transactions": ["pickup", "delivery"], "price": "$$$", "location": {"address1": "68 Clinton St", "address2": "", "address3": "", "city": "New York", "zip_code": "10002", "country": "US", "state": "NY", "display_address": ["68 Clinton St", "New York, NY 10002"]}, "phone": "+12129204485", "display_phone": "(212) 920-4485", "distance": 4618.284363848889}, {"id": "97q5nUQTuBo_h00XCxna2A", "alias": "tasty-hand-pulled-noodles-new-york", "name": "Tasty Hand-Pulled Noodles", "image_url": "https://s3-media4.fl.yelpcdn.com/bphoto/S4YfmBNkmDl7l2aiYJwBuA/o.jpg", "is_closed": false, "url": "https://www.yelp.com/biz/tasty-hand-pulled-noodles-new-york?adjust_creative=9gNmiWYX8uTbFBeTTvJMdA&utm_campaign=yelp_api_v3&utm_medium=api_v3_business_search&utm_source=9gNmiWYX8uTbFBeTTvJMdA", "review_count": 1817, "categories": [{"alias": "chinese", "title": "Chinese"}, {"alias": "noodles", "title": "Noodles"}], "rating": 4.0, "coordinates": {"latitude": 40.7142, "longitude": -73.99787}, "transactions": ["delivery", "pickup"], "price": "$$", "location": {"address1": "1 Doyers St", "address2": "", "address3": "", "city": "New York", "zip_code": "10013", "country": "US", "state": "NY", "display_address": ["1 Doyers St", "New York, NY 10013"]}, "phone": "+12127911817", "display_phone": "(212) 791-1817", "distance": 5541.285608886686}, {"id": "bgnM6uy66zupYzb4QdL3vA", "alias": "108-food-dried-hot-pot-new-york-2", "name": "108 Food Dried Hot Pot", "image_url": "https://s3-media2.fl.yelpcdn.com/bphoto/7zKgj_e4kPV1-YpcjmJxfg/o.jpg", "is_closed": false, "url": "https://www.yelp.com/biz/108-food-dried-hot-pot-new-york-2?adjust_creative=9gNmiWYX8uTbFBeTTvJMdA&utm_campaign=yelp_api_v3&utm_medium=api_v3_business_search&utm_source=9gNmiWYX8uTbFBeTTvJMdA", "review_count": 173, "categories": [{"alias": "hotpot", "title": "Hot Pot"}, {"alias": "chinese", "title": "Chinese"}], "rating": 3.5, "coordinates": {"latitude": 40.80265, "longitude": -73.96721}, "transactions": ["pickup", "delivery"], "price": "$$", "location": {"address1": "2794 Broadway", "address2": null, "address3": null, "city": "New York", "zip_code": "10025", "country": "US", "state": "NY", "display_address": ["2794 Broadway", "New York, NY 10025"]}, "phone": "+19176756878", "display_phone": "(917) 675-6878", "distance": 4841.460732702723}, {"id": "3eBV6HwWcdHzJW3sUH-2hw", "alias": "ichiran-times-square-new-york-4", "name": "ICHIRAN - Times Square", "image_url": "https://s3-media1.fl.yelpcdn.com/bphoto/rraxRhEHzSCMPznhFf075g/o.jpg", "is_closed": false, "url": "https://www.yelp.com/biz/ichiran-times-square-new-york-4?adjust_creative=9gNmiWYX8uTbFBeTTvJMdA&utm_campaign=yelp_api_v3&utm_medium=api_v3_business_search&utm_source=9gNmiWYX8uTbFBeTTvJMdA", "review_count": 747, "categories": [{"alias": "ramen", "title": "Ramen"}, {"alias": "noodles", "title": "Noodles"}, {"alias": "desserts", "title": "Desserts"}], "rating": 4.5, "coordinates": {"latitude": 40.7600737531204, "longitude": -73.9833259411037}, "transactions": ["pickup", "delivery"], "price": "$$", "location": {"address1": "152 W 49th St", "address2": null, "address3": "", "city": "New York", "zip_code": "10019", "country": "US", "state": "NY", "display_address": ["152 W 49th St", "New York, NY 10019"]}, "phone": "+16469644294", "display_phone": "(646) 964-4294", "distance": 1162.5668638757147}, {"id": "xVPTI1ytXt2PLU-strKcnw", "alias": "gem-bistro-kearny", "name": "Gem Bistro", "image_url": "https://s3-media2.fl.yelpcdn.com/bphoto/aBwRCRuxKpuScBVFVVdWuA/o.jpg", "is_closed": false, "url": "https://www.yelp.com/biz/gem-bistro-kearny?adjust_creative=9gNmiWYX8uTbFBeTTvJMdA&utm_campaign=yelp_api_v3&utm_medium=api_v3_business_search&utm_source=9gNmiWYX8uTbFBeTTvJMdA", "review_count": 31, "categories": [{"alias": "szechuan", "title": "Szechuan"}], "rating": 4.5, "coordinates": {"latitude": 40.748554, "longitude": -74.144834}, "transactions": ["delivery"], "price": "$$", "location": {"address1": "10 Schuyler Ave", "address2": "", "address3": null, "city": "Kearny", "zip_code": "07032", "country": "US", "state": "NJ", "display_address": ["10 Schuyler Ave", "Kearny, NJ 07032"]}, "phone": "+12019970539", "display_phone": "(201) 997-0539", "distance": 14809.730789183372}, {"id": "BCkyeKuJl009EtwPBvVhzA", "alias": "silver-apricot-new-york", "name": "Silver Apricot", "image_url": "https://s3-media1.fl.yelpcdn.com/bphoto/BbFc21F1oXjvQdAPnMzjfw/o.jpg", "is_closed": false, "url": "https://www.yelp.com/biz/silver-apricot-new-york?adjust_creative=9gNmiWYX8uTbFBeTTvJMdA&utm_campaign=yelp_api_v3&utm_medium=api_v3_business_search&utm_source=9gNmiWYX8uTbFBeTTvJMdA", "review_count": 70, "categories": [{"alias": "chinese", "title": "Chinese"}, {"alias": "newamerican", "title": "American (New)"}, {"alias": "wine_bars", "title": "Wine Bars"}], "rating": 4.5, "coordinates": {"latitude": 40.73138, "longitude": -74.00206}, "transactions": ["pickup", "delivery"], "location": {"address1": "20 Cornelia St", "address2": "", "address3": null, "city": "New York", "zip_code": "10014", "country": "US", "state": "NY", "display_address": ["20 Cornelia St", "New York, NY 10014"]}, "phone": "", "display_phone": "", "distance": 4132.905351927223}, {"id": "55jx0bYJ-odyqKKSrDXtPA", "alias": "mighty-bowl-new-york-6", "name": "MIGHTY Bowl", "image_url": "https://s3-media3.fl.yelpcdn.com/bphoto/XN5E5ZtOISZbP8nWjLeQ2Q/o.jpg", "is_closed": false, "url": "https://www.yelp.com/biz/mighty-bowl-new-york-6?adjust_creative=9gNmiWYX8uTbFBeTTvJMdA&utm_campaign=yelp_api_v3&utm_medium=api_v3_business_search&utm_source=9gNmiWYX8uTbFBeTTvJMdA", "review_count": 162, "categories": [{"alias": "asianfusion", "title": "Asian Fusion"}, {"alias": "poke", "title": "Poke"}], "rating": 4.0, "coordinates": {"latitude": 40.75099515490632, "longitude": -73.97160693756847}, "transactions": ["pickup", "delivery"], "price": "$$", "location": {"address1": "817 2nd Ave", "address2": null, "address3": "", "city": "New York", "zip_code": "10017", "country": "US", "state": "NY", "display_address": ["817 2nd Ave", "New York, NY 10017"]}, "phone": "+16466495603", "display_phone": "(646) 649-5603", "distance": 925.5029480151678}, {"id": "EDLKX7cCxPbmbmo1XG3xJQ", "alias": "grand-sichuan-jersey-city", "name": "Grand Sichuan", "image_url": "https://s3-media1.fl.yelpcdn.com/bphoto/lNwsAZRhtKXrSm9PdWr22w/o.jpg", "is_closed": false, "url": "https://www.yelp.com/biz/grand-sichuan-jersey-city?adjust_creative=9gNmiWYX8uTbFBeTTvJMdA&utm_campaign=yelp_api_v3&utm_medium=api_v3_business_search&utm_source=9gNmiWYX8uTbFBeTTvJMdA", "review_count": 505, "categories": [{"alias": "szechuan", "title": "Szechuan"}], "rating": 3.0, "coordinates": {"latitude": 40.72047, "longitude": -74.04252}, "transactions": ["pickup", "delivery"], "price": "$$", "location": {"address1": "342 Grove St", "address2": "", "address3": "", "city": "Jersey City", "zip_code": "07302", "country": "US", "state": "NJ", "display_address": ["342 Grove St", "Jersey City, NJ 07302"]}, "phone": "+12014511960", "display_phone": "(201) 451-1960", "distance": 7514.027606805143}, {"id": "a2sxaQooPmq9r7Cc-Umunw", "alias": "precious-japanese-and-chinese-cuisine-hoboken", "name": "Precious Japanese & Chinese Cuisine", "image_url": "https://s3-media2.fl.yelpcdn.com/bphoto/jZgwp5hAlnTfqdNuWgDNpg/o.jpg", "is_closed": false, "url": "https://www.yelp.com/biz/precious-japanese-and-chinese-cuisine-hoboken?adjust_creative=9gNmiWYX8uTbFBeTTvJMdA&utm_campaign=yelp_api_v3&utm_medium=api_v3_business_search&utm_source=9gNmiWYX8uTbFBeTTvJMdA", "review_count": 303, "categories": [{"alias": "chinese", "title": "Chinese"}], "rating": 3.5, "coordinates": {"latitude": 40.738484, "longitude": -74.030919}, "transactions": ["delivery"], "price": "$$", "location": {"address1": "128 Washington St", "address2": "", "address3": "", "city": "Hoboken", "zip_code": "07030", "country": "US", "state": "NJ", "display_address": ["128 Washington St", "Hoboken, NJ 07030"]}, "phone": "+12017988827", "display_phone": "(201) 798-8827", "distance": 5657.8348709088}, {"id": "D0EV-xXaUUi35raZ_hWg-w", "alias": "momofuku-ssam-bar-new-york-6", "name": "Momofuku Ssam Bar", "image_url": "https://s3-media4.fl.yelpcdn.com/bphoto/FpyI7v_4zRxr7scrjyUJgA/o.jpg", "is_closed": false, "url": "https://www.yelp.com/biz/momofuku-ssam-bar-new-york-6?adjust_creative=9gNmiWYX8uTbFBeTTvJMdA&utm_campaign=yelp_api_v3&utm_medium=api_v3_business_search&utm_source=9gNmiWYX8uTbFBeTTvJMdA", "review_count": 110, "categories": [{"alias": "asianfusion", "title": "Asian Fusion"}, {"alias": "newamerican", "title": "American (New)"}, {"alias": "steak", "title": "Steakhouses"}], "rating": 4.0, "coordinates": {"latitude": 40.705476024827576, "longitude": -74.0016428}, "transactions": [], "price": "$$$", "location": {"address1": "89 South St", "address2": "Pier 17", "address3": null, "city": "New York", "zip_code": "10038", "country": "US", "state": "NY", "display_address": ["89 South St", "Pier 17", "New York, NY 10038"]}, "phone": "+12125000831", "display_phone": "(212) 500-0831", "distance": 6553.960817305761}, {"id": "a-Bq_yXFVk2PptoWpmry3w", "alias": "pye-boat-noodle-astoria", "name": "Pye Boat Noodle", "image_url": "https://s3-media1.fl.yelpcdn.com/bphoto/ipv6tPDqe6s7mVgqdGUObg/o.jpg", "is_closed": false, "url": "https://www.yelp.com/biz/pye-boat-noodle-astoria?adjust_creative=9gNmiWYX8uTbFBeTTvJMdA&utm_campaign=yelp_api_v3&utm_medium=api_v3_business_search&utm_source=9gNmiWYX8uTbFBeTTvJMdA", "review_count": 976, "categories": [{"alias": "thai", "title": "Thai"}, {"alias": "noodles", "title": "Noodles"}], "rating": 4.5, "coordinates": {"latitude": 40.76043, "longitude": -73.92152}, "transactions": ["delivery", "pickup"], "price": "$$", "location": {"address1": "35-13 Broadway", "address2": "", "address3": "", "city": "Astoria", "zip_code": "11106", "country": "US", "state": "NY", "display_address": ["35-13 Broadway", "Astoria, NY 11106"]}, "phone": "+17186852329", "display_phone": "(718) 685-2329", "distance": 4043.309439029156}, {"id": "dP6SmZ5E5Nj64-3zZMjGSg", "alias": "new-wong-asian-food-new-york-2", "name": "New Wong Asian Food", "image_url": "https://s3-media2.fl.yelpcdn.com/bphoto/evp6Jl8aM3hc5IE5Yz8Ldg/o.jpg", "is_closed": false, "url": "https://www.yelp.com/biz/new-wong-asian-food-new-york-2?adjust_creative=9gNmiWYX8uTbFBeTTvJMdA&utm_campaign=yelp_api_v3&utm_medium=api_v3_business_search&utm_source=9gNmiWYX8uTbFBeTTvJMdA", "review_count": 69, "categories": [{"alias": "chinese", "title": "Chinese"}], "rating": 2.5, "coordinates": {"latitude": 40.76388328668932, "longitude": -73.95888984723881}, "transactions": ["pickup", "delivery"], "price": "$", "location": {"address1": "1217 1st Ave", "address2": "", "address3": "", "city": "New York", "zip_code": "10065", "country": "US", "state": "NY", "display_address": ["1217 1st Ave", "New York, NY 10065"]}, "phone": "+12125177798", "display_phone": "(212) 517-7798", "distance": 1041.0801058340764}, {"id": "br6HJD_UZ_LSU36tBZGSuw", "alias": "tada-noodles-long-island-city", "name": "Tada Noodles", "image_url": "https://s3-media1.fl.yelpcdn.com/bphoto/gRAY1_VIbrgBfcFJGrywrA/o.jpg", "is_closed": false, "url": "https://www.yelp.com/biz/tada-noodles-long-island-city?adjust_creative=9gNmiWYX8uTbFBeTTvJMdA&utm_campaign=yelp_api_v3&utm_medium=api_v3_business_search&utm_source=9gNmiWYX8uTbFBeTTvJMdA", "review_count": 49, "categories": [{"alias": "korean", "title": "Korean"}, {"alias": "chinese", "title": "Chinese"}, {"alias": "noodles", "title": "Noodles"}], "rating": 4.0, "coordinates": {"latitude": 40.740157, "longitude": -73.946535}, "transactions": ["pickup", "delivery"], "location": {"address1": "2323 Borden Ave", "address2": null, "address3": "", "city": "Long Island City", "zip_code": "11101", "country": "US", "state": "NY", "display_address": ["2323 Borden Ave", "Long Island City, NY 11101"]}, "phone": "+16464709424", "display_phone": "(646) 470-9424", "distance": 2873.364534145243}, {"id": "YS8pw7sYOBqaW23FCOqecg", "alias": "glur-thai-new-york", "name": "Glur Thai", "image_url": "https://s3-media1.fl.yelpcdn.com/bphoto/qVRmUeQWlYt71Rmnc4I7DQ/o.jpg", "is_closed": false, "url": "https://www.yelp.com/biz/glur-thai-new-york?adjust_creative=9gNmiWYX8uTbFBeTTvJMdA&utm_campaign=yelp_api_v3&utm_medium=api_v3_business_search&utm_source=9gNmiWYX8uTbFBeTTvJMdA", "review_count": 273, "categories": [{"alias": "thai", "title": "Thai"}, {"alias": "seafood", "title": "Seafood"}, {"alias": "noodles", "title": "Noodles"}], "rating": 4.5, "coordinates": {"latitude": 40.74121, "longitude": -73.99665}, "transactions": ["pickup", "delivery"], "price": "$$", "location": {"address1": "144 W 19th St", "address2": null, "address3": "", "city": "New York", "zip_code": "10011", "country": "US", "state": "NY", "display_address": ["144 W 19th St", "New York, NY 10011"]}, "phone": "+12127389898", "display_phone": "(212) 738-9898", "distance": 3044.768914324058}, {"id": "xEDD2ScBU3jHhWxlMC7dkQ", "alias": "nougatine-at-jean-georges-new-york-3", "name": "Nougatine at Jean-Georges", "image_url": "https://s3-media3.fl.yelpcdn.com/bphoto/j-qEGaATAd-nZ_A5upoPjQ/o.jpg", "is_closed": false, "url": "https://www.yelp.com/biz/nougatine-at-jean-georges-new-york-3?adjust_creative=9gNmiWYX8uTbFBeTTvJMdA&utm_campaign=yelp_api_v3&utm_medium=api_v3_business_search&utm_source=9gNmiWYX8uTbFBeTTvJMdA", "review_count": 1234, "categories": [{"alias": "french", "title": "French"}, {"alias": "asianfusion", "title": "Asian Fusion"}, {"alias": "breakfast_brunch", "title": "Breakfast & Brunch"}], "rating": 4.0, "coordinates": {"latitude": 40.76891, "longitude": -73.98176}, "transactions": ["pickup", "delivery"], "price": "$$$", "location": {"address1": "1 Central Park W", "address2": "", "address3": null, "city": "New York", "zip_code": "10023", "country": "US", "state": "NY", "display_address": ["1 Central Park W", "New York, NY 10023"]}, "phone": "+12122993900", "display_phone": "(212) 299-3900", "distance": 1493.3105330633502}, {"id": "wPL0epJzosoFRYox1a5lvA", "alias": "new-golden-star-new-york", "name": "New Golden Star", "image_url": "https://s3-media2.fl.yelpcdn.com/bphoto/7B9J7syK7XACaEKbVUYJ8A/o.jpg", "is_closed": false, "url": "https://www.yelp.com/biz/new-golden-star-new-york?adjust_creative=9gNmiWYX8uTbFBeTTvJMdA&utm_campaign=yelp_api_v3&utm_medium=api_v3_business_search&utm_source=9gNmiWYX8uTbFBeTTvJMdA", "review_count": 122, "categories": [{"alias": "chinese", "title": "Chinese"}], "rating": 4.0, "coordinates": {"latitude": 40.8498685, "longitude": -73.9362273}, "transactions": ["pickup", "delivery"], "price": "$$", "location": {"address1": "4247 Broadway", "address2": "", "address3": "", "city": "New York", "zip_code": "10033", "country": "US", "state": "NY", "display_address": ["4247 Broadway", "New York, NY 10033"]}, "phone": "+12129285454", "display_phone": "(212) 928-5454", "distance": 10463.370187791217}, {"id": "JJJ9KQUja_ZWZoS3M2eFaQ", "alias": "la-vie-en-szechuan-new-york-4", "name": "La Vie En Szechuan", "image_url": "https://s3-media2.fl.yelpcdn.com/bphoto/oUVETzwvlocrzc9B_sdGRQ/o.jpg", "is_closed": false, "url": "https://www.yelp.com/biz/la-vie-en-szechuan-new-york-4?adjust_creative=9gNmiWYX8uTbFBeTTvJMdA&utm_campaign=yelp_api_v3&utm_medium=api_v3_business_search&utm_source=9gNmiWYX8uTbFBeTTvJMdA", "review_count": 1, "categories": [{"alias": "chinese", "title": "Chinese"}], "rating": 5.0, "coordinates": {"latitude": 40.74758249423549, "longitude": -73.98439530395629}, "transactions": [], "location": {"address1": "14 E 33rd St", "address2": "", "address3": null, "city": "New York", "zip_code": "10016", "country": "US", "state": "NY", "display_address": ["14 E 33rd St", "New York, NY 10016"]}, "phone": "+16469270482", "display_phone": "(646) 927-0482", "distance": 1794.4693309428983}, {"id": "YvAeVNrMQGim9VTkilwUgA", "alias": "chinah-new-york", "name": "Chinah", "image_url": "https://s3-media1.fl.yelpcdn.com/bphoto/uEng2OJbF8aPWxR3hZauZw/o.jpg", "is_closed": false, "url": "https://www.yelp.com/biz/chinah-new-york?adjust_creative=9gNmiWYX8uTbFBeTTvJMdA&utm_campaign=yelp_api_v3&utm_medium=api_v3_business_search&utm_source=9gNmiWYX8uTbFBeTTvJMdA", "review_count": 77, "categories": [{"alias": "chinese", "title": "Chinese"}, {"alias": "vegetarian", "title": "Vegetarian"}, {"alias": "asianfusion", "title": "Asian Fusion"}], "rating": 4.5, "coordinates": {"latitude": 40.706649, "longitude": -74.007166}, "transactions": ["pickup", "delivery"], "location": {"address1": "100 Maiden Ln", "address2": "", "address3": null, "city": "New York", "zip_code": "10038", "country": "US", "state": "NY", "display_address": ["100 Maiden Ln", "New York, NY 10038"]}, "phone": "", "display_phone": "", "distance": 6642.967889120772}, {"id": "OvQFSevzG9ftRALAxYTyRw", "alias": "szechuan-kitchen-new-york-3", "name": "Szechuan Kitchen", "image_url": "https://s3-media1.fl.yelpcdn.com/bphoto/SGISmJO1XkLQEgyuDKnUBg/o.jpg", "is_closed": false, "url": "https://www.yelp.com/biz/szechuan-kitchen-new-york-3?adjust_creative=9gNmiWYX8uTbFBeTTvJMdA&utm_campaign=yelp_api_v3&utm_medium=api_v3_business_search&utm_source=9gNmiWYX8uTbFBeTTvJMdA", "review_count": 1, "categories": [{"alias": "chinese", "title": "Chinese"}, {"alias": "fooddeliveryservices", "title": "Food Delivery Services"}], "rating": 4.0, "coordinates": {"latitude": 40.772308349609375, "longitude": -73.9547119140625}, "transactions": ["pickup", "delivery"], "location": {"address1": null, "address2": null, "address3": null, "city": "New York", "zip_code": "10075", "country": "US", "state": "NY", "display_address": ["New York, NY 10075"]}, "phone": "+19737989238", "display_phone": "(973) 798-9238", "distance": 1910.9199019752634}, {"id": "GzY2EjCmGNgvRd7IE20fTA", "alias": "wei-west-new-york", "name": "Wei West", "image_url": "https://s3-media4.fl.yelpcdn.com/bphoto/igfk18VNjUyQyXtWXr0csQ/o.jpg", "is_closed": false, "url": "https://www.yelp.com/biz/wei-west-new-york?adjust_creative=9gNmiWYX8uTbFBeTTvJMdA&utm_campaign=yelp_api_v3&utm_medium=api_v3_business_search&utm_source=9gNmiWYX8uTbFBeTTvJMdA", "review_count": 237, "categories": [{"alias": "asianfusion", "title": "Asian Fusion"}, {"alias": "japanese", "title": "Japanese"}, {"alias": "chinese", "title": "Chinese"}], "rating": 3.0, "coordinates": {"latitude": 40.7149792560543, "longitude": -74.0148960394593}, "transactions": ["pickup", "delivery"], "price": "$$", "location": {"address1": "235 Murray St", "address2": "", "address3": "", "city": "New York", "zip_code": "10282", "country": "US", "state": "NY", "display_address": ["235 Murray St", "New York, NY 10282"]}, "phone": "+12127861300", "display_phone": "(212) 786-1300", "distance": 6223.4803273860225}, {"id": "qEe7nIhPfEL6L0-VYhWRrA", "alias": "raku-new-york-6", "name": "Raku", "image_url": "https://s3-media2.fl.yelpcdn.com/bphoto/F27q2Tq72amfU1iyq1AOyg/o.jpg", "is_closed": false, "url": "https://www.yelp.com/biz/raku-new-york-6?adjust_creative=9gNmiWYX8uTbFBeTTvJMdA&utm_campaign=yelp_api_v3&utm_medium=api_v3_business_search&utm_source=9gNmiWYX8uTbFBeTTvJMdA", "review_count": 814, "categories": [{"alias": "japanese", "title": "Japanese"}, {"alias": "noodles", "title": "Noodles"}], "rating": 4.5, "coordinates": {"latitude": 40.72728, "longitude": -74.00252}, "transactions": ["pickup", "delivery"], "price": "$$", "location": {"address1": "48 Macdougal St", "address2": null, "address3": "", "city": "New York", "zip_code": "10012", "country": "US", "state": "NY", "display_address": ["48 Macdougal St", "New York, NY 10012"]}, "phone": "+12129894797", "display_phone": "(212) 989-4797", "distance": 4507.854121794402}, {"id": "9HD5HQiTkURkx5i7hL92EA", "alias": "spicy-moon-west-village-new-york-2", "name": "Spicy Moon West Village", "image_url": "https://s3-media1.fl.yelpcdn.com/bphoto/O38BGgFpTJ-1e7_lwjgDEg/o.jpg", "is_closed": false, "url": "https://www.yelp.com/biz/spicy-moon-west-village-new-york-2?adjust_creative=9gNmiWYX8uTbFBeTTvJMdA&utm_campaign=yelp_api_v3&utm_medium=api_v3_business_search&utm_source=9gNmiWYX8uTbFBeTTvJMdA", "review_count": 314, "categories": [{"alias": "szechuan", "title": "Szechuan"}, {"alias": "vegan", "title": "Vegan"}, {"alias": "cocktailbars", "title": "Cocktail Bars"}], "rating": 4.5, "coordinates": {"latitude": 40.729318, "longitude": -73.99832}, "transactions": ["pickup", "delivery"], "price": "$$", "location": {"address1": "68 W 3rd St", "address2": null, "address3": null, "city": "New York", "zip_code": "10012", "country": "US", "state": "NY", "display_address": ["68 W 3rd St", "New York, NY 10012"]}, "phone": "+16465901390", "display_phone": "(646) 590-1390", "distance": 4104.755181466925}, {"id": "v0opDMezc6pKgdfR22KUnQ", "alias": "da-tang-szechuan-new-york-2", "name": "Da Tang Szechuan", "image_url": "https://s3-media4.fl.yelpcdn.com/bphoto/j_Qg8fjx7F1klnadRIX6fA/o.jpg", "is_closed": false, "url": "https://www.yelp.com/biz/da-tang-szechuan-new-york-2?adjust_creative=9gNmiWYX8uTbFBeTTvJMdA&utm_campaign=yelp_api_v3&utm_medium=api_v3_business_search&utm_source=9gNmiWYX8uTbFBeTTvJMdA", "review_count": 303, "categories": [{"alias": "szechuan", "title": "Szechuan"}], "rating": 4.5, "coordinates": {"latitude": 40.75128, "longitude": -73.98376}, "transactions": ["pickup", "delivery"], "price": "$$", "location": {"address1": "18 W 38th St", "address2": null, "address3": "", "city": "New York", "zip_code": "10018", "country": "US", "state": "NY", "display_address": ["18 W 38th St", "New York, NY 10018"]}, "phone": "+16464788345", "display_phone": "(646) 478-8345", "distance": 1489.9961538411758}, {"id": "hyd08lsVkYzCfbbCuzla5Q", "alias": "golden-house-west-new-york", "name": "Golden House", "image_url": "https://s3-media4.fl.yelpcdn.com/bphoto/wQUKjeuCVl4kbjnUxxaS-g/o.jpg", "is_closed": false, "url": "https://www.yelp.com/biz/golden-house-west-new-york?adjust_creative=9gNmiWYX8uTbFBeTTvJMdA&utm_campaign=yelp_api_v3&utm_medium=api_v3_business_search&utm_source=9gNmiWYX8uTbFBeTTvJMdA", "review_count": 11, "categories": [{"alias": "chinese", "title": "Chinese"}, {"alias": "chicken_wings", "title": "Chicken Wings"}, {"alias": "soup", "title": "Soup"}], "rating": 4.0, "coordinates": {"latitude": 40.78862, "longitude": -74.00681}, "transactions": ["delivery"], "price": "$", "location": {"address1": "6305 Park Ave", "address2": "", "address3": "", "city": "West New York", "zip_code": "07093", "country": "US", "state": "NJ", "display_address": ["6305 Park Ave", "West New York, NJ 07093"]}, "phone": "+12018693323", "display_phone": "(201) 869-3323", "distance": 4533.867603374395}, {"id": "QhE50zhSMnQaudpHW1jp7g", "alias": "the-tyger-new-york-2", "name": "The Tyger", "image_url": "https://s3-media2.fl.yelpcdn.com/bphoto/vPgdJweMK7zug1e-oe9Tjw/o.jpg", "is_closed": false, "url": "https://www.yelp.com/biz/the-tyger-new-york-2?adjust_creative=9gNmiWYX8uTbFBeTTvJMdA&utm_campaign=yelp_api_v3&utm_medium=api_v3_business_search&utm_source=9gNmiWYX8uTbFBeTTvJMdA", "review_count": 422, "categories": [{"alias": "cocktailbars", "title": "Cocktail Bars"}, {"alias": "noodles", "title": "Noodles"}, {"alias": "panasian", "title": "Pan Asian"}], "rating": 4.0, "coordinates": {"latitude": 40.71888, "longitude": -73.99951}, "transactions": ["pickup", "delivery"], "price": "$$$", "location": {"address1": "1 Howard St", "address2": null, "address3": null, "city": "New York", "zip_code": "10013", "country": "US", "state": "NY", "display_address": ["1 Howard St", "New York, NY 10013"]}, "phone": "+16463558693", "display_phone": "(646) 355-8693", "distance": 5139.702866880797}, {"id": "XoJwcOxazBKvWikQCATS-w", "alias": "east-flour-jersey-city-2", "name": "East Flour", "image_url": "https://s3-media1.fl.yelpcdn.com/bphoto/KVDKBCUXuEogIYF1pjIXCQ/o.jpg", "is_closed": false, "url": "https://www.yelp.com/biz/east-flour-jersey-city-2?adjust_creative=9gNmiWYX8uTbFBeTTvJMdA&utm_campaign=yelp_api_v3&utm_medium=api_v3_business_search&utm_source=9gNmiWYX8uTbFBeTTvJMdA", "review_count": 215, "categories": [{"alias": "breakfast_brunch", "title": "Breakfast & Brunch"}, {"alias": "noodles", "title": "Noodles"}, {"alias": "dimsum", "title": "Dim Sum"}], "rating": 4.0, "coordinates": {"latitude": 40.71946, "longitude": -74.04346}, "transactions": ["delivery", "pickup"], "price": "$$", "location": {"address1": "103 Christopher Columbus Dr", "address2": null, "address3": "", "city": "Jersey City", "zip_code": "07302", "country": "US", "state": "NJ", "display_address": ["103 Christopher Columbus Dr", "Jersey City, NJ 07302"]}, "phone": "+12013337156", "display_phone": "(201) 333-7156", "distance": 7632.737761175173}, {"id": "itH4GH2Mw2D5n5kkQAtMog", "alias": "abiko-curry-new-york-2", "name": "Abiko Curry", "image_url": "https://s3-media4.fl.yelpcdn.com/bphoto/1HSozLadvvMIafJ_5jEgnQ/o.jpg", "is_closed": false, "url": "https://www.yelp.com/biz/abiko-curry-new-york-2?adjust_creative=9gNmiWYX8uTbFBeTTvJMdA&utm_campaign=yelp_api_v3&utm_medium=api_v3_business_search&utm_source=9gNmiWYX8uTbFBeTTvJMdA", "review_count": 978, "categories": [{"alias": "japacurry", "title": "Japanese Curry"}, {"alias": "noodles", "title": "Noodles"}, {"alias": "beerbar", "title": "Beer Bar"}], "rating": 4.0, "coordinates": {"latitude": 40.74721, "longitude": -73.986192}, "transactions": ["pickup", "delivery"], "price": "$$", "location": {"address1": "2 W 32nd St", "address2": "", "address3": null, "city": "New York", "zip_code": "10001", "country": "US", "state": "NY", "display_address": ["2 W 32nd St", "New York, NY 10001"]}, "phone": "+12126950888", "display_phone": "(212) 695-0888", "distance": 1927.030404670416}, {"id": "E7q1Qf6380N_aMqz28EgNw", "alias": "duckedup-new-york", "name": "Duckedup", "image_url": "https://s3-media3.fl.yelpcdn.com/bphoto/fhQqFwNyMMVJ9H1xsFdqXQ/o.jpg", "is_closed": false, "url": "https://www.yelp.com/biz/duckedup-new-york?adjust_creative=9gNmiWYX8uTbFBeTTvJMdA&utm_campaign=yelp_api_v3&utm_medium=api_v3_business_search&utm_source=9gNmiWYX8uTbFBeTTvJMdA", "review_count": 5, "categories": [{"alias": "dimsum", "title": "Dim Sum"}], "rating": 4.5, "coordinates": {"latitude": 40.7205, "longitude": -73.98826}, "transactions": [], "location": {"address1": "139 Ludlow St", "address2": "Ludlow House", "address3": null, "city": "New York", "zip_code": "10002", "country": "US", "state": "NY", "display_address": ["139 Ludlow St", "Ludlow House", "New York, NY 10002"]}, "phone": "+16462536100", "display_phone": "(646) 253-6100", "distance": 4579.420155384089}, {"id": "SaZZ363k55_E61DgDJX6BA", "alias": "terry-and-yaki-new-york", "name": "Terry and Yaki", "image_url": "https://s3-media2.fl.yelpcdn.com/bphoto/Y9kvenYfQXlWTGDz89-nBQ/o.jpg", "is_closed": false, "url": "https://www.yelp.com/biz/terry-and-yaki-new-york?adjust_creative=9gNmiWYX8uTbFBeTTvJMdA&utm_campaign=yelp_api_v3&utm_medium=api_v3_business_search&utm_source=9gNmiWYX8uTbFBeTTvJMdA", "review_count": 11, "categories": [{"alias": "foodtrucks", "title": "Food Trucks"}, {"alias": "asianfusion", "title": "Asian Fusion"}, {"alias": "halal", "title": "Halal"}], "rating": 4.5, "coordinates": {"latitude": 40.7673294649148, "longitude": -73.9630373941956}, "transactions": ["pickup", "delivery"], "location": {"address1": "215 E 68th St", "address2": "", "address3": null, "city": "New York", "zip_code": "10065", "country": "US", "state": "NY", "display_address": ["215 E 68th St", "New York, NY 10065"]}, "phone": "", "display_phone": "", "distance": 1060.7976876637904}, {"id": "H87c1gVVCKneyI0LxaDFxQ", "alias": "corgi-jianbing-long-island-city-8", "name": "Corgi Jianbing", "image_url": "https://s3-media3.fl.yelpcdn.com/bphoto/aMMvqyS2MZc363SEdECwCA/o.jpg", "is_closed": false, "url": "https://www.yelp.com/biz/corgi-jianbing-long-island-city-8?adjust_creative=9gNmiWYX8uTbFBeTTvJMdA&utm_campaign=yelp_api_v3&utm_medium=api_v3_business_search&utm_source=9gNmiWYX8uTbFBeTTvJMdA", "review_count": 33, "categories": [{"alias": "chinese", "title": "Chinese"}, {"alias": "foodtrucks", "title": "Food Trucks"}, {"alias": "breakfast_brunch", "title": "Breakfast & Brunch"}], "rating": 4.5, "coordinates": {"latitude": 40.7474918, "longitude": -73.9433018}, "transactions": ["pickup", "delivery"], "price": "$$", "location": {"address1": "4405 Hunter St", "address2": null, "address3": null, "city": "Long Island City", "zip_code": "11101", "country": "US", "state": "NY", "display_address": ["4405 Hunter St", "Long Island City, NY 11101"]}, "phone": "+13476855433", "display_phone": "(347) 685-5433", "distance": 2567.5357028322237}, {"id": "azGPyK3p6HDmvQGX0AyDtg", "alias": "shaburo-palisades-park", "name": "ShabuRo", "image_url": "https://s3-media2.fl.yelpcdn.com/bphoto/EVtIO7sn-g9iEag66_poXg/o.jpg", "is_closed": false, "url": "https://www.yelp.com/biz/shaburo-palisades-park?adjust_creative=9gNmiWYX8uTbFBeTTvJMdA&utm_campaign=yelp_api_v3&utm_medium=api_v3_business_search&utm_source=9gNmiWYX8uTbFBeTTvJMdA", "review_count": 587, "categories": [{"alias": "hotpot", "title": "Hot Pot"}, {"alias": "seafood", "title": "Seafood"}, {"alias": "buffets", "title": "Buffets"}], "rating": 4.5, "coordinates": {"latitude": 40.8480599, "longitude": -73.98447}, "transactions": ["pickup", "delivery"], "price": "$$", "location": {"address1": "520 Bergen Blvd", "address2": "Ste 2", "address3": "", "city": "Palisades Park", "zip_code": "07650", "country": "US", "state": "NJ", "display_address": ["520 Bergen Blvd", "Ste 2", "Palisades Park, NJ 07650"]}, "phone": "+12019442872", "display_phone": "(201) 944-2872", "distance": 9924.564093282564}, {"id": "m2_ZNFos5ugAwe8ft8eaEw", "alias": "eim-khao-mun-kai-elmhurst-elmhurst", "name": "Eim Khao Mun Kai Elmhurst", "image_url": "https://s3-media3.fl.yelpcdn.com/bphoto/7vpA-cd9NmOX2XcfMfMgMw/o.jpg", "is_closed": false, "url": "https://www.yelp.com/biz/eim-khao-mun-kai-elmhurst-elmhurst?adjust_creative=9gNmiWYX8uTbFBeTTvJMdA&utm_campaign=yelp_api_v3&utm_medium=api_v3_business_search&utm_source=9gNmiWYX8uTbFBeTTvJMdA", "review_count": 523, "categories": [{"alias": "thai", "title": "Thai"}, {"alias": "hainan", "title": "Hainan"}, {"alias": "chickenshop", "title": "Chicken Shop"}], "rating": 4.0, "coordinates": {"latitude": 40.7429414097644, "longitude": -73.8832733356575}, "transactions": ["pickup", "delivery"], "price": "$", "location": {"address1": "81-32 Broadway", "address2": "", "address3": "", "city": "Elmhurst", "zip_code": "11373", "country": "US", "state": "NY", "display_address": ["81-32 Broadway", "Elmhurst, NY 11373"]}, "phone": "+17184247156", "display_phone": "(718) 424-7156", "distance": 7490.363798005477}, {"id": "CgMgIB_XO4YXJp_MNtB-2g", "alias": "good-luck-kitchen-flushing", "name": "Good Luck Kitchen", "image_url": "https://s3-media1.fl.yelpcdn.com/bphoto/wmYRW7ZeuQc50_5mF81pgQ/o.jpg", "is_closed": false, "url": "https://www.yelp.com/biz/good-luck-kitchen-flushing?adjust_creative=9gNmiWYX8uTbFBeTTvJMdA&utm_campaign=yelp_api_v3&utm_medium=api_v3_business_search&utm_source=9gNmiWYX8uTbFBeTTvJMdA", "review_count": 123, "categories": [{"alias": "cantonese", "title": "Cantonese"}], "rating": 4.0, "coordinates": {"latitude": 40.75826, "longitude": -73.795471}, "transactions": ["delivery"], "price": "$$", "location": {"address1": "171-03 Northern Blvd", "address2": null, "address3": "", "city": "Flushing", "zip_code": "11358", "country": "US", "state": "NY", "display_address": ["171-03 Northern Blvd", "Flushing, NY 11358"]}, "phone": "+17183262533", "display_phone": "(718) 326-2533", "distance": 14665.508767423476}], "total": 3300, "region": {"center": {"longitude": -73.96957397460938, "latitude": 40.75917470627005}}}