{"businesses": [{"id": "U_JIkNwSc-J-tu_E8iztyg", "alias": "three-hotpot-bbq-new-york", "name": "Three Hotpot Bbq", "image_url": "https://s3-media2.fl.yelpcdn.com/bphoto/bs_muIezX06Qo9L-tmnlww/o.jpg", "is_closed": false, "url": "https://www.yelp.com/biz/three-hotpot-bbq-new-york?adjust_creative=9gNmiWYX8uTbFBeTTvJMdA&utm_campaign=yelp_api_v3&utm_medium=api_v3_business_search&utm_source=9gNmiWYX8uTbFBeTTvJMdA", "review_count": 6, "categories": [{"alias": "hotpot", "title": "Hot Pot"}, {"alias": "bbq", "title": "Barbeque"}], "rating": 5.0, "coordinates": {"latitude": 40.751224, "longitude": -73.983822}, "transactions": [], "location": {"address1": "18 W 38th St", "address2": null, "address3": "", "city": "New York", "zip_code": "10018", "country": "US", "state": "NY", "display_address": ["18 W 38th St", "New York, NY 10018"]}, "phone": "+16466926666", "display_phone": "(646) 692-6666", "distance": 1489.9961538403134}, {"id": "-lKKdp0XYVJY2DWL-ZSwtQ", "alias": "pac-rim-new-york-2", "name": "Pac Rim", "image_url": "https://s3-media2.fl.yelpcdn.com/bphoto/pRcrz4HNudAa73-KosB1lw/o.jpg", "is_closed": false, "url": "https://www.yelp.com/biz/pac-rim-new-york-2?adjust_creative=9gNmiWYX8uTbFBeTTvJMdA&utm_campaign=yelp_api_v3&utm_medium=api_v3_business_search&utm_source=9gNmiWYX8uTbFBeTTvJMdA", "review_count": 7, "categories": [{"alias": "sushi", "title": "Sushi Bars"}, {"alias": "asianfusion", "title": "Asian Fusion"}], "rating": 4.5, "coordinates": {"latitude": 40.75373972103885, "longitude": -73.96800323380802}, "transactions": [], "location": {"address1": "308 E 49th St", "address2": "", "address3": null, "city": "New York", "zip_code": "10017", "country": "US", "state": "NY", "display_address": ["308 E 49th St", "New York, NY 10017"]}, "phone": "+12122074787", "display_phone": "(212) 207-4787", "distance": 618.6543748974339}, {"id": "QjXjUpyYlopIN_JK6A_s-w", "alias": "mimi-cheng-s-dumplings-new-york", "name": "Mimi Cheng\u2019s Dumplings", "image_url": "https://s3-media3.fl.yelpcdn.com/bphoto/rzexRlL3RN4M6TNt5k6cgw/o.jpg", "is_closed": false, "url": "https://www.yelp.com/biz/mimi-cheng-s-dumplings-new-york?adjust_creative=9gNmiWYX8uTbFBeTTvJMdA&utm_campaign=yelp_api_v3&utm_medium=api_v3_business_search&utm_source=9gNmiWYX8uTbFBeTTvJMdA", "review_count": 69, "categories": [{"alias": "taiwanese", "title": "Taiwanese"}, {"alias": "dimsum", "title": "Dim Sum"}], "rating": 3.5, "coordinates": {"latitude": 40.7801418544804, "longitude": -73.98022}, "transactions": ["delivery", "pickup"], "location": {"address1": "309 Amsterdam Ave", "address2": "", "address3": null, "city": "New York", "zip_code": "10023", "country": "US", "state": "NY", "display_address": ["309 Amsterdam Ave", "New York, NY 10023"]}, "phone": "+16463441030", "display_phone": "(646) 344-1030", "distance": 2497.871829119366}, {"id": "pYC8aaoUcPp1FaPqVojS5g", "alias": "grand-master-95-new-york", "name": "Grand Master 95", "image_url": "https://s3-media2.fl.yelpcdn.com/bphoto/tpyBEiuxjC3Ng45J8TtBsQ/o.jpg", "is_closed": false, "url": "https://www.yelp.com/biz/grand-master-95-new-york?adjust_creative=9gNmiWYX8uTbFBeTTvJMdA&utm_campaign=yelp_api_v3&utm_medium=api_v3_business_search&utm_source=9gNmiWYX8uTbFBeTTvJMdA", "review_count": 52, "categories": [{"alias": "chinese", "title": "Chinese"}, {"alias": "seafood", "title": "Seafood"}, {"alias": "noodles", "title": "Noodles"}], "rating": 5.0, "coordinates": {"latitude": 40.71776, "longitude": -73.99422}, "transactions": ["delivery", "pickup"], "price": "$$", "location": {"address1": "95 Chrystie St", "address2": null, "address3": "", "city": "New York", "zip_code": "10002", "country": "US", "state": "NY", "display_address": ["95 Chrystie St", "New York, NY 10002"]}, "phone": "+19173883281", "display_phone": "(917) 388-3281", "distance": 5052.009133733416}, {"id": "8a_ci8y-96SjvdaK3eIoSw", "alias": "dragon-and-phoenix-queens", "name": "Dragon And Phoenix", "image_url": "https://s3-media2.fl.yelpcdn.com/bphoto/77_Y-0TyXVj031D1AW8DqQ/o.jpg", "is_closed": false, "url": "https://www.yelp.com/biz/dragon-and-phoenix-queens?adjust_creative=9gNmiWYX8uTbFBeTTvJMdA&utm_campaign=yelp_api_v3&utm_medium=api_v3_business_search&utm_source=9gNmiWYX8uTbFBeTTvJMdA", "review_count": 16, "categories": [{"alias": "chinese", "title": "Chinese"}], "rating": 4.5, "coordinates": {"latitude": 40.77426, "longitude": -73.90761}, "transactions": ["delivery"], "location": {"address1": "36-11 Ditmars Blvd", "address2": "", "address3": null, "city": "Queens", "zip_code": "11105", "country": "US", "state": "NY", "display_address": ["36-11 Ditmars Blvd", "Queens, NY 11105"]}, "phone": "+17182049120", "display_phone": "(718) 204-9120", "distance": 5469.397468329481}, {"id": "omOPvWNdukvWOC0peXPyng", "alias": "fairview-chinese-restaurant-fairview", "name": "Fairview Chinese Restaurant", "image_url": "https://s3-media2.fl.yelpcdn.com/bphoto/lIsjOF58xwS-3RLRxb0UUA/o.jpg", "is_closed": false, "url": "https://www.yelp.com/biz/fairview-chinese-restaurant-fairview?adjust_creative=9gNmiWYX8uTbFBeTTvJMdA&utm_campaign=yelp_api_v3&utm_medium=api_v3_business_search&utm_source=9gNmiWYX8uTbFBeTTvJMdA", "review_count": 158, "categories": [{"alias": "chinese", "title": "Chinese"}], "rating": 4.0, "coordinates": {"latitude": 40.81084, "longitude": -74.00097}, "transactions": ["delivery", "pickup"], "price": "$", "location": {"address1": "363 Fairview Ave", "address2": "", "address3": "", "city": "Fairview", "zip_code": "07022", "country": "US", "state": "NJ", "display_address": ["363 Fairview Ave", "Fairview, NJ 07022"]}, "phone": "+12013139888", "display_phone": "(201) 313-9888", "distance": 6322.602351609334}, {"id": "Aeiyyowii5GBL9Y-SjTxvg", "alias": "xin-lin-chinese-restaurant-union-city", "name": "Xin Lin Chinese Restaurant", "image_url": "https://s3-media3.fl.yelpcdn.com/bphoto/Uzy3-UempykRAtWPPGnKnw/o.jpg", "is_closed": false, "url": "https://www.yelp.com/biz/xin-lin-chinese-restaurant-union-city?adjust_creative=9gNmiWYX8uTbFBeTTvJMdA&utm_campaign=yelp_api_v3&utm_medium=api_v3_business_search&utm_source=9gNmiWYX8uTbFBeTTvJMdA", "review_count": 27, "categories": [{"alias": "chinese", "title": "Chinese"}], "rating": 4.0, "coordinates": {"latitude": 40.77735, "longitude": -74.0187399}, "transactions": ["delivery"], "price": "$", "location": {"address1": "4507 Park Ave", "address2": "Ste A", "address3": null, "city": "Union City", "zip_code": "07087", "country": "US", "state": "NJ", "display_address": ["4507 Park Ave", "Ste A", "Union City, NJ 07087"]}, "phone": "+12018668008", "display_phone": "(201) 866-8008", "distance": 4607.462547342547}, {"id": "r2JVKalbucGf2nryywuL2w", "alias": "kopitiam-new-york", "name": "Kopitiam", "image_url": "https://s3-media1.fl.yelpcdn.com/bphoto/QwkF1ela_T9g-f4kTJq69A/o.jpg", "is_closed": false, "url": "https://www.yelp.com/biz/kopitiam-new-york?adjust_creative=9gNmiWYX8uTbFBeTTvJMdA&utm_campaign=yelp_api_v3&utm_medium=api_v3_business_search&utm_source=9gNmiWYX8uTbFBeTTvJMdA", "review_count": 926, "categories": [{"alias": "malaysian", "title": "Malaysian"}, {"alias": "desserts", "title": "Desserts"}, {"alias": "breakfast_brunch", "title": "Breakfast & Brunch"}], "rating": 4.0, "coordinates": {"latitude": 40.71387, "longitude": -73.99091}, "transactions": ["delivery", "pickup"], "price": "$$", "location": {"address1": "151 E Broadway", "address2": "", "address3": "", "city": "New York", "zip_code": "10002", "country": "US", "state": "NY", "display_address": ["151 E Broadway", "New York, NY 10002"]}, "phone": "+16466093785", "display_phone": "(646) 609-3785", "distance": 5353.493006552973}, {"id": "tFAozE7NNbypnrr5zEt0bQ", "alias": "dim-sum-palace-new-york-16", "name": "Dim Sum Palace", "image_url": "https://s3-media2.fl.yelpcdn.com/bphoto/q72Pg8nF7RCCg7Y-l0v1pQ/o.jpg", "is_closed": false, "url": "https://www.yelp.com/biz/dim-sum-palace-new-york-16?adjust_creative=9gNmiWYX8uTbFBeTTvJMdA&utm_campaign=yelp_api_v3&utm_medium=api_v3_business_search&utm_source=9gNmiWYX8uTbFBeTTvJMdA", "review_count": 14, "categories": [{"alias": "dimsum", "title": "Dim Sum"}], "rating": 4.0, "coordinates": {"latitude": 40.714018, "longitude": -73.996122}, "transactions": [], "location": {"address1": "27 Division St", "address2": "", "address3": null, "city": "New York", "zip_code": "10002", "country": "US", "state": "NY", "display_address": ["27 Division St", "New York, NY 10002"]}, "phone": "", "display_phone": "", "distance": 5501.102361238115}, {"id": "4pnfZWTgH2924iEKRa0hkw", "alias": "hot-fish-\u5ddd\u5929\u4e0b-hackensack", "name": "Hot Fish \u5ddd\u5929\u4e0b", "image_url": "https://s3-media4.fl.yelpcdn.com/bphoto/Y9B8rZxpsTfnyuPJLX1Jrg/o.jpg", "is_closed": false, "url": "https://www.yelp.com/biz/hot-fish-%E5%B7%9D%E5%A4%A9%E4%B8%8B-hackensack?adjust_creative=9gNmiWYX8uTbFBeTTvJMdA&utm_campaign=yelp_api_v3&utm_medium=api_v3_business_search&utm_source=9gNmiWYX8uTbFBeTTvJMdA", "review_count": 121, "categories": [{"alias": "szechuan", "title": "Szechuan"}, {"alias": "dimsum", "title": "Dim Sum"}], "rating": 4.0, "coordinates": {"latitude": 40.9088271630796, "longitude": -74.0311849391366}, "transactions": ["delivery", "pickup"], "price": "$$", "location": {"address1": "450 Hackensack Ave", "address2": "Ste 6", "address3": null, "city": "Hackensack", "zip_code": "07601", "country": "US", "state": "NJ", "display_address": ["450 Hackensack Ave", "Ste 6", "Hackensack, NJ 07601"]}, "phone": "+12018810180", "display_phone": "(201) 881-0180", "distance": 17429.174339775127}, {"id": "w0pDi_iMZd5MqYQ7t5q1dQ", "alias": "christophers-golden-woks-new-york", "name": "Christopher's Golden Woks", "image_url": "https://s3-media3.fl.yelpcdn.com/bphoto/eO_OSSx-UVpGAoggONwHgg/o.jpg", "is_closed": false, "url": "https://www.yelp.com/biz/christophers-golden-woks-new-york?adjust_creative=9gNmiWYX8uTbFBeTTvJMdA&utm_campaign=yelp_api_v3&utm_medium=api_v3_business_search&utm_source=9gNmiWYX8uTbFBeTTvJMdA", "review_count": 72, "categories": [{"alias": "chinese", "title": "Chinese"}], "rating": 3.5, "coordinates": {"latitude": 40.73284, "longitude": -74.00836}, "transactions": ["delivery", "pickup"], "price": "$", "location": {"address1": "159 Christopher St", "address2": "", "address3": "", "city": "New York", "zip_code": "10014", "country": "US", "state": "NY", "display_address": ["159 Christopher St", "New York, NY 10014"]}, "phone": "+12124638182", "display_phone": "(212) 463-8182", "distance": 4389.47835210832}, {"id": "Sri-kDbSGsPPQJyp8eomKg", "alias": "laojie-hotpot-manhattan-new-york", "name": "LaoJie Hotpot Manhattan", "image_url": "https://s3-media1.fl.yelpcdn.com/bphoto/i8n_bDmLRLIL1lSvyO0Ceg/o.jpg", "is_closed": false, "url": "https://www.yelp.com/biz/laojie-hotpot-manhattan-new-york?adjust_creative=9gNmiWYX8uTbFBeTTvJMdA&utm_campaign=yelp_api_v3&utm_medium=api_v3_business_search&utm_source=9gNmiWYX8uTbFBeTTvJMdA", "review_count": 86, "categories": [{"alias": "hotpot", "title": "Hot Pot"}, {"alias": "bbq", "title": "Barbeque"}, {"alias": "chinese", "title": "Chinese"}], "rating": 4.5, "coordinates": {"latitude": 40.71764, "longitude": -73.99504}, "transactions": [], "price": "$$$", "location": {"address1": "105 Bowery", "address2": null, "address3": "", "city": "New York", "zip_code": "10002", "country": "US", "state": "NY", "display_address": ["105 Bowery", "New York, NY 10002"]}, "phone": "+16464788166", "display_phone": "(646) 478-8166", "distance": 5092.887023749916}, {"id": "3K7Kc82bhU6-qjAjsBs3Fw", "alias": "lao-bei-fang-dumpling-house-elmhurst", "name": "Lao Bei Fang Dumpling House", "image_url": "https://s3-media2.fl.yelpcdn.com/bphoto/PJBPXeQXygDnKPiB9UP83Q/o.jpg", "is_closed": false, "url": "https://www.yelp.com/biz/lao-bei-fang-dumpling-house-elmhurst?adjust_creative=9gNmiWYX8uTbFBeTTvJMdA&utm_campaign=yelp_api_v3&utm_medium=api_v3_business_search&utm_source=9gNmiWYX8uTbFBeTTvJMdA", "review_count": 619, "categories": [{"alias": "chinese", "title": "Chinese"}, {"alias": "noodles", "title": "Noodles"}], "rating": 4.0, "coordinates": {"latitude": 40.74111, "longitude": -73.87977}, "transactions": [], "price": "$", "location": {"address1": "8305 Broadway", "address2": "", "address3": "", "city": "Elmhurst", "zip_code": "11373", "country": "US", "state": "NY", "display_address": ["8305 Broadway", "Elmhurst, NY 11373"]}, "phone": "+17186393996", "display_phone": "(718) 639-3996", "distance": 7826.9716818888455}, {"id": "qvX5If0CwM1RGzP3ie4SKA", "alias": "dumpling-n-dips-new-york-2", "name": "Dumpling N' Dips", "image_url": "https://s3-media3.fl.yelpcdn.com/bphoto/79mVLszv2qXeZ6MusDgsRg/o.jpg", "is_closed": false, "url": "https://www.yelp.com/biz/dumpling-n-dips-new-york-2?adjust_creative=9gNmiWYX8uTbFBeTTvJMdA&utm_campaign=yelp_api_v3&utm_medium=api_v3_business_search&utm_source=9gNmiWYX8uTbFBeTTvJMdA", "review_count": 118, "categories": [{"alias": "dimsum", "title": "Dim Sum"}], "rating": 5.0, "coordinates": {"latitude": 40.72944, "longitude": -73.98934}, "transactions": ["delivery", "pickup"], "price": "$", "location": {"address1": "5 St Marks Pl", "address2": null, "address3": "", "city": "New York", "zip_code": "10003", "country": "US", "state": "NY", "display_address": ["5 St Marks Pl", "New York, NY 10003"]}, "phone": "+19294294656", "display_phone": "(929) 429-4656", "distance": 3699.647677118637}, {"id": "kiRGyWovmi3vMPJ4sJudHg", "alias": "golden-wonton-king-flushing", "name": "Golden Wonton King", "image_url": "https://s3-media2.fl.yelpcdn.com/bphoto/F8ac1so5Ye7SXdunzL3chg/o.jpg", "is_closed": false, "url": "https://www.yelp.com/biz/golden-wonton-king-flushing?adjust_creative=9gNmiWYX8uTbFBeTTvJMdA&utm_campaign=yelp_api_v3&utm_medium=api_v3_business_search&utm_source=9gNmiWYX8uTbFBeTTvJMdA", "review_count": 64, "categories": [{"alias": "cantonese", "title": "Cantonese"}], "rating": 4.0, "coordinates": {"latitude": 40.76489, "longitude": -73.81072}, "transactions": [], "price": "$$", "location": {"address1": "154-01 Northern Blvd", "address2": null, "address3": "", "city": "Flushing", "zip_code": "11354", "country": "US", "state": "NY", "display_address": ["154-01 Northern Blvd", "Flushing, NY 11354"]}, "phone": "+17187990033", "display_phone": "(718) 799-0033", "distance": 13393.59020258894}, {"id": "2rSmA4IK51QAQj60YGvjnw", "alias": "new-asian-cuisine-woodside", "name": "New Asian Cuisine", "image_url": "https://s3-media3.fl.yelpcdn.com/bphoto/oODsr0KRQxLQOWeVyb42QA/o.jpg", "is_closed": false, "url": "https://www.yelp.com/biz/new-asian-cuisine-woodside?adjust_creative=9gNmiWYX8uTbFBeTTvJMdA&utm_campaign=yelp_api_v3&utm_medium=api_v3_business_search&utm_source=9gNmiWYX8uTbFBeTTvJMdA", "review_count": 36, "categories": [{"alias": "asianfusion", "title": "Asian Fusion"}, {"alias": "chinese", "title": "Chinese"}], "rating": 3.5, "coordinates": {"latitude": 40.7393524, "longitude": -73.9210213}, "transactions": ["delivery", "pickup"], "price": "$", "location": {"address1": "44-20 48th Ave", "address2": null, "address3": "", "city": "Woodside", "zip_code": "11377", "country": "US", "state": "NY", "display_address": ["44-20 48th Ave", "Woodside, NY 11377"]}, "phone": "+17187844989", "display_phone": "(718) 784-4989", "distance": 4684.908260587794}, {"id": "7VqMGK9uwi0vKqOjdKyIUA", "alias": "catch-nyc-new-york", "name": "Catch NYC", "image_url": "https://s3-media2.fl.yelpcdn.com/bphoto/AVnS8PqEWr6SBI69mGfW1g/o.jpg", "is_closed": false, "url": "https://www.yelp.com/biz/catch-nyc-new-york?adjust_creative=9gNmiWYX8uTbFBeTTvJMdA&utm_campaign=yelp_api_v3&utm_medium=api_v3_business_search&utm_source=9gNmiWYX8uTbFBeTTvJMdA", "review_count": 2723, "categories": [{"alias": "asianfusion", "title": "Asian Fusion"}, {"alias": "sushi", "title": "Sushi Bars"}, {"alias": "seafood", "title": "Seafood"}], "rating": 3.5, "coordinates": {"latitude": 40.740234, "longitude": -74.006342}, "transactions": ["delivery", "pickup"], "price": "$$$", "location": {"address1": "21 9th Ave", "address2": "", "address3": "", "city": "New York", "zip_code": "10014", "country": "US", "state": "NY", "display_address": ["21 9th Ave", "New York, NY 10014"]}, "phone": "+12123925978", "display_phone": "(212) 392-5978", "distance": 3745.4858710391372}, {"id": "gNGxh97n0NZgYG1Q_no9Kg", "alias": "potluck-club-new-york-2", "name": "Potluck Club", "image_url": "https://s3-media2.fl.yelpcdn.com/bphoto/yKFxQPPeMwobQAWrnsg2Hg/o.jpg", "is_closed": false, "url": "https://www.yelp.com/biz/potluck-club-new-york-2?adjust_creative=9gNmiWYX8uTbFBeTTvJMdA&utm_campaign=yelp_api_v3&utm_medium=api_v3_business_search&utm_source=9gNmiWYX8uTbFBeTTvJMdA", "review_count": 134, "categories": [{"alias": "chinese", "title": "Chinese"}], "rating": 4.5, "coordinates": {"latitude": 40.71952, "longitude": -73.99333}, "transactions": [], "location": {"address1": "133 Chrystie St", "address2": null, "address3": "", "city": "New York", "zip_code": "10002", "country": "US", "state": "NY", "display_address": ["133 Chrystie St", "New York, NY 10002"]}, "phone": "", "display_phone": "", "distance": 4843.255302949998}, {"id": "FlZ1zdVEKWv7dwqm8Uw8-w", "alias": "raku-new-york-7", "name": "Raku", "image_url": "https://s3-media4.fl.yelpcdn.com/bphoto/GEbZnH1jR4n7D5WOJ3urPg/o.jpg", "is_closed": false, "url": "https://www.yelp.com/biz/raku-new-york-7?adjust_creative=9gNmiWYX8uTbFBeTTvJMdA&utm_campaign=yelp_api_v3&utm_medium=api_v3_business_search&utm_source=9gNmiWYX8uTbFBeTTvJMdA", "review_count": 1482, "categories": [{"alias": "japanese", "title": "Japanese"}, {"alias": "noodles", "title": "Noodles"}], "rating": 4.5, "coordinates": {"latitude": 40.7264988089246, "longitude": -73.9866526052356}, "transactions": ["delivery", "pickup"], "price": "$$", "location": {"address1": "342 E 6th St", "address2": "", "address3": "", "city": "New York", "zip_code": "10003", "country": "US", "state": "NY", "display_address": ["342 E 6th St", "New York, NY 10003"]}, "phone": "+12122281324", "display_phone": "(212) 228-1324", "distance": 3907.902764784856}, {"id": "NIGYFezOj_F_M5GskaN-2Q", "alias": "tipsy-shanghai-new-york-3", "name": "Tipsy Shanghai", "image_url": "https://s3-media1.fl.yelpcdn.com/bphoto/iytqAVF5WR-b2nBEnFflkg/o.jpg", "is_closed": false, "url": "https://www.yelp.com/biz/tipsy-shanghai-new-york-3?adjust_creative=9gNmiWYX8uTbFBeTTvJMdA&utm_campaign=yelp_api_v3&utm_medium=api_v3_business_search&utm_source=9gNmiWYX8uTbFBeTTvJMdA", "review_count": 25, "categories": [{"alias": "shanghainese", "title": "Shanghainese"}, {"alias": "noodles", "title": "Noodles"}], "rating": 3.5, "coordinates": {"latitude": 40.74811, "longitude": -73.99306}, "transactions": ["delivery", "pickup"], "location": {"address1": "342 7th Ave", "address2": "", "address3": null, "city": "New York", "zip_code": "10001", "country": "US", "state": "NY", "display_address": ["342 7th Ave", "New York, NY 10001"]}, "phone": "+12126609666", "display_phone": "(212) 660-9666", "distance": 2329.8195953460277}, {"id": "BTWWgZrMo_pS_BK-TYO92g", "alias": "shanghai-restaurant-fort-lee", "name": "Shanghai Restaurant", "image_url": "https://s3-media3.fl.yelpcdn.com/bphoto/6NtVdBJZ3hq3bFFddagHHg/o.jpg", "is_closed": false, "url": "https://www.yelp.com/biz/shanghai-restaurant-fort-lee?adjust_creative=9gNmiWYX8uTbFBeTTvJMdA&utm_campaign=yelp_api_v3&utm_medium=api_v3_business_search&utm_source=9gNmiWYX8uTbFBeTTvJMdA", "review_count": 415, "categories": [{"alias": "dimsum", "title": "Dim Sum"}, {"alias": "shanghainese", "title": "Shanghainese"}], "rating": 4.0, "coordinates": {"latitude": 40.8558064526236, "longitude": -73.9778536185622}, "transactions": ["pickup"], "price": "$$", "location": {"address1": "493 Main St", "address2": "", "address3": "", "city": "Fort Lee", "zip_code": "07024", "country": "US", "state": "NJ", "display_address": ["493 Main St", "Fort Lee, NJ 07024"]}, "phone": "+12014828079", "display_phone": "(201) 482-8079", "distance": 10767.521055285853}, {"id": "gQ6DNeLNWQV-zwWyuFeBpg", "alias": "no-1-chinese-restaurant-new-york-3", "name": "No. 1 Chinese Restaurant", "image_url": "https://s3-media4.fl.yelpcdn.com/bphoto/h8xxOqBX2oDT6kgLwrPeSA/o.jpg", "is_closed": false, "url": "https://www.yelp.com/biz/no-1-chinese-restaurant-new-york-3?adjust_creative=9gNmiWYX8uTbFBeTTvJMdA&utm_campaign=yelp_api_v3&utm_medium=api_v3_business_search&utm_source=9gNmiWYX8uTbFBeTTvJMdA", "review_count": 169, "categories": [{"alias": "chinese", "title": "Chinese"}], "rating": 3.0, "coordinates": {"latitude": 40.7046671846472, "longitude": -74.0105490435282}, "transactions": ["delivery", "pickup"], "price": "$$", "location": {"address1": "10 S William St", "address2": "", "address3": "", "city": "New York", "zip_code": "10004", "country": "US", "state": "NY", "display_address": ["10 S William St", "New York, NY 10004"]}, "phone": "+12129520890", "display_phone": "(212) 952-0890", "distance": 6971.50519958796}, {"id": "JyYt8w1RpjDbITsE40eLfA", "alias": "e-noodle-chinatown-new-york", "name": "E Noodle Chinatown", "image_url": "https://s3-media2.fl.yelpcdn.com/bphoto/lqCtQgZxI1pygPx8zk1Zdw/o.jpg", "is_closed": false, "url": "https://www.yelp.com/biz/e-noodle-chinatown-new-york?adjust_creative=9gNmiWYX8uTbFBeTTvJMdA&utm_campaign=yelp_api_v3&utm_medium=api_v3_business_search&utm_source=9gNmiWYX8uTbFBeTTvJMdA", "review_count": 12, "categories": [{"alias": "hkcafe", "title": "Hong Kong Style Cafe"}, {"alias": "chinese", "title": "Chinese"}], "rating": 5.0, "coordinates": {"latitude": 40.71329, "longitude": -73.98869}, "transactions": ["delivery", "pickup"], "location": {"address1": "26 Jefferson St", "address2": null, "address3": "", "city": "New York", "zip_code": "10002", "country": "US", "state": "NY", "display_address": ["26 Jefferson St", "New York, NY 10002"]}, "phone": "+19174092634", "display_phone": "(917) 409-2634", "distance": 5348.923440209385}, {"id": "2pnhIRBUw58PpN8CQEYiZA", "alias": "new-food-king-new-york", "name": "New Food King", "image_url": "https://s3-media4.fl.yelpcdn.com/bphoto/DhrLqHIstpYN_M3IvRpPRA/o.jpg", "is_closed": false, "url": "https://www.yelp.com/biz/new-food-king-new-york?adjust_creative=9gNmiWYX8uTbFBeTTvJMdA&utm_campaign=yelp_api_v3&utm_medium=api_v3_business_search&utm_source=9gNmiWYX8uTbFBeTTvJMdA", "review_count": 69, "categories": [{"alias": "chinese", "title": "Chinese"}], "rating": 3.5, "coordinates": {"latitude": 40.76366, "longitude": -73.99217}, "transactions": ["delivery", "pickup"], "price": "$", "location": {"address1": "694 10th Ave", "address2": "", "address3": null, "city": "New York", "zip_code": "10036", "country": "US", "state": "NY", "display_address": ["694 10th Ave", "New York, NY 10036"]}, "phone": "+12123076701", "display_phone": "(212) 307-6701", "distance": 1966.9344544875569}, {"id": "XoxEVVf5Ci8nibQ-Q4P0nQ", "alias": "chinese-musician-restaurant-brooklyn", "name": "Chinese Musician Restaurant", "image_url": "https://s3-media1.fl.yelpcdn.com/bphoto/6OOVfqNMpHqnMIpZFQHAaQ/o.jpg", "is_closed": false, "url": "https://www.yelp.com/biz/chinese-musician-restaurant-brooklyn?adjust_creative=9gNmiWYX8uTbFBeTTvJMdA&utm_campaign=yelp_api_v3&utm_medium=api_v3_business_search&utm_source=9gNmiWYX8uTbFBeTTvJMdA", "review_count": 148, "categories": [{"alias": "chinese", "title": "Chinese"}], "rating": 3.0, "coordinates": {"latitude": 40.73042, "longitude": -73.9537321}, "transactions": ["delivery", "pickup"], "price": "$", "location": {"address1": "151 Greenpoint Ave", "address2": null, "address3": "", "city": "Brooklyn", "zip_code": "11222", "country": "US", "state": "NY", "display_address": ["151 Greenpoint Ave", "Brooklyn, NY 11222"]}, "phone": "+17183832413", "display_phone": "(718) 383-2413", "distance": 3464.7231031156075}, {"id": "uPVYeVOSLmvAkbxM9cTAQg", "alias": "mamak-house-jersey-city-2", "name": "Mamak House", "image_url": "https://s3-media3.fl.yelpcdn.com/bphoto/NCCUQpGzEdGVvYnbaKZtJA/o.jpg", "is_closed": false, "url": "https://www.yelp.com/biz/mamak-house-jersey-city-2?adjust_creative=9gNmiWYX8uTbFBeTTvJMdA&utm_campaign=yelp_api_v3&utm_medium=api_v3_business_search&utm_source=9gNmiWYX8uTbFBeTTvJMdA", "review_count": 132, "categories": [{"alias": "malaysian", "title": "Malaysian"}, {"alias": "chinese", "title": "Chinese"}, {"alias": "cocktailbars", "title": "Cocktail Bars"}], "rating": 4.0, "coordinates": {"latitude": 40.705302816474706, "longitude": -74.09962288773093}, "transactions": ["delivery", "pickup"], "price": "$$", "location": {"address1": "250 Rte 440", "address2": null, "address3": "", "city": "Jersey City", "zip_code": "07305", "country": "US", "state": "NJ", "display_address": ["250 Rte 440", "Jersey City, NJ 07305"]}, "phone": "+12013330072", "display_phone": "(201) 333-0072", "distance": 12488.34518484103}, {"id": "ONQRhDuWv0e9R5xOiI7YAA", "alias": "gyu-kaku-japanese-bbq-new-york-3", "name": "Gyu-Kaku Japanese BBQ", "image_url": "https://s3-media1.fl.yelpcdn.com/bphoto/nLuORVBHq736K32tDUfoaA/o.jpg", "is_closed": false, "url": "https://www.yelp.com/biz/gyu-kaku-japanese-bbq-new-york-3?adjust_creative=9gNmiWYX8uTbFBeTTvJMdA&utm_campaign=yelp_api_v3&utm_medium=api_v3_business_search&utm_source=9gNmiWYX8uTbFBeTTvJMdA", "review_count": 1350, "categories": [{"alias": "japanese", "title": "Japanese"}, {"alias": "bbq", "title": "Barbeque"}, {"alias": "asianfusion", "title": "Asian Fusion"}], "rating": 4.0, "coordinates": {"latitude": 40.759142237934725, "longitude": -73.98989855434367}, "transactions": ["delivery", "pickup"], "price": "$$", "location": {"address1": "321 W 44th St", "address2": "Ste 103", "address3": "", "city": "New York", "zip_code": "10036", "country": "US", "state": "NY", "display_address": ["321 W 44th St", "Ste 103", "New York, NY 10036"]}, "phone": "+16466929115", "display_phone": "(646) 692-9115", "distance": 1711.8554784944351}, {"id": "MzA6gitJKqfW4VrdS7AiQw", "alias": "pacific-moon-woodside", "name": "PACIFIC MOON", "image_url": "https://s3-media4.fl.yelpcdn.com/bphoto/ZwDUIVoLbNXD-X2ItcMBuQ/o.jpg", "is_closed": false, "url": "https://www.yelp.com/biz/pacific-moon-woodside?adjust_creative=9gNmiWYX8uTbFBeTTvJMdA&utm_campaign=yelp_api_v3&utm_medium=api_v3_business_search&utm_source=9gNmiWYX8uTbFBeTTvJMdA", "review_count": 112, "categories": [{"alias": "chinese", "title": "Chinese"}, {"alias": "seafood", "title": "Seafood"}, {"alias": "chicken_wings", "title": "Chicken Wings"}], "rating": 4.0, "coordinates": {"latitude": 40.75119, "longitude": -73.90269}, "transactions": ["delivery", "pickup"], "price": "$", "location": {"address1": "59-02 Broadway", "address2": "", "address3": "", "city": "Woodside", "zip_code": "11377", "country": "US", "state": "NY", "display_address": ["59-02 Broadway", "Woodside, NY 11377"]}, "phone": "+17184768578", "display_phone": "(718) 476-8578", "distance": 5698.169820537049}, {"id": "hDT_KAXQgHpchcwG5_gv0Q", "alias": "wu-and-nussbaum-new-york", "name": "Wu & Nussbaum", "image_url": "https://s3-media4.fl.yelpcdn.com/bphoto/MJuDCRSmLZlcmz-dWqyy3g/o.jpg", "is_closed": false, "url": "https://www.yelp.com/biz/wu-and-nussbaum-new-york?adjust_creative=9gNmiWYX8uTbFBeTTvJMdA&utm_campaign=yelp_api_v3&utm_medium=api_v3_business_search&utm_source=9gNmiWYX8uTbFBeTTvJMdA", "review_count": 96, "categories": [{"alias": "chinese", "title": "Chinese"}, {"alias": "noodles", "title": "Noodles"}, {"alias": "bagels", "title": "Bagels"}], "rating": 3.5, "coordinates": {"latitude": 40.8061199195632, "longitude": -73.9657058939338}, "transactions": ["delivery", "pickup"], "price": "$$", "location": {"address1": "2897 Broadway", "address2": "", "address3": null, "city": "New York", "zip_code": "10025", "country": "US", "state": "NY", "display_address": ["2897 Broadway", "New York, NY 10025"]}, "phone": "+12122220040", "display_phone": "(212) 222-0040", "distance": 5230.213272520258}, {"id": "AfF4zVbVI27zwgkzOLYDFg", "alias": "xian-famous-foods-brooklyn-9", "name": "Xi'an Famous Foods", "image_url": "https://s3-media1.fl.yelpcdn.com/bphoto/yrsp6lqTre5pFqrCMFcQEw/o.jpg", "is_closed": false, "url": "https://www.yelp.com/biz/xian-famous-foods-brooklyn-9?adjust_creative=9gNmiWYX8uTbFBeTTvJMdA&utm_campaign=yelp_api_v3&utm_medium=api_v3_business_search&utm_source=9gNmiWYX8uTbFBeTTvJMdA", "review_count": 258, "categories": [{"alias": "chinese", "title": "Chinese"}, {"alias": "noodles", "title": "Noodles"}, {"alias": "burgers", "title": "Burgers"}], "rating": 4.0, "coordinates": {"latitude": 40.7243301734731, "longitude": -73.9509299397469}, "transactions": ["delivery"], "price": "$$", "location": {"address1": "648 Manhattan Ave", "address2": "", "address3": "", "city": "Brooklyn", "zip_code": "11222", "country": "US", "state": "NY", "display_address": ["648 Manhattan Ave", "Brooklyn, NY 11222"]}, "phone": "+12127862068", "display_phone": "(212) 786-2068", "distance": 4180.806646231521}, {"id": "CFUaimcfs4q8Y7vCkxraHg", "alias": "gordon-chen-kitchen-new-york", "name": "Gordon Chen Kitchen", "image_url": "", "is_closed": false, "url": "https://www.yelp.com/biz/gordon-chen-kitchen-new-york?adjust_creative=9gNmiWYX8uTbFBeTTvJMdA&utm_campaign=yelp_api_v3&utm_medium=api_v3_business_search&utm_source=9gNmiWYX8uTbFBeTTvJMdA", "review_count": 4, "categories": [{"alias": "chinese", "title": "Chinese"}, {"alias": "asianfusion", "title": "Asian Fusion"}], "rating": 3.5, "coordinates": {"latitude": 40.75726, "longitude": -73.96808}, "transactions": [], "price": "$", "location": {"address1": "231 E 53rd St", "address2": "", "address3": "", "city": "New York", "zip_code": "10022", "country": "US", "state": "NY", "display_address": ["231 E 53rd St", "New York, NY 10022"]}, "phone": "+12123080069", "display_phone": "(212) 308-0069", "distance": 246.5808068342438}, {"id": "x3_DaW2lWCNovheuZV_nAw", "alias": "private-kitchen-flushing-3", "name": "Private Kitchen", "image_url": "https://s3-media3.fl.yelpcdn.com/bphoto/kbZ880AB5tlJIxkAFEhNDA/o.jpg", "is_closed": false, "url": "https://www.yelp.com/biz/private-kitchen-flushing-3?adjust_creative=9gNmiWYX8uTbFBeTTvJMdA&utm_campaign=yelp_api_v3&utm_medium=api_v3_business_search&utm_source=9gNmiWYX8uTbFBeTTvJMdA", "review_count": 87, "categories": [{"alias": "chinese", "title": "Chinese"}, {"alias": "seafood", "title": "Seafood"}, {"alias": "hotpot", "title": "Hot Pot"}], "rating": 4.0, "coordinates": {"latitude": 40.7623534688139, "longitude": -73.8313450503319}, "transactions": ["delivery", "pickup"], "price": "$$", "location": {"address1": "3635 Main St", "address2": "", "address3": "", "city": "Flushing", "zip_code": "11354", "country": "US", "state": "NY", "display_address": ["3635 Main St", "Flushing, NY 11354"]}, "phone": "+17183586667", "display_phone": "(718) 358-6667", "distance": 11647.507988582951}, {"id": "4WyXnioHqTIcaFFN_TS1Vw", "alias": "ling-long-xuan-restaurant-jersey-city-5", "name": "Ling Long Xuan Restaurant", "image_url": "https://s3-media3.fl.yelpcdn.com/bphoto/aImvCNpNI5tmep2stIC0sA/o.jpg", "is_closed": false, "url": "https://www.yelp.com/biz/ling-long-xuan-restaurant-jersey-city-5?adjust_creative=9gNmiWYX8uTbFBeTTvJMdA&utm_campaign=yelp_api_v3&utm_medium=api_v3_business_search&utm_source=9gNmiWYX8uTbFBeTTvJMdA", "review_count": 189, "categories": [{"alias": "chinese", "title": "Chinese"}], "rating": 4.0, "coordinates": {"latitude": 40.73230210790197, "longitude": -74.05697369123956}, "transactions": ["delivery", "pickup"], "price": "$$", "location": {"address1": "586 Newark Ave", "address2": null, "address3": "", "city": "Jersey City", "zip_code": "07306", "country": "US", "state": "NJ", "display_address": ["586 Newark Ave", "Jersey City, NJ 07306"]}, "phone": "+12017636635", "display_phone": "(201) 763-6635", "distance": 7946.025859196788}, {"id": "II7C8s_nkPXfttDq_vHmGA", "alias": "gyu-kaku-japanese-bbq-new-york-5", "name": "Gyu-Kaku Japanese BBQ", "image_url": "https://s3-media2.fl.yelpcdn.com/bphoto/vcIvrCYs2EkjjdHvvrkCoQ/o.jpg", "is_closed": false, "url": "https://www.yelp.com/biz/gyu-kaku-japanese-bbq-new-york-5?adjust_creative=9gNmiWYX8uTbFBeTTvJMdA&utm_campaign=yelp_api_v3&utm_medium=api_v3_business_search&utm_source=9gNmiWYX8uTbFBeTTvJMdA", "review_count": 63, "categories": [{"alias": "japanese", "title": "Japanese"}, {"alias": "asianfusion", "title": "Asian Fusion"}, {"alias": "bbq", "title": "Barbeque"}], "rating": 3.5, "coordinates": {"latitude": 40.79046, "longitude": -73.97322}, "transactions": ["delivery", "pickup"], "price": "$$$", "location": {"address1": "620 Amsterdam Ave", "address2": "", "address3": null, "city": "New York", "zip_code": "10024", "country": "US", "state": "NY", "display_address": ["620 Amsterdam Ave", "New York, NY 10024"]}, "phone": "+16468502989", "display_phone": "(646) 850-2989", "distance": 3499.4397687551877}, {"id": "LhBZsjkb6aKdLIq9w9_J2w", "alias": "hong-kong-astoria-2", "name": "Hong Kong", "image_url": "https://s3-media2.fl.yelpcdn.com/bphoto/4JM8_WheaBeDn5-31KAt8g/o.jpg", "is_closed": false, "url": "https://www.yelp.com/biz/hong-kong-astoria-2?adjust_creative=9gNmiWYX8uTbFBeTTvJMdA&utm_campaign=yelp_api_v3&utm_medium=api_v3_business_search&utm_source=9gNmiWYX8uTbFBeTTvJMdA", "review_count": 66, "categories": [{"alias": "chinese", "title": "Chinese"}], "rating": 3.0, "coordinates": {"latitude": 40.76302, "longitude": -73.92822}, "transactions": ["delivery", "pickup"], "price": "$", "location": {"address1": "25-10 Broadway", "address2": "", "address3": "", "city": "Astoria", "zip_code": "11106", "country": "US", "state": "NY", "display_address": ["25-10 Broadway", "Astoria, NY 11106"]}, "phone": "+17187268482", "display_phone": "(718) 726-8482", "distance": 3507.014489786498}, {"id": "iueVEi_vQxdAzdXs-8Fvrg", "alias": "atami-japanese-fusion-new-york", "name": "Atami Japanese Fusion", "image_url": "https://s3-media1.fl.yelpcdn.com/bphoto/FaH5URgLwt8jAWjk7eaJnA/o.jpg", "is_closed": false, "url": "https://www.yelp.com/biz/atami-japanese-fusion-new-york?adjust_creative=9gNmiWYX8uTbFBeTTvJMdA&utm_campaign=yelp_api_v3&utm_medium=api_v3_business_search&utm_source=9gNmiWYX8uTbFBeTTvJMdA", "review_count": 172, "categories": [{"alias": "japanese", "title": "Japanese"}, {"alias": "sushi", "title": "Sushi Bars"}, {"alias": "asianfusion", "title": "Asian Fusion"}], "rating": 4.0, "coordinates": {"latitude": 40.76226, "longitude": -73.9635}, "transactions": ["delivery", "pickup"], "price": "$$", "location": {"address1": "1167 2nd Ave", "address2": "", "address3": "", "city": "New York", "zip_code": "10065", "country": "US", "state": "NY", "display_address": ["1167 2nd Ave", "New York, NY 10065"]}, "phone": "+12126886868", "display_phone": "(212) 688-6868", "distance": 615.4417945173227}, {"id": "sllXrDi-eKiwZJTWtNKaTg", "alias": "nangma-restaurant-elmhurst", "name": "Nangma Restaurant", "image_url": "https://s3-media2.fl.yelpcdn.com/bphoto/eh2Vw2lz_Ey7F0ovsEksjg/o.jpg", "is_closed": false, "url": "https://www.yelp.com/biz/nangma-restaurant-elmhurst?adjust_creative=9gNmiWYX8uTbFBeTTvJMdA&utm_campaign=yelp_api_v3&utm_medium=api_v3_business_search&utm_source=9gNmiWYX8uTbFBeTTvJMdA", "review_count": 37, "categories": [{"alias": "asianfusion", "title": "Asian Fusion"}, {"alias": "himalayan", "title": "Himalayan/Nepalese"}, {"alias": "szechuan", "title": "Szechuan"}], "rating": 4.5, "coordinates": {"latitude": 40.74093, "longitude": -73.87931}, "transactions": ["delivery", "pickup"], "price": "$$", "location": {"address1": "83-17 Broadway", "address2": null, "address3": "", "city": "Elmhurst", "zip_code": "11373", "country": "US", "state": "NY", "display_address": ["83-17 Broadway", "Elmhurst, NY 11373"]}, "phone": "+13477306117", "display_phone": "(347) 730-6117", "distance": 7868.284411352487}, {"id": "qkLneEcNorM7zbD8nXb2gQ", "alias": "meet-fresh-queens", "name": "Meet Fresh", "image_url": "https://s3-media2.fl.yelpcdn.com/bphoto/Bi0pcrykoNtGnl4bL5lmqg/o.jpg", "is_closed": false, "url": "https://www.yelp.com/biz/meet-fresh-queens?adjust_creative=9gNmiWYX8uTbFBeTTvJMdA&utm_campaign=yelp_api_v3&utm_medium=api_v3_business_search&utm_source=9gNmiWYX8uTbFBeTTvJMdA", "review_count": 26, "categories": [{"alias": "desserts", "title": "Desserts"}, {"alias": "bubbletea", "title": "Bubble Tea"}, {"alias": "taiwanese", "title": "Taiwanese"}], "rating": 4.0, "coordinates": {"latitude": 40.74789298560641, "longitude": -73.94514075505349}, "transactions": ["delivery", "pickup"], "location": {"address1": "44-46 23rd St", "address2": "", "address3": null, "city": "Queens", "zip_code": "11101", "country": "US", "state": "NY", "display_address": ["44-46 23rd St", "Queens, NY 11101"]}, "phone": "+19148298850", "display_phone": "(914) 829-8850", "distance": 2410.265551796108}, {"id": "eKAf_9Zq_AgvcD4JpsBe1w", "alias": "gaga-chinese-kitchen-new-york", "name": "GaGa Chinese Kitchen", "image_url": "https://s3-media4.fl.yelpcdn.com/bphoto/FJOC-lUHDaXctrcQf8-Asw/o.jpg", "is_closed": false, "url": "https://www.yelp.com/biz/gaga-chinese-kitchen-new-york?adjust_creative=9gNmiWYX8uTbFBeTTvJMdA&utm_campaign=yelp_api_v3&utm_medium=api_v3_business_search&utm_source=9gNmiWYX8uTbFBeTTvJMdA", "review_count": 37, "categories": [{"alias": "chinese", "title": "Chinese"}, {"alias": "comfortfood", "title": "Comfort Food"}, {"alias": "panasian", "title": "Pan Asian"}], "rating": 4.0, "coordinates": {"latitude": 40.71003, "longitude": -74.01028}, "transactions": ["delivery", "pickup"], "location": {"address1": "4 Cortlandt St", "address2": null, "address3": "", "city": "New York", "zip_code": "10007", "country": "US", "state": "NY", "display_address": ["4 Cortlandt St", "New York, NY 10007"]}, "phone": "+13474984432", "display_phone": "(347) 498-4432", "distance": 6452.182006522269}, {"id": "DKGUSLiqNchBNatKoPM9QQ", "alias": "junzi-kitchen-new-york", "name": "Junzi Kitchen", "image_url": "https://s3-media2.fl.yelpcdn.com/bphoto/CHaqUYM6i8waY7480yHmVw/o.jpg", "is_closed": false, "url": "https://www.yelp.com/biz/junzi-kitchen-new-york?adjust_creative=9gNmiWYX8uTbFBeTTvJMdA&utm_campaign=yelp_api_v3&utm_medium=api_v3_business_search&utm_source=9gNmiWYX8uTbFBeTTvJMdA", "review_count": 207, "categories": [{"alias": "chinese", "title": "Chinese"}, {"alias": "noodles", "title": "Noodles"}, {"alias": "salad", "title": "Salad"}], "rating": 4.0, "coordinates": {"latitude": 40.8057641877461, "longitude": -73.9652019005902}, "transactions": ["delivery", "pickup"], "price": "$$", "location": {"address1": "2896 Broadway", "address2": null, "address3": "", "city": "New York", "zip_code": "10025", "country": "US", "state": "NY", "display_address": ["2896 Broadway", "New York, NY 10025"]}, "phone": "+19172612497", "display_phone": "(917) 261-2497", "distance": 5193.57023304011}, {"id": "8DV1myPrW7SePZOK46IjLQ", "alias": "lady-chow-kitchen-new-york-2", "name": "Lady Chow Kitchen", "image_url": "https://s3-media1.fl.yelpcdn.com/bphoto/Y2IoRE5l82hGjfqRdMAr0w/o.jpg", "is_closed": false, "url": "https://www.yelp.com/biz/lady-chow-kitchen-new-york-2?adjust_creative=9gNmiWYX8uTbFBeTTvJMdA&utm_campaign=yelp_api_v3&utm_medium=api_v3_business_search&utm_source=9gNmiWYX8uTbFBeTTvJMdA", "review_count": 45, "categories": [{"alias": "chinese", "title": "Chinese"}, {"alias": "seafood", "title": "Seafood"}, {"alias": "sandwiches", "title": "Sandwiches"}], "rating": 4.0, "coordinates": {"latitude": 40.71785, "longitude": -73.9968}, "transactions": ["delivery", "pickup"], "location": {"address1": "171 Hester St", "address2": null, "address3": "", "city": "New York", "zip_code": "10013", "country": "US", "state": "NY", "display_address": ["171 Hester St", "New York, NY 10013"]}, "phone": "+12123439496", "display_phone": "(212) 343-9496", "distance": 5130.18547212353}, {"id": "hzh4b_Ly9AvIxWMGRjr_fw", "alias": "p-f-changs-new-york-4", "name": "P F Chang's", "image_url": "https://s3-media3.fl.yelpcdn.com/bphoto/4wNxaoQANa_Zk1Vus__VNg/o.jpg", "is_closed": false, "url": "https://www.yelp.com/biz/p-f-changs-new-york-4?adjust_creative=9gNmiWYX8uTbFBeTTvJMdA&utm_campaign=yelp_api_v3&utm_medium=api_v3_business_search&utm_source=9gNmiWYX8uTbFBeTTvJMdA", "review_count": 32, "categories": [{"alias": "chinese", "title": "Chinese"}, {"alias": "asianfusion", "title": "Asian Fusion"}], "rating": 4.5, "coordinates": {"latitude": 40.73422449698378, "longitude": -73.99228516504304}, "transactions": ["delivery", "pickup"], "location": {"address1": "113 University Pl", "address2": null, "address3": null, "city": "New York", "zip_code": "10003", "country": "US", "state": "NY", "display_address": ["113 University Pl", "New York, NY 10003"]}, "phone": "+13323349290", "display_phone": "(332) 334-9290", "distance": 3370.06723324174}, {"id": "PBUIaPtgnhmdHE3KHglK-g", "alias": "jean-georges-new-york-2", "name": "Jean-Georges", "image_url": "https://s3-media1.fl.yelpcdn.com/bphoto/ls3SFvJRa3eyyEBvpz1n7g/o.jpg", "is_closed": false, "url": "https://www.yelp.com/biz/jean-georges-new-york-2?adjust_creative=9gNmiWYX8uTbFBeTTvJMdA&utm_campaign=yelp_api_v3&utm_medium=api_v3_business_search&utm_source=9gNmiWYX8uTbFBeTTvJMdA", "review_count": 1997, "categories": [{"alias": "french", "title": "French"}, {"alias": "newamerican", "title": "American (New)"}, {"alias": "asianfusion", "title": "Asian Fusion"}], "rating": 4.0, "coordinates": {"latitude": 40.7691122743293, "longitude": -73.9814290717583}, "transactions": ["delivery", "pickup"], "price": "$$$$", "location": {"address1": "1 Central Park W", "address2": "", "address3": "", "city": "New York", "zip_code": "10023", "country": "US", "state": "NY", "display_address": ["1 Central Park W", "New York, NY 10023"]}, "phone": "+12122993900", "display_phone": "(212) 299-3900", "distance": 1489.260948280674}, {"id": "U0EJ4URMoFHJEzAkMp4WWQ", "alias": "ollies-to-go-new-york", "name": "Ollie's To Go", "image_url": "https://s3-media2.fl.yelpcdn.com/bphoto/Dde_bptCOnVysM_qmjXBng/o.jpg", "is_closed": false, "url": "https://www.yelp.com/biz/ollies-to-go-new-york?adjust_creative=9gNmiWYX8uTbFBeTTvJMdA&utm_campaign=yelp_api_v3&utm_medium=api_v3_business_search&utm_source=9gNmiWYX8uTbFBeTTvJMdA", "review_count": 178, "categories": [{"alias": "chinese", "title": "Chinese"}, {"alias": "sushi", "title": "Sushi Bars"}, {"alias": "bubbletea", "title": "Bubble Tea"}], "rating": 2.5, "coordinates": {"latitude": 40.7904902, "longitude": -73.9752417}, "transactions": ["delivery", "pickup"], "price": "$$", "location": {"address1": "2425 Broadway", "address2": "", "address3": "", "city": "New York", "zip_code": "10024", "country": "US", "state": "NY", "display_address": ["2425 Broadway", "New York, NY 10024"]}, "phone": "+12128772298", "display_phone": "(212) 877-2298", "distance": 3514.674042987422}, {"id": "sgKNAn72O2XMQXS6AWmf9w", "alias": "food-king-kitchen-jersey-city-2", "name": "Food King Kitchen", "image_url": "https://s3-media4.fl.yelpcdn.com/bphoto/G9m3gP_ov3dFrwVZBVD6CA/o.jpg", "is_closed": false, "url": "https://www.yelp.com/biz/food-king-kitchen-jersey-city-2?adjust_creative=9gNmiWYX8uTbFBeTTvJMdA&utm_campaign=yelp_api_v3&utm_medium=api_v3_business_search&utm_source=9gNmiWYX8uTbFBeTTvJMdA", "review_count": 105, "categories": [{"alias": "chinese", "title": "Chinese"}], "rating": 4.0, "coordinates": {"latitude": 40.72117, "longitude": -74.04568}, "transactions": ["delivery"], "price": "$", "location": {"address1": "185 Newark Ave", "address2": "", "address3": "", "city": "Jersey City", "zip_code": "07302", "country": "US", "state": "NJ", "display_address": ["185 Newark Ave", "Jersey City, NJ 07302"]}, "phone": "+12013325422", "display_phone": "(201) 332-5422", "distance": 7675.513019638599}, {"id": "YIwYw_A_LRwK66HBTzogYQ", "alias": "xings-chef-astoria", "name": "Xing's Chef", "image_url": "https://s3-media1.fl.yelpcdn.com/bphoto/o2syHlAH-VgT3-8TGWoUKg/o.jpg", "is_closed": false, "url": "https://www.yelp.com/biz/xings-chef-astoria?adjust_creative=9gNmiWYX8uTbFBeTTvJMdA&utm_campaign=yelp_api_v3&utm_medium=api_v3_business_search&utm_source=9gNmiWYX8uTbFBeTTvJMdA", "review_count": 97, "categories": [{"alias": "chinese", "title": "Chinese"}], "rating": 4.0, "coordinates": {"latitude": 40.7701092079077, "longitude": -73.9021204913637}, "transactions": ["delivery"], "price": "$", "location": {"address1": "46-20 Ditmars Blvd", "address2": "", "address3": "", "city": "Astoria", "zip_code": "11105", "country": "US", "state": "NY", "display_address": ["46-20 Ditmars Blvd", "Astoria, NY 11105"]}, "phone": "+17187262288", "display_phone": "(718) 726-2288", "distance": 5809.504134732317}, {"id": "CesS-E8Q3ztX6VnkXO6wBg", "alias": "chinese-tuxedo-new-york-2", "name": "Chinese Tuxedo", "image_url": "https://s3-media2.fl.yelpcdn.com/bphoto/Oux5pAGd5KNjra06B-Zisg/o.jpg", "is_closed": false, "url": "https://www.yelp.com/biz/chinese-tuxedo-new-york-2?adjust_creative=9gNmiWYX8uTbFBeTTvJMdA&utm_campaign=yelp_api_v3&utm_medium=api_v3_business_search&utm_source=9gNmiWYX8uTbFBeTTvJMdA", "review_count": 422, "categories": [{"alias": "chinese", "title": "Chinese"}, {"alias": "seafood", "title": "Seafood"}, {"alias": "noodles", "title": "Noodles"}], "rating": 4.0, "coordinates": {"latitude": 40.7143299, "longitude": -73.99804}, "transactions": ["delivery"], "price": "$$$", "location": {"address1": "5 Doyers St", "address2": "", "address3": null, "city": "New York", "zip_code": "10013", "country": "US", "state": "NY", "display_address": ["5 Doyers St", "New York, NY 10013"]}, "phone": "+16463558693", "display_phone": "(646) 355-8693", "distance": 5545.622600237199}, {"id": "uyy76kFPWsN7_R0SeyOoKA", "alias": "secret-kitchen-queens", "name": "Secret Kitchen", "image_url": "https://s3-media1.fl.yelpcdn.com/bphoto/4iIAVYxG_Lqf_X7jXctBNw/o.jpg", "is_closed": false, "url": "https://www.yelp.com/biz/secret-kitchen-queens?adjust_creative=9gNmiWYX8uTbFBeTTvJMdA&utm_campaign=yelp_api_v3&utm_medium=api_v3_business_search&utm_source=9gNmiWYX8uTbFBeTTvJMdA", "review_count": 28, "categories": [{"alias": "cantonese", "title": "Cantonese"}], "rating": 4.0, "coordinates": {"latitude": 40.739875, "longitude": -73.788647}, "transactions": ["delivery", "pickup"], "price": "$$", "location": {"address1": "185-20 Horace Harding Expy", "address2": "", "address3": null, "city": "Queens", "zip_code": "11365", "country": "US", "state": "NY", "display_address": ["185-20 Horace Harding Expy", "Queens, NY 11365"]}, "phone": "+17183211221", "display_phone": "(718) 321-1221", "distance": 15393.121544194162}, {"id": "K0qsGnFv-edPDqVBdLCocQ", "alias": "china-garden-sunnyside", "name": "China Garden", "image_url": "https://s3-media1.fl.yelpcdn.com/bphoto/Jmu-IyodrDIYHJ24dULjZQ/o.jpg", "is_closed": false, "url": "https://www.yelp.com/biz/china-garden-sunnyside?adjust_creative=9gNmiWYX8uTbFBeTTvJMdA&utm_campaign=yelp_api_v3&utm_medium=api_v3_business_search&utm_source=9gNmiWYX8uTbFBeTTvJMdA", "review_count": 79, "categories": [{"alias": "chinese", "title": "Chinese"}], "rating": 4.0, "coordinates": {"latitude": 40.74166, "longitude": -73.92577}, "transactions": [], "price": "$", "location": {"address1": "39-20 47th Ave", "address2": "", "address3": "", "city": "Sunnyside", "zip_code": "11104", "country": "US", "state": "NY", "display_address": ["39-20 47th Ave", "Sunnyside, NY 11104"]}, "phone": "+17183612129", "display_phone": "(718) 361-2129", "distance": 4171.4805216755285}, {"id": "3DmJv5rHFNyQykaUiXBOvA", "alias": "hop-lee-kitchen-brooklyn", "name": "Hop Lee Kitchen", "image_url": "https://s3-media4.fl.yelpcdn.com/bphoto/-QJA6Etg4o_wyjRXPAog7A/o.jpg", "is_closed": false, "url": "https://www.yelp.com/biz/hop-lee-kitchen-brooklyn?adjust_creative=9gNmiWYX8uTbFBeTTvJMdA&utm_campaign=yelp_api_v3&utm_medium=api_v3_business_search&utm_source=9gNmiWYX8uTbFBeTTvJMdA", "review_count": 47, "categories": [{"alias": "chinese", "title": "Chinese"}], "rating": 3.5, "coordinates": {"latitude": 40.7329099, "longitude": -73.95455}, "transactions": ["delivery", "pickup"], "price": "$", "location": {"address1": "992 Manhattan Ave", "address2": "", "address3": "", "city": "Brooklyn", "zip_code": "11222", "country": "US", "state": "NY", "display_address": ["992 Manhattan Ave", "Brooklyn, NY 11222"]}, "phone": "+17189711897", "display_phone": "(718) 971-1897", "distance": 3182.4916024592435}], "total": 3300, "region": {"center": {"longitude": -73.96957397460938, "latitude": 40.75917470627005}}}