{"businesses": [{"id": "UiBQ8Uyu4wfOtEM1Rr8ycA", "alias": "shanghai-asian-cuisine-new-york-2", "name": "Shanghai Asian Cuisine", "image_url": "https://s3-media1.fl.yelpcdn.com/bphoto/1YwcGJelo3JFN1-CDgMHuw/o.jpg", "is_closed": false, "url": "https://www.yelp.com/biz/shanghai-asian-cuisine-new-york-2?adjust_creative=9gNmiWYX8uTbFBeTTvJMdA&utm_campaign=yelp_api_v3&utm_medium=api_v3_business_search&utm_source=9gNmiWYX8uTbFBeTTvJMdA", "review_count": 586, "categories": [{"alias": "shanghainese", "title": "Shanghainese"}], "rating": 4.0, "coordinates": {"latitude": 40.7159077, "longitude": -73.997383}, "transactions": ["pickup", "delivery"], "price": "$$", "location": {"address1": "14A Elizabeth St", "address2": "", "address3": "", "city": "New York", "zip_code": "10013", "country": "US", "state": "NY", "display_address": ["14A Elizabeth St", "New York, NY 10013"]}, "phone": "+12129645640", "display_phone": "(212) 964-5640", "distance": 5351.260300986855}, {"id": "bT4CDzyhV-frXV6ijvXnvw", "alias": "super-taste-new-york", "name": "Super Taste", "image_url": "https://s3-media1.fl.yelpcdn.com/bphoto/cTNGZDQIP-z9d_HNWnGR3g/o.jpg", "is_closed": false, "url": "https://www.yelp.com/biz/super-taste-new-york?adjust_creative=9gNmiWYX8uTbFBeTTvJMdA&utm_campaign=yelp_api_v3&utm_medium=api_v3_business_search&utm_source=9gNmiWYX8uTbFBeTTvJMdA", "review_count": 713, "categories": [{"alias": "chinese", "title": "Chinese"}, {"alias": "noodles", "title": "Noodles"}], "rating": 4.0, "coordinates": {"latitude": 40.715117, "longitude": -73.9933339}, "transactions": ["pickup", "delivery"], "price": "$", "location": {"address1": "26 Eldridge St", "address2": null, "address3": "", "city": "New York", "zip_code": "10002", "country": "US", "state": "NY", "display_address": ["26 Eldridge St", "New York, NY 10002"]}, "phone": "+16462830999", "display_phone": "(646) 283-0999", "distance": 5292.213177717954}, {"id": "LztkKM-lvRraBbS9TVXzcg", "alias": "yiwanmen-new-york-2", "name": "Yiwanmen", "image_url": "https://s3-media1.fl.yelpcdn.com/bphoto/9ZVpzGjf4xHCiWpG0uzQcA/o.jpg", "is_closed": false, "url": "https://www.yelp.com/biz/yiwanmen-new-york-2?adjust_creative=9gNmiWYX8uTbFBeTTvJMdA&utm_campaign=yelp_api_v3&utm_medium=api_v3_business_search&utm_source=9gNmiWYX8uTbFBeTTvJMdA", "review_count": 194, "categories": [{"alias": "noodles", "title": "Noodles"}, {"alias": "chinese", "title": "Chinese"}], "rating": 4.0, "coordinates": {"latitude": 40.7193132739237, "longitude": -73.99627615337461}, "transactions": ["pickup", "delivery"], "price": "$", "location": {"address1": "150 Mott St", "address2": "", "address3": null, "city": "New York", "zip_code": "10013", "country": "US", "state": "NY", "display_address": ["150 Mott St", "New York, NY 10013"]}, "phone": "+16468337768", "display_phone": "(646) 833-7768", "distance": 4970.623885807516}, {"id": "0FOE_TW-91b9wN661lZMyQ", "alias": "mokbar-new-york", "name": "mokbar", "image_url": "https://s3-media1.fl.yelpcdn.com/bphoto/9JSSHUI-rzJorkZLNJgJ8w/o.jpg", "is_closed": false, "url": "https://www.yelp.com/biz/mokbar-new-york?adjust_creative=9gNmiWYX8uTbFBeTTvJMdA&utm_campaign=yelp_api_v3&utm_medium=api_v3_business_search&utm_source=9gNmiWYX8uTbFBeTTvJMdA", "review_count": 629, "categories": [{"alias": "korean", "title": "Korean"}, {"alias": "asianfusion", "title": "Asian Fusion"}, {"alias": "ramen", "title": "Ramen"}], "rating": 3.5, "coordinates": {"latitude": 40.74222, "longitude": -74.005913}, "transactions": ["pickup", "delivery"], "price": "$$", "location": {"address1": "75 9th Ave", "address2": null, "address3": "", "city": "New York", "zip_code": "10011", "country": "US", "state": "NY", "display_address": ["75 9th Ave", "New York, NY 10011"]}, "phone": "+16467751169", "display_phone": "(646) 775-1169", "distance": 3595.0528683194434}, {"id": "0iqdoMOtNv6pq0lo5J4TBA", "alias": "te-min-quan-palisades-park", "name": "Te Min Quan", "image_url": "https://s3-media2.fl.yelpcdn.com/bphoto/iIHHl7q8PAj8FX15OjBvDg/o.jpg", "is_closed": false, "url": "https://www.yelp.com/biz/te-min-quan-palisades-park?adjust_creative=9gNmiWYX8uTbFBeTTvJMdA&utm_campaign=yelp_api_v3&utm_medium=api_v3_business_search&utm_source=9gNmiWYX8uTbFBeTTvJMdA", "review_count": 152, "categories": [{"alias": "korean", "title": "Korean"}, {"alias": "chinese", "title": "Chinese"}], "rating": 4.0, "coordinates": {"latitude": 40.847666, "longitude": -73.9978125}, "transactions": ["pickup", "delivery"], "price": "$$", "location": {"address1": "270 Broad Ave", "address2": "", "address3": "", "city": "Palisades Park", "zip_code": "07650", "country": "US", "state": "NJ", "display_address": ["270 Broad Ave", "Palisades Park, NJ 07650"]}, "phone": "+12015928993", "display_phone": "(201) 592-8993", "distance": 10136.31108021913}, {"id": "QBhHq4eN7rtFzmDUciVL-Q", "alias": "king-wok-new-york", "name": "King Wok", "image_url": "https://s3-media1.fl.yelpcdn.com/bphoto/FtwrGwYC_X6c6XBZzjO3bw/o.jpg", "is_closed": false, "url": "https://www.yelp.com/biz/king-wok-new-york?adjust_creative=9gNmiWYX8uTbFBeTTvJMdA&utm_campaign=yelp_api_v3&utm_medium=api_v3_business_search&utm_source=9gNmiWYX8uTbFBeTTvJMdA", "review_count": 161, "categories": [{"alias": "chinese", "title": "Chinese"}], "rating": 3.5, "coordinates": {"latitude": 40.72904, "longitude": -74.0050399}, "transactions": [], "price": "$", "location": {"address1": "222 Varick St", "address2": "", "address3": "", "city": "New York", "zip_code": "10014", "country": "US", "state": "NY", "display_address": ["222 Varick St", "New York, NY 10014"]}, "phone": "+12126758989", "display_phone": "(212) 675-8989", "distance": 4489.586900610529}, {"id": "jfnDwWBGK4JoWE5jbeKxSw", "alias": "chu-ros-thai-new-york", "name": "Chu Ros Thai", "image_url": "https://s3-media2.fl.yelpcdn.com/bphoto/c3bJyt5_ckI5xi-_o7jmsA/o.jpg", "is_closed": false, "url": "https://www.yelp.com/biz/chu-ros-thai-new-york?adjust_creative=9gNmiWYX8uTbFBeTTvJMdA&utm_campaign=yelp_api_v3&utm_medium=api_v3_business_search&utm_source=9gNmiWYX8uTbFBeTTvJMdA", "review_count": 172, "categories": [{"alias": "thai", "title": "Thai"}, {"alias": "asianfusion", "title": "Asian Fusion"}, {"alias": "vegan", "title": "Vegan"}], "rating": 4.5, "coordinates": {"latitude": 40.78922, "longitude": -73.94873}, "transactions": ["pickup", "delivery"], "price": "$$", "location": {"address1": "1590 Lexington Ave", "address2": null, "address3": "", "city": "New York", "zip_code": "10029", "country": "US", "state": "NY", "display_address": ["1590 Lexington Ave", "New York, NY 10029"]}, "phone": "+19172658432", "display_phone": "(917) 265-8432", "distance": 3780.738761004278}, {"id": "YCen62jqSWhPOAorQjSZdQ", "alias": "moonhouse-new-york", "name": "MoonHouse", "image_url": "https://s3-media3.fl.yelpcdn.com/bphoto/VS7zCtFKzYlUfoyLrB2vrg/o.jpg", "is_closed": false, "url": "https://www.yelp.com/biz/moonhouse-new-york?adjust_creative=9gNmiWYX8uTbFBeTTvJMdA&utm_campaign=yelp_api_v3&utm_medium=api_v3_business_search&utm_source=9gNmiWYX8uTbFBeTTvJMdA", "review_count": 117, "categories": [{"alias": "chinese", "title": "Chinese"}], "rating": 3.5, "coordinates": {"latitude": 40.788337, "longitude": -73.947502}, "transactions": ["pickup", "delivery"], "price": "$", "location": {"address1": "1810 3rd Ave", "address2": "", "address3": "", "city": "New York", "zip_code": "10029", "country": "US", "state": "NY", "display_address": ["1810 3rd Ave", "New York, NY 10029"]}, "phone": "+12124276540", "display_phone": "(212) 427-6540", "distance": 3729.1016967493388}, {"id": "GdOl_9iH8gLKeo9yABfyoQ", "alias": "chef-tan-east-village-new-york-2", "name": "Chef Tan East Village", "image_url": "https://s3-media2.fl.yelpcdn.com/bphoto/EuSGc9nJ06lpqR0YDGkuRw/o.jpg", "is_closed": false, "url": "https://www.yelp.com/biz/chef-tan-east-village-new-york-2?adjust_creative=9gNmiWYX8uTbFBeTTvJMdA&utm_campaign=yelp_api_v3&utm_medium=api_v3_business_search&utm_source=9gNmiWYX8uTbFBeTTvJMdA", "review_count": 34, "categories": [{"alias": "szechuan", "title": "Szechuan"}], "rating": 4.0, "coordinates": {"latitude": 40.72887, "longitude": -73.98807}, "transactions": ["pickup", "delivery"], "location": {"address1": "37 St Marks Pl", "address2": null, "address3": "", "city": "New York", "zip_code": "10003", "country": "US", "state": "NY", "display_address": ["37 St Marks Pl", "New York, NY 10003"]}, "phone": "+12122535476", "display_phone": "(212) 253-5476", "distance": 3710.5737487203555}, {"id": "bK-Y2zCIMolqRDHsaYUCWA", "alias": "royal-seafood-restaurant-new-york", "name": "Royal Seafood Restaurant", "image_url": "https://s3-media2.fl.yelpcdn.com/bphoto/3uzsnl-AwAygawYGRQZmRQ/o.jpg", "is_closed": false, "url": "https://www.yelp.com/biz/royal-seafood-restaurant-new-york?adjust_creative=9gNmiWYX8uTbFBeTTvJMdA&utm_campaign=yelp_api_v3&utm_medium=api_v3_business_search&utm_source=9gNmiWYX8uTbFBeTTvJMdA", "review_count": 350, "categories": [{"alias": "dimsum", "title": "Dim Sum"}, {"alias": "seafood", "title": "Seafood"}, {"alias": "cantonese", "title": "Cantonese"}], "rating": 3.0, "coordinates": {"latitude": 40.7174, "longitude": -73.9977}, "transactions": ["pickup", "delivery"], "price": "$$", "location": {"address1": "103 Mott St", "address2": "", "address3": "", "city": "New York", "zip_code": "10013", "country": "US", "state": "NY", "display_address": ["103 Mott St", "New York, NY 10013"]}, "phone": "+12122192338", "display_phone": "(212) 219-2338", "distance": 5226.205724654103}, {"id": "7rTl_d-dqlK5dGG31ogSBg", "alias": "nanking-south-ozone-park-6", "name": "Nanking", "image_url": "https://s3-media4.fl.yelpcdn.com/bphoto/BhLAirDSu2OrSsEncohuIg/o.jpg", "is_closed": false, "url": "https://www.yelp.com/biz/nanking-south-ozone-park-6?adjust_creative=9gNmiWYX8uTbFBeTTvJMdA&utm_campaign=yelp_api_v3&utm_medium=api_v3_business_search&utm_source=9gNmiWYX8uTbFBeTTvJMdA", "review_count": 382, "categories": [{"alias": "indpak", "title": "Indian"}, {"alias": "thai", "title": "Thai"}, {"alias": "chinese", "title": "Chinese"}], "rating": 4.0, "coordinates": {"latitude": 40.67484, "longitude": -73.80398}, "transactions": ["pickup", "delivery"], "price": "$$", "location": {"address1": "134-07 Rockaway Blvd", "address2": "", "address3": "", "city": "South Ozone Park", "zip_code": "11420", "country": "US", "state": "NY", "display_address": ["134-07 Rockaway Blvd", "South Ozone Park, NY 11420"]}, "phone": "+17183233555", "display_phone": "(718) 323-3555", "distance": 16822.35541402847}, {"id": "Uc8LtqNWavguEarRXfwhRg", "alias": "south-lions-hoboken-2", "name": "South Lions", "image_url": "https://s3-media3.fl.yelpcdn.com/bphoto/l8amGuyNopMSOK-VNTs2iQ/o.jpg", "is_closed": false, "url": "https://www.yelp.com/biz/south-lions-hoboken-2?adjust_creative=9gNmiWYX8uTbFBeTTvJMdA&utm_campaign=yelp_api_v3&utm_medium=api_v3_business_search&utm_source=9gNmiWYX8uTbFBeTTvJMdA", "review_count": 83, "categories": [{"alias": "dimsum", "title": "Dim Sum"}, {"alias": "cantonese", "title": "Cantonese"}], "rating": 4.0, "coordinates": {"latitude": 40.74266435596764, "longitude": -74.02951334992215}, "transactions": ["pickup", "delivery"], "price": "$$", "location": {"address1": "512 Washington St", "address2": null, "address3": "", "city": "Hoboken", "zip_code": "07030", "country": "US", "state": "NJ", "display_address": ["512 Washington St", "Hoboken, NJ 07030"]}, "phone": "+12017986078", "display_phone": "(201) 798-6078", "distance": 5372.4680639203425}, {"id": "3fBiB3slTfBpmf39vD7sJw", "alias": "jade-garden-new-york-2", "name": "Jade Garden", "image_url": "https://s3-media1.fl.yelpcdn.com/bphoto/IK26r2NsbwvPBaBCMs8oRg/o.jpg", "is_closed": false, "url": "https://www.yelp.com/biz/jade-garden-new-york-2?adjust_creative=9gNmiWYX8uTbFBeTTvJMdA&utm_campaign=yelp_api_v3&utm_medium=api_v3_business_search&utm_source=9gNmiWYX8uTbFBeTTvJMdA", "review_count": 108, "categories": [{"alias": "chinese", "title": "Chinese"}, {"alias": "seafood", "title": "Seafood"}], "rating": 3.5, "coordinates": {"latitude": 40.841846, "longitude": -73.938944}, "transactions": ["pickup", "delivery"], "price": "$", "location": {"address1": "4028 Broadway", "address2": "", "address3": "", "city": "New York", "zip_code": "10032", "country": "US", "state": "NY", "display_address": ["4028 Broadway", "New York, NY 10032"]}, "phone": "+12127950556", "display_phone": "(212) 795-0556", "distance": 9547.327954641143}, {"id": "R0y03SFOY0BdHRUT1LSO0Q", "alias": "shanghai-you-garden-flushing-3", "name": "Shanghai You Garden", "image_url": "https://s3-media2.fl.yelpcdn.com/bphoto/6uVJHwd_8sCihjs5SfeiRg/o.jpg", "is_closed": false, "url": "https://www.yelp.com/biz/shanghai-you-garden-flushing-3?adjust_creative=9gNmiWYX8uTbFBeTTvJMdA&utm_campaign=yelp_api_v3&utm_medium=api_v3_business_search&utm_source=9gNmiWYX8uTbFBeTTvJMdA", "review_count": 1417, "categories": [{"alias": "shanghainese", "title": "Shanghainese"}, {"alias": "dimsum", "title": "Dim Sum"}, {"alias": "noodles", "title": "Noodles"}], "rating": 4.0, "coordinates": {"latitude": 40.75895, "longitude": -73.83056}, "transactions": ["pickup", "delivery"], "price": "$$", "location": {"address1": "135-33 40th Rd", "address2": "", "address3": "", "city": "Flushing", "zip_code": "11354", "country": "US", "state": "NY", "display_address": ["135-33 40th Rd", "Flushing, NY 11354"]}, "phone": "+17188862286", "display_phone": "(718) 886-2286", "distance": 11709.790467592285}, {"id": "vA2VEhW6S1ioX6tXtQdO9A", "alias": "lemon-grass-brooklyn-brooklyn", "name": "Lemon Grass Brooklyn", "image_url": "https://s3-media3.fl.yelpcdn.com/bphoto/zkVl9I85cHLKmrVgC392Og/o.jpg", "is_closed": false, "url": "https://www.yelp.com/biz/lemon-grass-brooklyn-brooklyn?adjust_creative=9gNmiWYX8uTbFBeTTvJMdA&utm_campaign=yelp_api_v3&utm_medium=api_v3_business_search&utm_source=9gNmiWYX8uTbFBeTTvJMdA", "review_count": 803, "categories": [{"alias": "thai", "title": "Thai"}, {"alias": "asianfusion", "title": "Asian Fusion"}, {"alias": "noodles", "title": "Noodles"}], "rating": 4.0, "coordinates": {"latitude": 40.688684, "longitude": -73.993137}, "transactions": ["pickup", "delivery", "restaurant_reservation"], "price": "$$", "location": {"address1": "156 Court St", "address2": "", "address3": "", "city": "Brooklyn", "zip_code": "11201", "country": "US", "state": "NY", "display_address": ["156 Court St", "Brooklyn, NY 11201"]}, "phone": "+17185229728", "display_phone": "(718) 522-9728", "distance": 8086.670277979425}, {"id": "j0tkph2po_37gtZ1ufxiow", "alias": "golden-house-astoria-5", "name": "Golden House", "image_url": "https://s3-media3.fl.yelpcdn.com/bphoto/1aUXJW9ZC1v16S7_PCzImg/o.jpg", "is_closed": false, "url": "https://www.yelp.com/biz/golden-house-astoria-5?adjust_creative=9gNmiWYX8uTbFBeTTvJMdA&utm_campaign=yelp_api_v3&utm_medium=api_v3_business_search&utm_source=9gNmiWYX8uTbFBeTTvJMdA", "review_count": 106, "categories": [{"alias": "chinese", "title": "Chinese"}], "rating": 3.0, "coordinates": {"latitude": 40.765042978720075, "longitude": -73.91790164110698}, "transactions": ["pickup", "delivery"], "price": "$", "location": {"address1": "3512 30th Ave", "address2": "", "address3": "", "city": "Astoria", "zip_code": "11103", "country": "US", "state": "NY", "display_address": ["3512 30th Ave", "Astoria, NY 11103"]}, "phone": "+17185450101", "display_phone": "(718) 545-0101", "distance": 4400.591457038293}, {"id": "BcOuqkUniZJG5NLpdzeOYQ", "alias": "friendly-restaurant-long-island-city-2", "name": "Friendly Restaurant", "image_url": "https://s3-media1.fl.yelpcdn.com/bphoto/O-CABOByVWzU5otqI8pIpQ/o.jpg", "is_closed": false, "url": "https://www.yelp.com/biz/friendly-restaurant-long-island-city-2?adjust_creative=9gNmiWYX8uTbFBeTTvJMdA&utm_campaign=yelp_api_v3&utm_medium=api_v3_business_search&utm_source=9gNmiWYX8uTbFBeTTvJMdA", "review_count": 68, "categories": [{"alias": "chinese", "title": "Chinese"}], "rating": 3.5, "coordinates": {"latitude": 40.7559963313064, "longitude": -73.9424634196434}, "transactions": ["pickup", "delivery"], "price": "$", "location": {"address1": "1205 40th Ave", "address2": "", "address3": "", "city": "Long Island City", "zip_code": "11101", "country": "US", "state": "NY", "display_address": ["1205 40th Ave", "Long Island City, NY 11101"]}, "phone": "+17187843891", "display_phone": "(718) 784-3891", "distance": 2310.647175862433}, {"id": "0GftSP2dRwEzujkv2VKIgA", "alias": "wok-wok-southeast-asian-kitchen-new-york", "name": "Wok Wok Southeast Asian Kitchen", "image_url": "https://s3-media3.fl.yelpcdn.com/bphoto/XOc7n_rq6kYGXySwasouRQ/o.jpg", "is_closed": false, "url": "https://www.yelp.com/biz/wok-wok-southeast-asian-kitchen-new-york?adjust_creative=9gNmiWYX8uTbFBeTTvJMdA&utm_campaign=yelp_api_v3&utm_medium=api_v3_business_search&utm_source=9gNmiWYX8uTbFBeTTvJMdA", "review_count": 1156, "categories": [{"alias": "chinese", "title": "Chinese"}, {"alias": "malaysian", "title": "Malaysian"}, {"alias": "thai", "title": "Thai"}], "rating": 4.0, "coordinates": {"latitude": 40.7140555, "longitude": -73.9988387116394}, "transactions": ["pickup", "delivery"], "price": "$$", "location": {"address1": "11 Mott St", "address2": null, "address3": "", "city": "New York", "zip_code": "10013", "country": "US", "state": "NY", "display_address": ["11 Mott St", "New York, NY 10013"]}, "phone": "+19173883627", "display_phone": "(917) 388-3627", "distance": 5590.176266483338}, {"id": "3TMP2pncE-0LwoDukbaqlg", "alias": "cafe-hong-kong-new-york", "name": "Cafe Hong Kong", "image_url": "https://s3-media4.fl.yelpcdn.com/bphoto/bDw9MzoWTNySA6dRYUpHUw/o.jpg", "is_closed": false, "url": "https://www.yelp.com/biz/cafe-hong-kong-new-york?adjust_creative=9gNmiWYX8uTbFBeTTvJMdA&utm_campaign=yelp_api_v3&utm_medium=api_v3_business_search&utm_source=9gNmiWYX8uTbFBeTTvJMdA", "review_count": 194, "categories": [{"alias": "cantonese", "title": "Cantonese"}, {"alias": "hkcafe", "title": "Hong Kong Style Cafe"}], "rating": 3.5, "coordinates": {"latitude": 40.715206, "longitude": -73.997528}, "transactions": ["delivery"], "price": "$$", "location": {"address1": "51 Bayard St", "address2": "", "address3": "", "city": "New York", "zip_code": "10013", "country": "US", "state": "NY", "display_address": ["51 Bayard St", "New York, NY 10013"]}, "phone": "+12126085359", "display_phone": "(212) 608-5359", "distance": 5426.813106850811}, {"id": "5yHuB6cT4Y82u22kOziobw", "alias": "china-chef-restaurant-secaucus", "name": "China Chef Restaurant", "image_url": "https://s3-media3.fl.yelpcdn.com/bphoto/uLS-rDwAtXN5-fFeBM-vTg/o.jpg", "is_closed": false, "url": "https://www.yelp.com/biz/china-chef-restaurant-secaucus?adjust_creative=9gNmiWYX8uTbFBeTTvJMdA&utm_campaign=yelp_api_v3&utm_medium=api_v3_business_search&utm_source=9gNmiWYX8uTbFBeTTvJMdA", "review_count": 142, "categories": [{"alias": "dimsum", "title": "Dim Sum"}, {"alias": "bars", "title": "Bars"}], "rating": 3.0, "coordinates": {"latitude": 40.791615379318, "longitude": -74.0578033479041}, "transactions": ["pickup", "delivery"], "price": "$$", "location": {"address1": "1322 Paterson Plank Rd", "address2": "", "address3": "", "city": "Secaucus", "zip_code": "07094", "country": "US", "state": "NJ", "display_address": ["1322 Paterson Plank Rd", "Secaucus, NJ 07094"]}, "phone": "+12013486386", "display_phone": "(201) 348-6386", "distance": 8258.788078373887}, {"id": "C6NvtFvXo86_kEWi3qBYWQ", "alias": "golden-dragon-astoria", "name": "Golden Dragon", "image_url": "https://s3-media2.fl.yelpcdn.com/bphoto/eVBaF2NnGZu6OuVj4P6tyw/o.jpg", "is_closed": false, "url": "https://www.yelp.com/biz/golden-dragon-astoria?adjust_creative=9gNmiWYX8uTbFBeTTvJMdA&utm_campaign=yelp_api_v3&utm_medium=api_v3_business_search&utm_source=9gNmiWYX8uTbFBeTTvJMdA", "review_count": 94, "categories": [{"alias": "chinese", "title": "Chinese"}], "rating": 3.5, "coordinates": {"latitude": 40.76287, "longitude": -73.92097}, "transactions": ["pickup", "delivery"], "price": "$", "location": {"address1": "3406 31st Ave", "address2": "", "address3": "", "city": "Astoria", "zip_code": "11106", "country": "US", "state": "NY", "display_address": ["3406 31st Ave", "Astoria, NY 11106"]}, "phone": "+17187772727", "display_phone": "(718) 777-2727", "distance": 4123.634327849027}, {"id": "akWRnF0VFJLJD4uOnGWB-g", "alias": "po-wong-restaurant-union-city", "name": "Po Wong Restaurant", "image_url": "https://s3-media2.fl.yelpcdn.com/bphoto/YhJReX9GlKi3-HbFxi99dQ/o.jpg", "is_closed": false, "url": "https://www.yelp.com/biz/po-wong-restaurant-union-city?adjust_creative=9gNmiWYX8uTbFBeTTvJMdA&utm_campaign=yelp_api_v3&utm_medium=api_v3_business_search&utm_source=9gNmiWYX8uTbFBeTTvJMdA", "review_count": 38, "categories": [{"alias": "chinese", "title": "Chinese"}], "rating": 4.0, "coordinates": {"latitude": 40.758224, "longitude": -74.044303}, "transactions": ["delivery"], "price": "$", "location": {"address1": "617 Summit Ave", "address2": "", "address3": "", "city": "Union City", "zip_code": "07087", "country": "US", "state": "NJ", "display_address": ["617 Summit Ave", "Union City, NJ 07087"]}, "phone": "+12018672208", "display_phone": "(201) 867-2208", "distance": 6291.748321673885}, {"id": "vbL4Ef8zf4dmdR9Gyl5lkw", "alias": "taiwanese-gourmet-elmhurst-4", "name": "Taiwanese Gourmet", "image_url": "https://s3-media1.fl.yelpcdn.com/bphoto/Qbr720RO4HbWTRvcH8TVDg/o.jpg", "is_closed": false, "url": "https://www.yelp.com/biz/taiwanese-gourmet-elmhurst-4?adjust_creative=9gNmiWYX8uTbFBeTTvJMdA&utm_campaign=yelp_api_v3&utm_medium=api_v3_business_search&utm_source=9gNmiWYX8uTbFBeTTvJMdA", "review_count": 432, "categories": [{"alias": "taiwanese", "title": "Taiwanese"}, {"alias": "chinese", "title": "Chinese"}, {"alias": "asianfusion", "title": "Asian Fusion"}], "rating": 3.5, "coordinates": {"latitude": 40.739713, "longitude": -73.878766}, "transactions": ["delivery"], "price": "$$", "location": {"address1": "8402 Broadway", "address2": "", "address3": "", "city": "Elmhurst", "zip_code": "11373", "country": "US", "state": "NY", "display_address": ["8402 Broadway", "Elmhurst, NY 11373"]}, "phone": "+17184294818", "display_phone": "(718) 429-4818", "distance": 7947.370866575978}, {"id": "d6i6sGHtPmyUkHze5S1lIQ", "alias": "hunan-house-i-jersey-city", "name": "Hunan House I", "image_url": "https://s3-media1.fl.yelpcdn.com/bphoto/QYt56MVaztNNhMr08gOB4g/o.jpg", "is_closed": false, "url": "https://www.yelp.com/biz/hunan-house-i-jersey-city?adjust_creative=9gNmiWYX8uTbFBeTTvJMdA&utm_campaign=yelp_api_v3&utm_medium=api_v3_business_search&utm_source=9gNmiWYX8uTbFBeTTvJMdA", "review_count": 61, "categories": [{"alias": "chinese", "title": "Chinese"}], "rating": 4.0, "coordinates": {"latitude": 40.73047556900801, "longitude": -74.06261066333289}, "transactions": ["pickup", "delivery"], "price": "$", "location": {"address1": "382 Summit Ave", "address2": "", "address3": "", "city": "Jersey City", "zip_code": "07306", "country": "US", "state": "NJ", "display_address": ["382 Summit Ave", "Jersey City, NJ 07306"]}, "phone": "+12018769908", "display_phone": "(201) 876-9908", "distance": 8462.524917450224}, {"id": "MMotl_bi3-5JRra91A2jLA", "alias": "satay-malaysian-cuisine-hoboken-2", "name": "Satay Malaysian Cuisine", "image_url": "https://s3-media2.fl.yelpcdn.com/bphoto/6OnZfK9BX8PJR9u62BKWKA/o.jpg", "is_closed": false, "url": "https://www.yelp.com/biz/satay-malaysian-cuisine-hoboken-2?adjust_creative=9gNmiWYX8uTbFBeTTvJMdA&utm_campaign=yelp_api_v3&utm_medium=api_v3_business_search&utm_source=9gNmiWYX8uTbFBeTTvJMdA", "review_count": 601, "categories": [{"alias": "malaysian", "title": "Malaysian"}, {"alias": "chinese", "title": "Chinese"}, {"alias": "asianfusion", "title": "Asian Fusion"}], "rating": 4.0, "coordinates": {"latitude": 40.73731, "longitude": -74.03066}, "transactions": ["pickup", "delivery"], "price": "$$", "location": {"address1": "99 Washington St", "address2": null, "address3": "", "city": "Hoboken", "zip_code": "07030", "country": "US", "state": "NJ", "display_address": ["99 Washington St", "Hoboken, NJ 07030"]}, "phone": "+12013868688", "display_phone": "(201) 386-8688", "distance": 5694.103814163136}, {"id": "TxaxeiUqQqcFrWrerNqgXw", "alias": "no-1-chinese-restaurant-new-york", "name": "No 1 Chinese Restaurant", "image_url": "https://s3-media3.fl.yelpcdn.com/bphoto/oiMH5ZNzxBYKRX37GCzt_g/o.jpg", "is_closed": false, "url": "https://www.yelp.com/biz/no-1-chinese-restaurant-new-york?adjust_creative=9gNmiWYX8uTbFBeTTvJMdA&utm_campaign=yelp_api_v3&utm_medium=api_v3_business_search&utm_source=9gNmiWYX8uTbFBeTTvJMdA", "review_count": 53, "categories": [{"alias": "chinese", "title": "Chinese"}], "rating": 2.5, "coordinates": {"latitude": 40.732437, "longitude": -73.982139}, "transactions": ["pickup", "delivery"], "price": "$", "location": {"address1": "265 1st Ave", "address2": "", "address3": "", "city": "New York", "zip_code": "10003", "country": "US", "state": "NY", "display_address": ["265 1st Ave", "New York, NY 10003"]}, "phone": "+12125290539", "display_phone": "(212) 529-0539", "distance": 3158.036105289154}, {"id": "UFeM5FPHjl1y8RQ4tvBSog", "alias": "happy-family-chinese-restaurant-new-york", "name": "Happy Family Chinese Restaurant", "image_url": "https://s3-media1.fl.yelpcdn.com/bphoto/t_PfRhfvlACSOAMioDgCjA/o.jpg", "is_closed": false, "url": "https://www.yelp.com/biz/happy-family-chinese-restaurant-new-york?adjust_creative=9gNmiWYX8uTbFBeTTvJMdA&utm_campaign=yelp_api_v3&utm_medium=api_v3_business_search&utm_source=9gNmiWYX8uTbFBeTTvJMdA", "review_count": 112, "categories": [{"alias": "chinese", "title": "Chinese"}], "rating": 2.5, "coordinates": {"latitude": 40.7601737976074, "longitude": -73.9955139160156}, "transactions": ["pickup", "delivery"], "price": "$$", "location": {"address1": "500 W 43rd St", "address2": "Ste 1", "address3": "", "city": "New York", "zip_code": "10036", "country": "US", "state": "NY", "display_address": ["500 W 43rd St", "Ste 1", "New York, NY 10036"]}, "phone": "+12126956035", "display_phone": "(212) 695-6035", "distance": 2181.1854498825996}, {"id": "LYp3izplqg0x-h9CBlb-MQ", "alias": "china-gourmet-new-york-2", "name": "China Gourmet", "image_url": "https://s3-media2.fl.yelpcdn.com/bphoto/NaQpAKpdAnTwemaoJ7stMw/o.jpg", "is_closed": false, "url": "https://www.yelp.com/biz/china-gourmet-new-york-2?adjust_creative=9gNmiWYX8uTbFBeTTvJMdA&utm_campaign=yelp_api_v3&utm_medium=api_v3_business_search&utm_source=9gNmiWYX8uTbFBeTTvJMdA", "review_count": 261, "categories": [{"alias": "chinese", "title": "Chinese"}], "rating": 2.5, "coordinates": {"latitude": 40.76381, "longitude": -73.98524}, "transactions": ["pickup", "delivery"], "price": "$", "location": {"address1": "877 8th Ave", "address2": "", "address3": "", "city": "New York", "zip_code": "10019", "country": "US", "state": "NY", "display_address": ["877 8th Ave", "New York, NY 10019"]}, "phone": "+12122468181", "display_phone": "(212) 246-8181", "distance": 1424.1366391988367}, {"id": "2YYXbDTL9G6LyuNvZGCvyQ", "alias": "astoria-dragon-and-phoenix-astoria", "name": "Astoria Dragon and Phoenix", "image_url": "https://s3-media1.fl.yelpcdn.com/bphoto/zBl00C0vZSflmGJr71ifvw/o.jpg", "is_closed": false, "url": "https://www.yelp.com/biz/astoria-dragon-and-phoenix-astoria?adjust_creative=9gNmiWYX8uTbFBeTTvJMdA&utm_campaign=yelp_api_v3&utm_medium=api_v3_business_search&utm_source=9gNmiWYX8uTbFBeTTvJMdA", "review_count": 22, "categories": [{"alias": "chinese", "title": "Chinese"}], "rating": 4.0, "coordinates": {"latitude": 40.770487844385265, "longitude": -73.91895974878074}, "transactions": ["pickup", "delivery"], "location": {"address1": "29-21 Astoria Blvd", "address2": "", "address3": null, "city": "Astoria", "zip_code": "11102", "country": "US", "state": "NY", "display_address": ["29-21 Astoria Blvd", "Astoria, NY 11102"]}, "phone": "+17188657656", "display_phone": "(718) 865-7656", "distance": 4444.399612885761}, {"id": "zqyGYIiCXL1Hz8KVZxbylQ", "alias": "hello-saigon-new-york", "name": "Hello Saigon", "image_url": "https://s3-media2.fl.yelpcdn.com/bphoto/LYw6wPijKa6o2hxZXshVdA/o.jpg", "is_closed": false, "url": "https://www.yelp.com/biz/hello-saigon-new-york?adjust_creative=9gNmiWYX8uTbFBeTTvJMdA&utm_campaign=yelp_api_v3&utm_medium=api_v3_business_search&utm_source=9gNmiWYX8uTbFBeTTvJMdA", "review_count": 384, "categories": [{"alias": "vietnamese", "title": "Vietnamese"}, {"alias": "sandwiches", "title": "Sandwiches"}, {"alias": "noodles", "title": "Noodles"}], "rating": 4.0, "coordinates": {"latitude": 40.7289399955423, "longitude": -74.0009501203895}, "transactions": ["pickup", "delivery"], "price": "$$", "location": {"address1": "180 Bleecker St", "address2": "", "address3": null, "city": "New York", "zip_code": "10012", "country": "US", "state": "NY", "display_address": ["180 Bleecker St", "New York, NY 10012"]}, "phone": "+12122542088", "display_phone": "(212) 254-2088", "distance": 4276.631271688685}, {"id": "8td6qiBvZ-En6gSpPjXWzQ", "alias": "shanghai-zhen-gong-fu-elmhurst-4", "name": "Shanghai Zhen Gong Fu", "image_url": "https://s3-media1.fl.yelpcdn.com/bphoto/9tYWaWSW_411waKewPvDmw/o.jpg", "is_closed": false, "url": "https://www.yelp.com/biz/shanghai-zhen-gong-fu-elmhurst-4?adjust_creative=9gNmiWYX8uTbFBeTTvJMdA&utm_campaign=yelp_api_v3&utm_medium=api_v3_business_search&utm_source=9gNmiWYX8uTbFBeTTvJMdA", "review_count": 227, "categories": [{"alias": "shanghainese", "title": "Shanghainese"}, {"alias": "noodles", "title": "Noodles"}, {"alias": "seafood", "title": "Seafood"}], "rating": 4.5, "coordinates": {"latitude": 40.736158616759205, "longitude": -73.87726341410527}, "transactions": ["pickup", "delivery"], "price": "$$", "location": {"address1": "86-16 Queens Blvd", "address2": "", "address3": null, "city": "Elmhurst", "zip_code": "11373", "country": "US", "state": "NY", "display_address": ["86-16 Queens Blvd", "Elmhurst, NY 11373"]}, "phone": "+17186722200", "display_phone": "(718) 672-2200", "distance": 8186.582819034485}, {"id": "fVPF1SCGg37D8gRw1UQIuQ", "alias": "king-dragon-new-york", "name": "King Dragon", "image_url": "https://s3-media1.fl.yelpcdn.com/bphoto/bj9aKcummibN1zuSGfy_6g/o.jpg", "is_closed": false, "url": "https://www.yelp.com/biz/king-dragon-new-york?adjust_creative=9gNmiWYX8uTbFBeTTvJMdA&utm_campaign=yelp_api_v3&utm_medium=api_v3_business_search&utm_source=9gNmiWYX8uTbFBeTTvJMdA", "review_count": 17, "categories": [{"alias": "chinese", "title": "Chinese"}], "rating": 3.0, "coordinates": {"latitude": 40.79287, "longitude": -73.95035}, "transactions": ["pickup", "delivery"], "price": "$", "location": {"address1": "1548 Madison Ave", "address2": "", "address3": "", "city": "New York", "zip_code": "10029", "country": "US", "state": "NY", "display_address": ["1548 Madison Ave", "New York, NY 10029"]}, "phone": "+12123696788", "display_phone": "(212) 369-6788", "distance": 4082.0175631473844}, {"id": "uuDvk4EsRUkeTj4jVKJOpw", "alias": "rue-57-new-york-3", "name": "Rue 57", "image_url": "https://s3-media4.fl.yelpcdn.com/bphoto/k-rIZoELseGHwn5oTXkEXw/o.jpg", "is_closed": false, "url": "https://www.yelp.com/biz/rue-57-new-york-3?adjust_creative=9gNmiWYX8uTbFBeTTvJMdA&utm_campaign=yelp_api_v3&utm_medium=api_v3_business_search&utm_source=9gNmiWYX8uTbFBeTTvJMdA", "review_count": 1275, "categories": [{"alias": "french", "title": "French"}, {"alias": "sushi", "title": "Sushi Bars"}, {"alias": "asianfusion", "title": "Asian Fusion"}], "rating": 3.5, "coordinates": {"latitude": 40.7640285260993, "longitude": -73.9770378404755}, "transactions": ["pickup", "delivery"], "price": "$$$", "location": {"address1": "60 W 57th St", "address2": "", "address3": "", "city": "New York", "zip_code": "10019", "country": "US", "state": "NY", "display_address": ["60 W 57th St", "New York, NY 10019"]}, "phone": "+12123075656", "display_phone": "(212) 307-5656", "distance": 828.5336319862867}, {"id": "Q85ScF9s6vlS5_i453AFvg", "alias": "tangy-noodle-new-york", "name": "Tangy Noodle", "image_url": "https://s3-media3.fl.yelpcdn.com/bphoto/CXgBlH-volea4yZw_iERGA/o.jpg", "is_closed": false, "url": "https://www.yelp.com/biz/tangy-noodle-new-york?adjust_creative=9gNmiWYX8uTbFBeTTvJMdA&utm_campaign=yelp_api_v3&utm_medium=api_v3_business_search&utm_source=9gNmiWYX8uTbFBeTTvJMdA", "review_count": 25, "categories": [{"alias": "noodles", "title": "Noodles"}, {"alias": "dimsum", "title": "Dim Sum"}], "rating": 4.5, "coordinates": {"latitude": 40.740203, "longitude": -74.00193}, "transactions": ["pickup", "delivery"], "location": {"address1": "98 8th Ave", "address2": "", "address3": null, "city": "New York", "zip_code": "10011", "country": "US", "state": "NY", "display_address": ["98 8th Ave", "New York, NY 10011"]}, "phone": "+19172614931", "display_phone": "(917) 261-4931", "distance": 3444.124221272929}, {"id": "56wxE888GknVcUeAXBfqFw", "alias": "shanghai-lee-brooklyn-2", "name": "Shanghai Lee", "image_url": "https://s3-media1.fl.yelpcdn.com/bphoto/Ik8wVX7R5O_H4qKzX4pjiQ/o.jpg", "is_closed": false, "url": "https://www.yelp.com/biz/shanghai-lee-brooklyn-2?adjust_creative=9gNmiWYX8uTbFBeTTvJMdA&utm_campaign=yelp_api_v3&utm_medium=api_v3_business_search&utm_source=9gNmiWYX8uTbFBeTTvJMdA", "review_count": 140, "categories": [{"alias": "chinese", "title": "Chinese"}], "rating": 3.0, "coordinates": {"latitude": 40.7318, "longitude": -73.9582099}, "transactions": ["delivery"], "price": "$", "location": {"address1": "157 Franklin St", "address2": "", "address3": "", "city": "Brooklyn", "zip_code": "11222", "country": "US", "state": "NY", "display_address": ["157 Franklin St", "Brooklyn, NY 11222"]}, "phone": "+17183496716", "display_phone": "(718) 349-6716", "distance": 3190.7945940370782}, {"id": "98SsKXNs37ohAQERZbBPJg", "alias": "king-food-chen-new-york", "name": "King Food Chen", "image_url": "https://s3-media3.fl.yelpcdn.com/bphoto/Yc5_alFpmw5JEA5XdO4umg/o.jpg", "is_closed": false, "url": "https://www.yelp.com/biz/king-food-chen-new-york?adjust_creative=9gNmiWYX8uTbFBeTTvJMdA&utm_campaign=yelp_api_v3&utm_medium=api_v3_business_search&utm_source=9gNmiWYX8uTbFBeTTvJMdA", "review_count": 78, "categories": [{"alias": "chinese", "title": "Chinese"}], "rating": 3.0, "coordinates": {"latitude": 40.7860382020165, "longitude": -73.9760234963299}, "transactions": ["delivery"], "price": "$", "location": {"address1": "489 Amsterdam Ave", "address2": null, "address3": null, "city": "New York", "zip_code": "10024", "country": "US", "state": "NY", "display_address": ["489 Amsterdam Ave", "New York, NY 10024"]}, "phone": "+12127871888", "display_phone": "(212) 787-1888", "distance": 3036.0528981241077}, {"id": "Mzt7J53rOihwxIt41SH7vg", "alias": "e-a-k-ramen-by-machida-shoten-west-village-new-york-2", "name": "E.A.K Ramen By Machida Shoten \u00a0West Village", "image_url": "https://s3-media2.fl.yelpcdn.com/bphoto/wPcUvWcK-Gyz5SRQr4l7eg/o.jpg", "is_closed": false, "url": "https://www.yelp.com/biz/e-a-k-ramen-by-machida-shoten-west-village-new-york-2?adjust_creative=9gNmiWYX8uTbFBeTTvJMdA&utm_campaign=yelp_api_v3&utm_medium=api_v3_business_search&utm_source=9gNmiWYX8uTbFBeTTvJMdA", "review_count": 375, "categories": [{"alias": "ramen", "title": "Ramen"}, {"alias": "noodles", "title": "Noodles"}, {"alias": "cocktailbars", "title": "Cocktail Bars"}], "rating": 4.0, "coordinates": {"latitude": 40.73568, "longitude": -73.99837}, "transactions": ["pickup", "delivery"], "price": "$$", "location": {"address1": "469 6th Ave", "address2": null, "address3": "", "city": "New York", "zip_code": "10011", "country": "US", "state": "NY", "display_address": ["469 6th Ave", "New York, NY 10011"]}, "phone": "+16468632027", "display_phone": "(646) 863-2027", "distance": 3562.450543870002}, {"id": "rpIMYwZhRJZKl0-AUgUrjw", "alias": "the-orchard-room-new-york", "name": "The Orchard Room", "image_url": "https://s3-media4.fl.yelpcdn.com/bphoto/XLidYb4GDc_DybGvbMIzXA/o.jpg", "is_closed": false, "url": "https://www.yelp.com/biz/the-orchard-room-new-york?adjust_creative=9gNmiWYX8uTbFBeTTvJMdA&utm_campaign=yelp_api_v3&utm_medium=api_v3_business_search&utm_source=9gNmiWYX8uTbFBeTTvJMdA", "review_count": 18, "categories": [{"alias": "bars", "title": "Bars"}, {"alias": "dimsum", "title": "Dim Sum"}, {"alias": "venues", "title": "Venues & Event Spaces"}], "rating": 4.5, "coordinates": {"latitude": 40.719365, "longitude": -73.989322}, "transactions": [], "location": {"address1": "120 Orchard St", "address2": null, "address3": "", "city": "New York", "zip_code": "10002", "country": "US", "state": "NY", "display_address": ["120 Orchard St", "New York, NY 10002"]}, "phone": "+16467209791", "display_phone": "(646) 720-9791", "distance": 4728.341304483195}, {"id": "UB23VDCxby5dFVfsMpuXbQ", "alias": "south-river-fish-village-queens", "name": "South River Fish Village", "image_url": "https://s3-media1.fl.yelpcdn.com/bphoto/V4ljg2SoIKYqWvfCq8dAsQ/o.jpg", "is_closed": false, "url": "https://www.yelp.com/biz/south-river-fish-village-queens?adjust_creative=9gNmiWYX8uTbFBeTTvJMdA&utm_campaign=yelp_api_v3&utm_medium=api_v3_business_search&utm_source=9gNmiWYX8uTbFBeTTvJMdA", "review_count": 1, "categories": [{"alias": "chinese", "title": "Chinese"}, {"alias": "bbq", "title": "Barbeque"}, {"alias": "seafood", "title": "Seafood"}], "rating": 5.0, "coordinates": {"latitude": 40.741408, "longitude": -73.882564}, "transactions": [], "location": {"address1": "8202 45th Ave", "address2": "", "address3": null, "city": "Queens", "zip_code": "11373", "country": "US", "state": "NY", "display_address": ["8202 45th Ave", "Queens, NY 11373"]}, "phone": "+17182556776", "display_phone": "(718) 255-6776", "distance": 7594.009711932809}, {"id": "5ccJFGa6crpptt9tW0YKAA", "alias": "new-grand-buffet-long-island-city", "name": "New Grand Buffet", "image_url": "https://s3-media2.fl.yelpcdn.com/bphoto/wg2oye6ZJ77NOyV6tMvIZQ/o.jpg", "is_closed": false, "url": "https://www.yelp.com/biz/new-grand-buffet-long-island-city?adjust_creative=9gNmiWYX8uTbFBeTTvJMdA&utm_campaign=yelp_api_v3&utm_medium=api_v3_business_search&utm_source=9gNmiWYX8uTbFBeTTvJMdA", "review_count": 195, "categories": [{"alias": "chinese", "title": "Chinese"}, {"alias": "buffets", "title": "Buffets"}], "rating": 2.0, "coordinates": {"latitude": 40.752193532499, "longitude": -73.9149212837219}, "transactions": ["pickup"], "price": "$$", "location": {"address1": "34-45 48th St", "address2": "", "address3": "", "city": "Long Island City", "zip_code": "11101", "country": "US", "state": "NY", "display_address": ["34-45 48th St", "Long Island City, NY 11101"]}, "phone": "+17182788889", "display_phone": "(718) 278-8889", "distance": 4668.393222577876}, {"id": "wcrra8bgoqXVcZpMM5fE1g", "alias": "fishmarket-ii-new-york", "name": "Fishmarket II", "image_url": "https://s3-media1.fl.yelpcdn.com/bphoto/idb_g8dn3h8vHFDZCb9WVQ/o.jpg", "is_closed": false, "url": "https://www.yelp.com/biz/fishmarket-ii-new-york?adjust_creative=9gNmiWYX8uTbFBeTTvJMdA&utm_campaign=yelp_api_v3&utm_medium=api_v3_business_search&utm_source=9gNmiWYX8uTbFBeTTvJMdA", "review_count": 26, "categories": [{"alias": "malaysian", "title": "Malaysian"}], "rating": 5.0, "coordinates": {"latitude": 40.72835, "longitude": -73.98204}, "transactions": ["pickup", "delivery"], "location": {"address1": "171 Avenue A", "address2": "", "address3": null, "city": "New York", "zip_code": "10009", "country": "US", "state": "NY", "display_address": ["171 Avenue A", "New York, NY 10009"]}, "phone": "+16469227004", "display_phone": "(646) 922-7004", "distance": 3581.711807591435}, {"id": "X5HmML-G--nt4lc5VQC2uQ", "alias": "new-asia-new-york", "name": "New Asia", "image_url": "https://s3-media2.fl.yelpcdn.com/bphoto/BTkF1KmbvxNGxL16Q-4M0Q/o.jpg", "is_closed": false, "url": "https://www.yelp.com/biz/new-asia-new-york?adjust_creative=9gNmiWYX8uTbFBeTTvJMdA&utm_campaign=yelp_api_v3&utm_medium=api_v3_business_search&utm_source=9gNmiWYX8uTbFBeTTvJMdA", "review_count": 58, "categories": [{"alias": "chinese", "title": "Chinese"}], "rating": 2.0, "coordinates": {"latitude": 40.7918192446232, "longitude": -73.972065076232}, "transactions": ["pickup", "delivery"], "price": "$$", "location": {"address1": "666 Amsterdam Ave", "address2": "", "address3": "", "city": "New York", "zip_code": "10025", "country": "US", "state": "NY", "display_address": ["666 Amsterdam Ave", "New York, NY 10025"]}, "phone": "+16466783689", "display_phone": "(646) 678-3689", "distance": 3635.0880364053187}, {"id": "FK5RnNOUxxIImPVcAHGM4w", "alias": "great-wall-chinese-restaurant-weehawken", "name": "Great Wall Chinese Restaurant", "image_url": "https://s3-media3.fl.yelpcdn.com/bphoto/k01tD6dRp9Pi1tqWOrLM-g/o.jpg", "is_closed": false, "url": "https://www.yelp.com/biz/great-wall-chinese-restaurant-weehawken?adjust_creative=9gNmiWYX8uTbFBeTTvJMdA&utm_campaign=yelp_api_v3&utm_medium=api_v3_business_search&utm_source=9gNmiWYX8uTbFBeTTvJMdA", "review_count": 27, "categories": [{"alias": "chinese", "title": "Chinese"}], "rating": 3.5, "coordinates": {"latitude": 40.7737819079407, "longitude": -74.0202113841939}, "transactions": ["delivery"], "price": "$", "location": {"address1": "4100 Park Ave", "address2": "", "address3": "", "city": "Weehawken", "zip_code": "07086", "country": "US", "state": "NJ", "display_address": ["4100 Park Ave", "Weehawken, NJ 07086"]}, "phone": "+12018648614", "display_phone": "(201) 864-8614", "distance": 4563.3473005271235}, {"id": "-FSwYW_xV__5KHTIc56B0Q", "alias": "rice-k-astoria", "name": "Rice K", "image_url": "https://s3-media4.fl.yelpcdn.com/bphoto/mOsd18dzR1ZUS_rI7a_y7g/o.jpg", "is_closed": false, "url": "https://www.yelp.com/biz/rice-k-astoria?adjust_creative=9gNmiWYX8uTbFBeTTvJMdA&utm_campaign=yelp_api_v3&utm_medium=api_v3_business_search&utm_source=9gNmiWYX8uTbFBeTTvJMdA", "review_count": 133, "categories": [{"alias": "sushi", "title": "Sushi Bars"}, {"alias": "asianfusion", "title": "Asian Fusion"}, {"alias": "chinese", "title": "Chinese"}], "rating": 4.0, "coordinates": {"latitude": 40.774743, "longitude": -73.913172}, "transactions": ["pickup", "delivery"], "price": "$$", "location": {"address1": "29-21 23rd Ave", "address2": "", "address3": null, "city": "Astoria", "zip_code": "11105", "country": "US", "state": "NY", "display_address": ["29-21 23rd Ave", "Astoria, NY 11105"]}, "phone": "+17186068508", "display_phone": "(718) 606-8508", "distance": 5055.557209297091}, {"id": "DdoubmNfPNRi9xNmcQ64ug", "alias": "tsurutontan-udon-noodle-brasserie-midtown-new-york", "name": "Tsurutontan Udon Noodle Brasserie - Midtown", "image_url": "https://s3-media4.fl.yelpcdn.com/bphoto/nB18W8qowyjMR8mEFGrIug/o.jpg", "is_closed": false, "url": "https://www.yelp.com/biz/tsurutontan-udon-noodle-brasserie-midtown-new-york?adjust_creative=9gNmiWYX8uTbFBeTTvJMdA&utm_campaign=yelp_api_v3&utm_medium=api_v3_business_search&utm_source=9gNmiWYX8uTbFBeTTvJMdA", "review_count": 681, "categories": [{"alias": "japanese", "title": "Japanese"}, {"alias": "noodles", "title": "Noodles"}, {"alias": "soup", "title": "Soup"}], "rating": 3.5, "coordinates": {"latitude": 40.75830659999292, "longitude": -73.98080074109362}, "transactions": ["pickup", "delivery"], "price": "$$", "location": {"address1": "64 W 48th St", "address2": "", "address3": null, "city": "New York", "zip_code": "10036", "country": "US", "state": "NY", "display_address": ["64 W 48th St", "New York, NY 10036"]}, "phone": "+12125752282", "display_phone": "(212) 575-2282", "distance": 950.5022869681122}, {"id": "AILf_L7I9vJ2pyHmSo9v8Q", "alias": "obao-new-york-4", "name": "OBAO", "image_url": "https://s3-media2.fl.yelpcdn.com/bphoto/VR7GgeE5JEvtDI5LvW4-Sg/o.jpg", "is_closed": false, "url": "https://www.yelp.com/biz/obao-new-york-4?adjust_creative=9gNmiWYX8uTbFBeTTvJMdA&utm_campaign=yelp_api_v3&utm_medium=api_v3_business_search&utm_source=9gNmiWYX8uTbFBeTTvJMdA", "review_count": 1110, "categories": [{"alias": "asianfusion", "title": "Asian Fusion"}, {"alias": "thai", "title": "Thai"}, {"alias": "vietnamese", "title": "Vietnamese"}], "rating": 3.5, "coordinates": {"latitude": 40.75713, "longitude": -73.96857}, "transactions": ["pickup", "delivery"], "price": "$$", "location": {"address1": "222 E 53rd St", "address2": "", "address3": "", "city": "New York", "zip_code": "10022", "country": "US", "state": "NY", "display_address": ["222 E 53rd St", "New York, NY 10022"]}, "phone": "+12123085588", "display_phone": "(212) 308-5588", "distance": 240.6992336707681}, {"id": "6uPtOyrxXV8y1y8pvLU2pA", "alias": "pic-up-stix-new-york-2", "name": "Pic Up Stix", "image_url": "https://s3-media2.fl.yelpcdn.com/bphoto/XbaQu1Z8Xx4zsJ7ABYN1SQ/o.jpg", "is_closed": false, "url": "https://www.yelp.com/biz/pic-up-stix-new-york-2?adjust_creative=9gNmiWYX8uTbFBeTTvJMdA&utm_campaign=yelp_api_v3&utm_medium=api_v3_business_search&utm_source=9gNmiWYX8uTbFBeTTvJMdA", "review_count": 82, "categories": [{"alias": "chinese", "title": "Chinese"}], "rating": 3.0, "coordinates": {"latitude": 40.78259, "longitude": -73.95352}, "transactions": ["pickup", "delivery"], "price": "$", "location": {"address1": "1372 Lexington Ave", "address2": "", "address3": "", "city": "New York", "zip_code": "10128", "country": "US", "state": "NY", "display_address": ["1372 Lexington Ave", "New York, NY 10128"]}, "phone": "+12128607600", "display_phone": "(212) 860-7600", "distance": 2928.38981446726}, {"id": "EV2grf7NhNHQTmBXfu1-NA", "alias": "dragon-gate-chinese-cuisine-astoria-2", "name": "Dragon Gate Chinese Cuisine", "image_url": "https://s3-media1.fl.yelpcdn.com/bphoto/eQNd1vR4R1oqAjDznyCvqg/o.jpg", "is_closed": false, "url": "https://www.yelp.com/biz/dragon-gate-chinese-cuisine-astoria-2?adjust_creative=9gNmiWYX8uTbFBeTTvJMdA&utm_campaign=yelp_api_v3&utm_medium=api_v3_business_search&utm_source=9gNmiWYX8uTbFBeTTvJMdA", "review_count": 36, "categories": [{"alias": "chinese", "title": "Chinese"}], "rating": 4.0, "coordinates": {"latitude": 40.778622, "longitude": -73.9026148701016}, "transactions": ["delivery"], "price": "$$", "location": {"address1": "1944 37th St", "address2": "", "address3": "", "city": "Astoria", "zip_code": "11105", "country": "US", "state": "NY", "display_address": ["1944 37th St", "Astoria, NY 11105"]}, "phone": "+17182780799", "display_phone": "(718) 278-0799", "distance": 6039.268670380971}, {"id": "Nbqzy3ea5_x2zXWkdWlUIQ", "alias": "sake-bar-hagi-new-york-7", "name": "Sake Bar Hagi", "image_url": "https://s3-media1.fl.yelpcdn.com/bphoto/sCx4VVNwWQHKc7GX5goVAQ/o.jpg", "is_closed": false, "url": "https://www.yelp.com/biz/sake-bar-hagi-new-york-7?adjust_creative=9gNmiWYX8uTbFBeTTvJMdA&utm_campaign=yelp_api_v3&utm_medium=api_v3_business_search&utm_source=9gNmiWYX8uTbFBeTTvJMdA", "review_count": 415, "categories": [{"alias": "izakaya", "title": "Izakaya"}, {"alias": "tapas", "title": "Tapas Bars"}, {"alias": "noodles", "title": "Noodles"}], "rating": 4.0, "coordinates": {"latitude": 40.762764505922895, "longitude": -73.9849770740243}, "transactions": ["pickup", "delivery"], "price": "$$", "location": {"address1": "245 W 51st St", "address2": "", "address3": "", "city": "New York", "zip_code": "10019", "country": "US", "state": "NY", "display_address": ["245 W 51st St", "New York, NY 10019"]}, "phone": "+12129562429", "display_phone": "(212) 956-2429", "distance": 1357.3227054513218}, {"id": "Zx44jCgDv1TwKMGzcXajIQ", "alias": "taste-good-malaysian-cuisine-elmhurst", "name": "Taste Good Malaysian Cuisine", "image_url": "https://s3-media2.fl.yelpcdn.com/bphoto/-gbB6Uq5joT2dKPasC_n5g/o.jpg", "is_closed": false, "url": "https://www.yelp.com/biz/taste-good-malaysian-cuisine-elmhurst?adjust_creative=9gNmiWYX8uTbFBeTTvJMdA&utm_campaign=yelp_api_v3&utm_medium=api_v3_business_search&utm_source=9gNmiWYX8uTbFBeTTvJMdA", "review_count": 786, "categories": [{"alias": "malaysian", "title": "Malaysian"}, {"alias": "noodles", "title": "Noodles"}, {"alias": "soup", "title": "Soup"}], "rating": 4.0, "coordinates": {"latitude": 40.7417090264307, "longitude": -73.8821911811829}, "transactions": ["delivery"], "price": "$$", "location": {"address1": "82-18 45th Ave", "address2": "", "address3": "", "city": "Elmhurst", "zip_code": "11373", "country": "US", "state": "NY", "display_address": ["82-18 45th Ave", "Elmhurst, NY 11373"]}, "phone": "+17188988001", "display_phone": "(718) 898-8001", "distance": 7612.732443954043}], "total": 3300, "region": {"center": {"longitude": -73.96957397460938, "latitude": 40.75917470627005}}}